[
  {
    "type": "Liquor",
    "name": "Myth Nightclub C Element Bistro",
    "lat": 30.3253772,
    "long": -81.6533019
  },
  {
    "type": "Liquor",
    "name": "Eclipse Bar Riverside",
    "lat": 30.2887067,
    "long": -81.7140385
  },
  {
    "type": "Liquor",
    "name": "Cuba Libre Ultra Lounge",
    "lat": 30.305444,
    "long": -81.637404
  },
  {
    "type": "Liquor",
    "name": "theLOFT",
    "lat": 30.313705,
    "long": -81.695619
  },
  {
    "type": "Liquor",
    "name": "The House of Lights",
    "lat": 30.3608189,
    "long": -81.6498538
  },
  {
    "type": "Liquor",
    "name": "Hoptingers",
    "lat": 30.3144027,
    "long": -81.6806013
  },
  {
    "type": "Liquor",
    "name": "Incahoots",
    "lat": 30.3212415,
    "long": -81.6757481
  },
  {
    "type": "Liquor",
    "name": "Birdies",
    "lat": 30.3144973,
    "long": -81.6811802
  },
  {
    "type": "Liquor",
    "name": "Centerfold Lounge",
    "lat": 30.2786568,
    "long": -81.6267397
  },
  {
    "type": "Liquor",
    "name": "Local Musicians Association of Jacksonville",
    "lat": 30.3025853,
    "long": -81.6301221
  },
  {
    "type": "Liquor",
    "name": "Park Place Lounge",
    "lat": 30.3135715,
    "long": -81.6955292
  },
  {
    "type": "Liquor",
    "name": "Flash Dancers",
    "lat": 30.2819944,
    "long": -81.7257488
  },
  {
    "type": "Liquor",
    "name": "X Lounge",
    "lat": 30.2899186,
    "long": -81.5936777
  },
  {
    "type": "Liquor",
    "name": "Elevation Lounge",
    "lat": 30.3740321,
    "long": -81.6644183
  },
  {
    "type": "Liquor",
    "name": "Live Bar Seafood",
    "lat": 30.325272,
    "long": -81.6531193
  },
  {
    "type": "Liquor",
    "name": "El Botanero",
    "lat": 30.278223,
    "long": -81.603747
  },
  {
    "type": "Liquor",
    "name": "Indigo VIP Restaurant Lounge",
    "lat": 30.3095203,
    "long": -81.7325695
  },
  {
    "type": "Liquor",
    "name": "Sinsation s",
    "lat": 30.2867793,
    "long": -81.634463
  },
  {
    "type": "Liquor",
    "name": "Moncrief Liquor Lounge",
    "lat": 30.3766667,
    "long": -81.6908333
  },
  {
    "type": "Liquor",
    "name": "Murray Hill Theatre",
    "lat": 30.3126773,
    "long": -81.719017
  },
  {
    "type": "Liquor",
    "name": "Club Lavilla Liquors",
    "lat": 30.3975955,
    "long": -81.7389656
  },
  {
    "type": "Liquor",
    "name": "Sugar Shack",
    "lat": 30.324988,
    "long": -81.7823049
  },
  {
    "type": "Liquor",
    "name": "Broken Spoke",
    "lat": 30.3362722,
    "long": -81.6023152
  },
  {
    "type": "Liquor",
    "name": "Breezy Jazz House Restaurant",
    "lat": 30.3120075,
    "long": -81.660749
  },
  {
    "type": "Liquor",
    "name": "Fifty Seven Heaven",
    "lat": 30.187314,
    "long": -81.7410637
  },
  {
    "type": "Liquor",
    "name": "White Knight Entertainment Lyon Events",
    "lat": 30.2807579,
    "long": -81.7153953
  },
  {
    "type": "Liquor",
    "name": "Library Bar Lounge",
    "lat": 30.3118732,
    "long": -81.6942185
  },
  {
    "type": "Liquor",
    "name": "Dynasty lounge",
    "lat": 30.2565382,
    "long": -81.6102817
  },
  {
    "type": "Liquor",
    "name": "Austin Karaoke",
    "lat": 30.2963086,
    "long": -81.6127125
  },
  {
    "type": "Liquor",
    "name": "Passions Gentlemens Club",
    "lat": 30.2872581,
    "long": -81.5570718
  },
  {
    "type": "Liquor",
    "name": "Triple s Bar and Lounge",
    "lat": 30.3315834,
    "long": -81.705127
  },
  {
    "type": "Liquor",
    "name": "Manifest Distilling",
    "lat": 30.3238911,
    "long": -81.6450508
  },
  {
    "type": "Liquor",
    "name": "Charlie E s Liquor cigar bar grill",
    "lat": 30.3088444,
    "long": -81.7357128
  },
  {
    "type": "Liquor",
    "name": "Emperors Gentlemen s Club Jacksonville",
    "lat": 30.2668588,
    "long": -81.6179957
  },
  {
    "type": "Liquor",
    "name": "Dapper D s Cigars Restaurant",
    "lat": 30.3262943,
    "long": -81.6565018
  },
  {
    "type": "Liquor",
    "name": "University",
    "lat": 30.2600656,
    "long": -81.6253638
  },
  {
    "type": "Liquor",
    "name": "Bay Street Hookah Lounge",
    "lat": 30.3254012,
    "long": -81.6534986
  },
  {
    "type": "Liquor",
    "name": "The Pillars Club",
    "lat": 30.3283469,
    "long": -81.6612034
  },
  {
    "type": "Liquor",
    "name": "Root Down",
    "lat": 30.3146744,
    "long": -81.6811111
  },
  {
    "type": "Liquor",
    "name": "Salaam Club",
    "lat": 30.2891765,
    "long": -81.5763509
  },
  {
    "type": "Liquor",
    "name": "Atlantis Lounge",
    "lat": 30.3283916,
    "long": -81.5868535
  },
  {
    "type": "Liquor",
    "name": "The RL Lounge",
    "lat": 30.3325945,
    "long": -81.6596214
  },
  {
    "type": "Liquor",
    "name": "Sheffield s at The Palace",
    "lat": 30.6716129,
    "long": -81.4641156
  },
  {
    "type": "Liquor",
    "name": "Sadler Ranch",
    "lat": 30.6403141,
    "long": -81.4565658
  },
  {
    "type": "Liquor",
    "name": "Palace Saloon",
    "lat": 30.6715999,
    "long": -81.4640737
  },
  {
    "type": "Liquor",
    "name": "Locals Cocktail Lounge",
    "lat": 30.6403217,
    "long": -81.4564971
  },
  {
    "type": "Liquor",
    "name": "The Pub",
    "lat": 30.594031,
    "long": -81.445006
  },
  {
    "type": "Liquor",
    "name": "The Goat",
    "lat": 30.6244487,
    "long": -81.5442428
  },
  {
    "type": "Liquor",
    "name": "Green Turtle Tavern",
    "lat": 30.6706295,
    "long": -81.4628754
  },
  {
    "type": "Liquor",
    "name": "Island Girl Cigar Bar Ponte Vedra Beach ",
    "lat": 30.2003731,
    "long": -81.3814317
  },
  {
    "type": "Liquor",
    "name": "Mulligan s Pub",
    "lat": 30.2053124,
    "long": -81.3837814
  },
  {
    "type": "Liquor",
    "name": " Ocean Bar Rooftop",
    "lat": 30.2171646,
    "long": -81.3714758
  },
  {
    "type": "Liquor",
    "name": "Alice and Pete s",
    "lat": 30.2022377,
    "long": -81.3859818
  },
  {
    "type": "Liquor",
    "name": "Nineteen at TPC Sawgrass",
    "lat": 30.1988468,
    "long": -81.3949356
  },
  {
    "type": "Liquor",
    "name": "Ruth s Chris Steak House",
    "lat": 30.2009929,
    "long": -81.3808745
  },
  {
    "type": "Liquor",
    "name": "Vernon s First Coast Kitchen Bar",
    "lat": 30.202249,
    "long": -81.3857364
  },
  {
    "type": "Liquor",
    "name": "LAMA St Augustine Clubhouse",
    "lat": 29.8362754,
    "long": -81.3228952
  },
  {
    "type": "Liquor",
    "name": "Trade Winds Lounge",
    "lat": 29.8930159,
    "long": -81.3115851
  },
  {
    "type": "Liquor",
    "name": "Stogies Jazz Club Listening",
    "lat": 29.8953826,
    "long": -81.3119848
  },
  {
    "type": "Liquor",
    "name": "The Tini Martini Bar",
    "lat": 29.8947735,
    "long": -81.3113632
  },
  {
    "type": "Liquor",
    "name": "The Pub on Anastasia",
    "lat": 29.891504,
    "long": -81.3001987
  },
  {
    "type": "Liquor",
    "name": "Crow Bar",
    "lat": 29.8901378,
    "long": -81.3287159
  },
  {
    "type": "Liquor",
    "name": "Kava Canvas Lounge",
    "lat": 29.8886885,
    "long": -81.3245223
  },
  {
    "type": "Liquor",
    "name": "The Vault at The Treasury",
    "lat": 29.8930142,
    "long": -81.3121218
  }
]