[
  {
    "type": "Liquor",
    "name": "Karamba Nightclub",
    "lat": 33.466025,
    "long": -112.04454
  },
  {
    "type": "Liquor",
    "name": "Hi score club",
    "lat": 33.4568458,
    "long": -112.0706699
  },
  {
    "type": "Liquor",
    "name": "Club Contact",
    "lat": 33.451198,
    "long": -112.0845011
  },
  {
    "type": "Liquor",
    "name": "Surge Nights",
    "lat": 33.4842616,
    "long": -112.0733931
  },
  {
    "type": "Liquor",
    "name": "Jaguars Phoenix",
    "lat": 33.4680417,
    "long": -112.112491
  },
  {
    "type": "Liquor",
    "name": "Furia Musical night club",
    "lat": 33.4660707,
    "long": -112.042911
  },
  {
    "type": "Liquor",
    "name": "Cruisin th",
    "lat": 33.4904251,
    "long": -112.065382
  },
  {
    "type": "Liquor",
    "name": "Bandaids Showlounge",
    "lat": 33.4763115,
    "long": -112.0654499
  },
  {
    "type": "Liquor",
    "name": "Dirty s Topless Sports Bar Grill",
    "lat": 33.4922821,
    "long": -112.1306629
  },
  {
    "type": "Liquor",
    "name": "Dwntwn",
    "lat": 33.4557452,
    "long": -112.0742447
  },
  {
    "type": "Liquor",
    "name": "Club Encounters",
    "lat": 33.4919819,
    "long": -112.1256046
  },
  {
    "type": "Liquor",
    "name": "Cheetahs Gentlemen s Club",
    "lat": 33.4957156,
    "long": -112.0646717
  },
  {
    "type": "Liquor",
    "name": "Topless Night Club",
    "lat": 33.4957413,
    "long": -112.0648197
  },
  {
    "type": "Liquor",
    "name": "Stacy s at Melrose",
    "lat": 33.4998132,
    "long": -112.082247
  },
  {
    "type": "Liquor",
    "name": "Funny Farm Lounge",
    "lat": 33.4808235,
    "long": -112.1501546
  },
  {
    "type": "Liquor",
    "name": "Bar Smith",
    "lat": 33.4484264,
    "long": -112.0717763
  },
  {
    "type": "Liquor",
    "name": "ESSEX Gentlemen s Club",
    "lat": 33.4945577,
    "long": -112.1486219
  },
  {
    "type": "Liquor",
    "name": "Stratus Event Center",
    "lat": 33.4960943,
    "long": -112.1538324
  },
  {
    "type": "Liquor",
    "name": "The Great Alaskan Bush Co",
    "lat": 33.4859897,
    "long": -112.1229482
  },
  {
    "type": "Liquor",
    "name": "Nana",
    "lat": 33.4465208,
    "long": -112.0831272
  },
  {
    "type": "Liquor",
    "name": "Evolutions Dance Night club",
    "lat": 33.4485729,
    "long": -112.0719027
  },
  {
    "type": "Liquor",
    "name": "El Tenampa Bar Nightclub",
    "lat": 33.4064455,
    "long": -112.0954541
  },
  {
    "type": "Liquor",
    "name": "Pachanga Disco Bar",
    "lat": 33.5017696,
    "long": -112.1003211
  },
  {
    "type": "Liquor",
    "name": "Mi Ranchito Dancing Bar",
    "lat": 33.4742642,
    "long": -112.0126841
  },
  {
    "type": "Liquor",
    "name": "PassionsPlace",
    "lat": 33.4818869,
    "long": -112.0309569
  },
  {
    "type": "Liquor",
    "name": "Rips Bar",
    "lat": 33.4837293,
    "long": -112.0473905
  },
  {
    "type": "Liquor",
    "name": "Bikini Lounge",
    "lat": 33.4591551,
    "long": -112.0915297
  },
  {
    "type": "Liquor",
    "name": "Bandoleros Phoenix Night Club",
    "lat": 33.4503255,
    "long": -112.0034367
  },
  {
    "type": "Liquor",
    "name": "El Capri",
    "lat": 33.4510892,
    "long": -112.0359295
  },
  {
    "type": "Liquor",
    "name": "Little Rituals",
    "lat": 33.4464073,
    "long": -112.0741383
  },
  {
    "type": "Liquor",
    "name": "Alma Original",
    "lat": 33.4648821,
    "long": -112.1175317
  },
  {
    "type": "Liquor",
    "name": "EL RANCHO BAR",
    "lat": 33.4065267,
    "long": -112.0934615
  },
  {
    "type": "Liquor",
    "name": "Kobalt",
    "lat": 33.4833086,
    "long": -112.0754149
  },
  {
    "type": "Liquor",
    "name": "Monarch Theatre",
    "lat": 33.4484314,
    "long": -112.0718684
  },
  {
    "type": "Liquor",
    "name": "Dilly Dally Lounge",
    "lat": 33.494588,
    "long": -112.0028241
  },
  {
    "type": "Liquor",
    "name": "Charlie s Phoenix",
    "lat": 33.5090472,
    "long": -112.0837962
  },
  {
    "type": "Liquor",
    "name": "The Xtra Frame Craft Cocktail Lounge",
    "lat": 33.4474646,
    "long": -112.0745381
  },
  {
    "type": "Liquor",
    "name": "Valley Bar",
    "lat": 33.449952,
    "long": -112.0743465
  },
  {
    "type": "Liquor",
    "name": "UnderTow Arcadia at Century Grand",
    "lat": 33.4954964,
    "long": -112.0029927
  },
  {
    "type": "Liquor",
    "name": "Boycott Bar",
    "lat": 33.4986923,
    "long": -112.082745
  },
  {
    "type": "Liquor",
    "name": "Luckys Indoor Outdoor",
    "lat": 33.4573277,
    "long": -112.0709894
  },
  {
    "type": "Liquor",
    "name": "Hideaway Lounge",
    "lat": 33.4801794,
    "long": -112.0122717
  },
  {
    "type": "Liquor",
    "name": "Sidecar Social Club",
    "lat": 33.48543,
    "long": -112.0691996
  },
  {
    "type": "Liquor",
    "name": "Empire Hookah Lounge",
    "lat": 33.4884071,
    "long": -112.1002273
  },
  {
    "type": "Liquor",
    "name": "The Rose Garden",
    "lat": 33.449847,
    "long": -112.074707
  },
  {
    "type": "Liquor",
    "name": "Bizzle s On Central",
    "lat": 33.413724,
    "long": -112.074049
  },
  {
    "type": "Liquor",
    "name": "La Chamba FOffice Lounge",
    "lat": 33.4891565,
    "long": -112.1513655
  },
  {
    "type": "Liquor",
    "name": "Crescent Ballroom",
    "lat": 33.4517982,
    "long": -112.0768576
  },
  {
    "type": "Liquor",
    "name": "Walter Studios",
    "lat": 33.4579849,
    "long": -112.082943
  },
  {
    "type": "Liquor",
    "name": "Club Classico Phoenix",
    "lat": 33.467318,
    "long": -112.1676907
  },
  {
    "type": "Liquor",
    "name": "Highball",
    "lat": 33.4653688,
    "long": -112.0828972
  },
  {
    "type": "Liquor",
    "name": "T A Cabaret",
    "lat": 33.4153153,
    "long": -112.0737591
  },
  {
    "type": "Liquor",
    "name": " Collective",
    "lat": 33.443157,
    "long": -112.0773985
  },
  {
    "type": "Liquor",
    "name": "Cobra Arcade Bar",
    "lat": 33.4568805,
    "long": -112.0709988
  },
  {
    "type": "Liquor",
    "name": "After Phoenix",
    "lat": 33.4016172,
    "long": -112.0002945
  },
  {
    "type": "Liquor",
    "name": "Le Girls Gentlemen s Club",
    "lat": 33.4459841,
    "long": -111.9707199
  },
  {
    "type": "Liquor",
    "name": "Aqua Night Club",
    "lat": 33.4660541,
    "long": -112.0441373
  },
  {
    "type": "Liquor",
    "name": "Club Luxx",
    "lat": 33.4485453,
    "long": -112.0716229
  },
  {
    "type": "Liquor",
    "name": "Down Pound Clubhouse",
    "lat": 33.4363022,
    "long": -112.0691547
  },
  {
    "type": "Liquor",
    "name": "Club Pink",
    "lat": 33.4222309,
    "long": -111.987532
  },
  {
    "type": "Liquor",
    "name": "The Vault AZ",
    "lat": 33.4217256,
    "long": -111.9977554
  },
  {
    "type": "Liquor",
    "name": "The Warehouse",
    "lat": 33.4179387,
    "long": -111.9962256
  },
  {
    "type": "Liquor",
    "name": "Gojo s Niteclub",
    "lat": 33.4801711,
    "long": -112.0165746
  },
  {
    "type": "Liquor",
    "name": "Los Arcos Bar And Dancing",
    "lat": 33.431586,
    "long": -112.0647183
  },
  {
    "type": "Liquor",
    "name": "Bitter Twisted Cocktail Parlour",
    "lat": 33.4470247,
    "long": -112.0739397
  },
  {
    "type": "Liquor",
    "name": "MAYA Day B Night",
    "lat": 33.501291,
    "long": -111.9228153
  },
  {
    "type": "Liquor",
    "name": "Spellbound Burlesque at Grey Hen",
    "lat": 33.4954934,
    "long": -112.0029957
  },
  {
    "type": "Liquor",
    "name": "Gypsy s Roadhouse",
    "lat": 33.4658926,
    "long": -111.9711107
  },
  {
    "type": "Liquor",
    "name": "A Sunny August",
    "lat": 33.4483939,
    "long": -112.0740374
  },
  {
    "type": "Liquor",
    "name": "Samsara Restaurant Lounge",
    "lat": 33.4578231,
    "long": -112.0684454
  },
  {
    "type": "Liquor",
    "name": "Lacuna Phoenix",
    "lat": 33.4582106,
    "long": -112.0677577
  },
  {
    "type": "Liquor",
    "name": "Christie s Cabaret Phoenix",
    "lat": 33.4491357,
    "long": -112.0138697
  },
  {
    "type": "Liquor",
    "name": "Cake Nightclub",
    "lat": 33.5008222,
    "long": -111.9219508
  },
  {
    "type": "Liquor",
    "name": "The Nash Jazz Club",
    "lat": 33.4588159,
    "long": -112.072325
  },
  {
    "type": "Liquor",
    "name": "La Boom Night Club",
    "lat": 33.5157065,
    "long": -112.1868239
  },
  {
    "type": "Liquor",
    "name": "LA MALQUERIDA CANTINA",
    "lat": 33.5109333,
    "long": -112.1692607
  },
  {
    "type": "Liquor",
    "name": "Christie s Cabaret Tempe",
    "lat": 33.3775301,
    "long": -111.9659228
  },
  {
    "type": "Liquor",
    "name": "El Muchacho Alegre",
    "lat": 33.5100674,
    "long": -112.178786
  },
  {
    "type": "Liquor",
    "name": "Cottontail Lounge",
    "lat": 33.501721,
    "long": -111.924227
  },
  {
    "type": "Liquor",
    "name": "El Hefe Scottsdale",
    "lat": 33.5013278,
    "long": -111.9220194
  },
  {
    "type": "Liquor",
    "name": " Nightclub",
    "lat": 33.4978881,
    "long": -111.923117
  },
  {
    "type": "Liquor",
    "name": "Rodeo Ranch",
    "lat": 33.4253302,
    "long": -111.9398269
  },
  {
    "type": "Liquor",
    "name": "United Club",
    "lat": 33.4370704,
    "long": -112.0085759
  },
  {
    "type": "Liquor",
    "name": "International Boutique Nightclub",
    "lat": 33.5008001,
    "long": -111.9219672
  },
  {
    "type": "Liquor",
    "name": "Bottled Blonde Scottsdale",
    "lat": 33.5015292,
    "long": -111.9227458
  },
  {
    "type": "Liquor",
    "name": "The Van Buren",
    "lat": 33.4512811,
    "long": -112.0792443
  },
  {
    "type": "Liquor",
    "name": "Glow Tempe",
    "lat": 33.4263531,
    "long": -111.9402094
  },
  {
    "type": "Liquor",
    "name": "Pretty Please Lounge",
    "lat": 33.5016097,
    "long": -111.9223644
  },
  {
    "type": "Liquor",
    "name": "Stadium Sports Bar Lounge",
    "lat": 33.4477227,
    "long": -112.0746375
  },
  {
    "type": "Liquor",
    "name": "The Womack",
    "lat": 33.5217982,
    "long": -112.0647204
  },
  {
    "type": "Liquor",
    "name": "Santa Fe Night Club",
    "lat": 33.4352023,
    "long": -112.294608
  },
  {
    "type": "Liquor",
    "name": "Riot House Scottsdale",
    "lat": 33.5014232,
    "long": -111.9220218
  },
  {
    "type": "Liquor",
    "name": "Pitic Restaurant and Lounge",
    "lat": 33.433513,
    "long": -112.048679
  },
  {
    "type": "Liquor",
    "name": "Xantolo Night Club",
    "lat": 33.6383679,
    "long": -112.147772
  },
  {
    "type": "Liquor",
    "name": "USO Phoenix",
    "lat": 33.4352284,
    "long": -111.9978273
  },
  {
    "type": "Liquor",
    "name": " th Street Cigar Shop Bar C Phoenix AZ",
    "lat": 33.4881343,
    "long": -112.0299767
  },
  {
    "type": "Liquor",
    "name": "The District",
    "lat": 33.50129,
    "long": -111.9228388
  },
  {
    "type": "Liquor",
    "name": "CasaMoreno Nightclub Phoenix, Arizona",
    "lat": 33.5255431,
    "long": -112.1174641
  },
  {
    "type": "Liquor",
    "name": "Skippers Lounge",
    "lat": 33.5257575,
    "long": -112.1520313
  },
  {
    "type": "Liquor",
    "name": "American Airlines Admirals Club between Gates A A ",
    "lat": 33.4369788,
    "long": -112.001701
  },
  {
    "type": "Liquor",
    "name": "HiFi Kitchen Cocktails",
    "lat": 33.5012857,
    "long": -111.9224458
  },
  {
    "type": "Liquor",
    "name": "Ch C A m Pang Lanes",
    "lat": 33.4577554,
    "long": -112.0710449
  },
  {
    "type": "Liquor",
    "name": "Cabana s Lounge",
    "lat": 33.5097963,
    "long": -112.169638
  },
  {
    "type": "Liquor",
    "name": "Palma",
    "lat": 33.45794,
    "long": -112.070877
  },
  {
    "type": "Liquor",
    "name": "American Airlines Admirals Club above Gates B B ",
    "lat": 33.4370828,
    "long": -111.996706
  },
  {
    "type": "Liquor",
    "name": "Good News Phoenix",
    "lat": 33.451545,
    "long": -112.0545069
  },
  {
    "type": "Liquor",
    "name": "The Sports Grill Nightlife",
    "lat": 33.5829806,
    "long": -112.1548388
  },
  {
    "type": "Liquor",
    "name": "Purple Turtle",
    "lat": 33.4952996,
    "long": -112.1661368
  },
  {
    "type": "Liquor",
    "name": "Enochs Sports Lounge",
    "lat": 33.5839458,
    "long": -112.2037288
  },
  {
    "type": "Liquor",
    "name": "Trilogy Hookah Lounge",
    "lat": 33.5831037,
    "long": -112.1832851
  },
  {
    "type": "Liquor",
    "name": "Bull Shooters",
    "lat": 33.5806236,
    "long": -112.1330566
  },
  {
    "type": "Liquor",
    "name": "Ojos Locos Sports Cantina Desert Sky Phoenix, AZ ",
    "lat": 33.4795091,
    "long": -112.2231728
  },
  {
    "type": "Liquor",
    "name": "La Perla Sports Club",
    "lat": 33.5383333,
    "long": -112.1822108
  },
  {
    "type": "Liquor",
    "name": "Robert Emmets Food Spirits",
    "lat": 33.5306069,
    "long": -112.1857797
  },
  {
    "type": "Liquor",
    "name": "Bar Louie Westgate Entertainment District",
    "lat": 33.5335803,
    "long": -112.2608731
  },
  {
    "type": "Liquor",
    "name": "Trevizo s Tavern",
    "lat": 33.5144329,
    "long": -112.1867284
  },
  {
    "type": "Liquor",
    "name": "Steve Molina s never cook for anyones Kitchen and B B",
    "lat": 33.5328662,
    "long": -112.149953
  },
  {
    "type": "Liquor",
    "name": "The Spot Sober Lounge",
    "lat": 33.5538063,
    "long": -112.1499938
  },
  {
    "type": "Liquor",
    "name": "Twinz E T Lounge",
    "lat": 33.5536927,
    "long": -112.1509855
  },
  {
    "type": "Liquor",
    "name": "M E Hookah",
    "lat": 33.5976746,
    "long": -112.2016101
  },
  {
    "type": "Liquor",
    "name": "Aguila s Hidaway",
    "lat": 33.4473946,
    "long": -112.3402699
  },
  {
    "type": "Liquor",
    "name": "Roman s Oasis",
    "lat": 33.435435,
    "long": -112.421393
  },
  {
    "type": "Liquor",
    "name": "Clubhouse Grill",
    "lat": 33.4842319,
    "long": -112.3653869
  },
  {
    "type": "Liquor",
    "name": "Crossroads Sports Lounge",
    "lat": 33.4565034,
    "long": -112.3419284
  },
  {
    "type": "Liquor",
    "name": "Aguila E s Hidaway Lighthouse",
    "lat": 33.4927765,
    "long": -112.3244166
  },
  {
    "type": "Liquor",
    "name": "Ambiente Nightclub",
    "lat": 33.4351399,
    "long": -112.342974
  },
  {
    "type": "Liquor",
    "name": "Goodyear Pebble Creek Renaissance Theater",
    "lat": 33.4809924,
    "long": -112.4082752
  },
  {
    "type": "Liquor",
    "name": "Longbranch Saloon",
    "lat": 33.4357121,
    "long": -112.286579
  },
  {
    "type": "Liquor",
    "name": "Rancho Silverado",
    "lat": 33.5081379,
    "long": -112.1165444
  },
  {
    "type": "Liquor",
    "name": "AiNT NICKS TAVERN",
    "lat": 33.5379959,
    "long": -112.1172429
  },
  {
    "type": "Liquor",
    "name": "Chicas Cabaret",
    "lat": 33.4787003,
    "long": -112.1348563
  },
  {
    "type": "Liquor",
    "name": "Xplicit Showclub",
    "lat": 33.5360024,
    "long": -112.3113055
  },
  {
    "type": "Liquor",
    "name": "Coyote Cabaret",
    "lat": 33.5372889,
    "long": -112.3556745
  },
  {
    "type": "Liquor",
    "name": "The Speakeasy Bar",
    "lat": 33.6017149,
    "long": -112.2918167
  },
  {
    "type": "Liquor",
    "name": "Lucie s Sage Sand Bar Grill",
    "lat": 33.5365912,
    "long": -112.3569516
  },
  {
    "type": "Liquor",
    "name": "J T s Copper Penny Tavern",
    "lat": 33.5793304,
    "long": -112.2914962
  },
  {
    "type": "Liquor",
    "name": "Runners Sports Bar",
    "lat": 33.6371827,
    "long": -112.334055
  },
  {
    "type": "Liquor",
    "name": "Brookside II Sports Bar and Grille",
    "lat": 33.6392461,
    "long": -112.387504
  },
  {
    "type": "Liquor",
    "name": "PLAZA BAR",
    "lat": 33.6450228,
    "long": -111.9172478
  },
  {
    "type": "Liquor",
    "name": "Duelies Sports Bar and Grill",
    "lat": 33.6580264,
    "long": -111.9325468
  },
  {
    "type": "Liquor",
    "name": "Onyx Bar Lounge",
    "lat": 33.7311991,
    "long": -111.8529473
  },
  {
    "type": "Liquor",
    "name": "EVO North Scottsdale",
    "lat": 33.6283615,
    "long": -111.9248905
  },
  {
    "type": "Liquor",
    "name": "Churchill s Fine Cigars Bar",
    "lat": 33.6528717,
    "long": -111.9247221
  },
  {
    "type": "Liquor",
    "name": "CEDAR ROOM Fine Cigars Lounge",
    "lat": 33.6738889,
    "long": -111.8883333
  },
  {
    "type": "Liquor",
    "name": "Ravenscroft",
    "lat": 33.6405775,
    "long": -111.8988927
  },
  {
    "type": "Liquor",
    "name": "Imperial Ballroom Dance Company",
    "lat": 33.6267295,
    "long": -111.9200079
  },
  {
    "type": "Liquor",
    "name": "Kasai Scottsdale Japanese Steakhouse",
    "lat": 33.616503,
    "long": -111.926299
  },
  {
    "type": "Liquor",
    "name": "Eddie V s Prime Seafood",
    "lat": 33.6256201,
    "long": -111.9235546
  },
  {
    "type": "Liquor",
    "name": "Saguaro Blossom",
    "lat": 33.7322432,
    "long": -111.854414
  },
  {
    "type": "Liquor",
    "name": "Lucky Strike North Scottsdale",
    "lat": 33.6565844,
    "long": -111.9333581
  },
  {
    "type": "Liquor",
    "name": "Toro Scottsdale",
    "lat": 33.6405042,
    "long": -111.9086722
  },
  {
    "type": "Liquor",
    "name": "Proof Canteen",
    "lat": 33.7317823,
    "long": -111.853636
  },
  {
    "type": "Liquor",
    "name": "BLK Live",
    "lat": 33.6223528,
    "long": -111.9218861
  },
  {
    "type": "Liquor",
    "name": "Silverleaf Country Club",
    "lat": 33.6560524,
    "long": -111.8588756
  },
  {
    "type": "Liquor",
    "name": "The Mission Kierland",
    "lat": 33.6233581,
    "long": -111.9276393
  },
  {
    "type": "Liquor",
    "name": "DraftKings Sportsbook at TPC Scottsdale",
    "lat": 33.639751,
    "long": -111.906325
  },
  {
    "type": "Liquor",
    "name": "RPOWER Point of Sale",
    "lat": 33.62121,
    "long": -111.9234645
  },
  {
    "type": "Liquor",
    "name": "The Americano Restaurant",
    "lat": 33.6510339,
    "long": -111.9244816
  },
  {
    "type": "Liquor",
    "name": "The Candy Store",
    "lat": 33.655578,
    "long": -112.0305128
  },
  {
    "type": "Liquor",
    "name": "Evolution",
    "lat": 33.6289823,
    "long": -112.013964
  },
  {
    "type": "Liquor",
    "name": "Paradise Lounge",
    "lat": 33.5986996,
    "long": -111.9857377
  },
  {
    "type": "Liquor",
    "name": "The Loft Again",
    "lat": 33.6225526,
    "long": -112.0312192
  },
  {
    "type": "Liquor",
    "name": "Brigett s Last Laugh",
    "lat": 33.642984,
    "long": -112.0313407
  },
  {
    "type": "Liquor",
    "name": "Axis Hookah Lounge",
    "lat": 33.6251513,
    "long": -112.0312753
  },
  {
    "type": "Liquor",
    "name": "Papa T s Darkside Show",
    "lat": 33.6553977,
    "long": -112.015471
  },
  {
    "type": "Liquor",
    "name": "The Blooze",
    "lat": 33.5950629,
    "long": -112.0141193
  },
  {
    "type": "Liquor",
    "name": "Kavasutra Kava Bar Phoenix",
    "lat": 33.6236386,
    "long": -111.9784252
  },
  {
    "type": "Liquor",
    "name": "Chantilly s Bar",
    "lat": 33.653866,
    "long": -112.083653
  },
  {
    "type": "Liquor",
    "name": "Dave s On Northern",
    "lat": 33.5542781,
    "long": -112.109564
  },
  {
    "type": "Liquor",
    "name": "Kavasutra Kava Bar",
    "lat": 33.6070761,
    "long": -112.0633585
  },
  {
    "type": "Liquor",
    "name": "Dodey s North",
    "lat": 33.5973138,
    "long": -112.0146446
  },
  {
    "type": "Liquor",
    "name": "Rum Runners Bar",
    "lat": 33.5598355,
    "long": -112.0648233
  },
  {
    "type": "Liquor",
    "name": "Adam s Lounge",
    "lat": 33.6532028,
    "long": -112.2338633
  },
  {
    "type": "Liquor",
    "name": "Westside Blues and Jazz",
    "lat": 33.640529,
    "long": -112.1860083
  },
  {
    "type": "Liquor",
    "name": "Cherry Bombers",
    "lat": 33.6386979,
    "long": -112.1660445
  },
  {
    "type": "Liquor",
    "name": "Cheers Tavern",
    "lat": 33.6374112,
    "long": -112.187837
  },
  {
    "type": "Liquor",
    "name": "Willy s Bar",
    "lat": 33.6392124,
    "long": -112.1957382
  },
  {
    "type": "Liquor",
    "name": "The Moon Saloon",
    "lat": 33.635921,
    "long": -112.234459
  },
  {
    "type": "Liquor",
    "name": "Tailgaters Sports Bar Grill",
    "lat": 33.639087,
    "long": -112.190157
  },
  {
    "type": "Liquor",
    "name": "The Tipsy",
    "lat": 33.6825394,
    "long": -112.2055974
  },
  {
    "type": "Liquor",
    "name": "Turquoise Wine Bar",
    "lat": 33.6530999,
    "long": -112.2350207
  },
  {
    "type": "Liquor",
    "name": "The Social on rd",
    "lat": 33.6354763,
    "long": -112.234854
  },
  {
    "type": "Liquor",
    "name": "Zipps Sports Grill",
    "lat": 33.662133,
    "long": -112.187111
  },
  {
    "type": "Liquor",
    "name": "The Stetson Social",
    "lat": 33.7086604,
    "long": -112.2350951
  },
  {
    "type": "Liquor",
    "name": "Cactus Taproom Craft Beer Wine Bar Bottle Shop",
    "lat": 33.6692145,
    "long": -112.2791511
  },
  {
    "type": "Liquor",
    "name": "The Nest Sports",
    "lat": 33.6499192,
    "long": -112.1563179
  },
  {
    "type": "Liquor",
    "name": "Crazy Girls Cabaret",
    "lat": 33.6844501,
    "long": -112.1013844
  },
  {
    "type": "Liquor",
    "name": "Starlite Lounge",
    "lat": 33.568519,
    "long": -112.153765
  },
  {
    "type": "Liquor",
    "name": "Charley s Place",
    "lat": 33.6115702,
    "long": -112.1534724
  },
  {
    "type": "Liquor",
    "name": "Other Room",
    "lat": 33.582507,
    "long": -112.1532341
  },
  {
    "type": "Liquor",
    "name": " PUB",
    "lat": 33.6556915,
    "long": -112.1526335
  },
  {
    "type": "Liquor",
    "name": "Dave s Place",
    "lat": 33.6435879,
    "long": -112.1191924
  },
  {
    "type": "Liquor",
    "name": "Babylon Lounge",
    "lat": 33.6384204,
    "long": -112.1484437
  },
  {
    "type": "Liquor",
    "name": "Daddy O s Grill",
    "lat": 33.6094319,
    "long": -112.148098
  },
  {
    "type": "Liquor",
    "name": "Cross Eyed Cricket Peoria",
    "lat": 33.7419197,
    "long": -112.3211858
  },
  {
    "type": "Liquor",
    "name": "Lakeside Bar and Grill",
    "lat": 33.712217,
    "long": -112.2743169
  },
  {
    "type": "Liquor",
    "name": "Bourbon Bones Chophouse C Bar",
    "lat": 33.7086451,
    "long": -112.2359032
  },
  {
    "type": "Liquor",
    "name": "Cold Beers Cheeseburgers",
    "lat": 33.682962,
    "long": -112.203741
  },
  {
    "type": "Liquor",
    "name": "Haymaker North Peoria",
    "lat": 33.7087193,
    "long": -112.2707938
  },
  {
    "type": "Liquor",
    "name": "Campbell s",
    "lat": 33.6966434,
    "long": -112.2546326
  },
  {
    "type": "Liquor",
    "name": "Uncle Sam s",
    "lat": 33.6556987,
    "long": -112.2370404
  },
  {
    "type": "Liquor",
    "name": "Over Easy",
    "lat": 33.6834349,
    "long": -112.203799
  }
]