[
  {
    "type": "Bar",
    "name": "Hayters Bar Lounge",
    "lat": 32.737856,
    "long": -97.104812,
    "gmapsCategory": "Bar"
  },
  {
    "type": "Bar",
    "name": "Caves Lounge",
    "lat": 32.7384812,
    "long": -97.1171506,
    "gmapsCategory": ""
  },
  {
    "type": "Bar",
    "name": "Dirty Mule Bar",
    "lat": 32.7413014,
    "long": -97.0463131,
    "gmapsCategory": "Bar"
  },
  {
    "type": "Bar",
    "name": "Black Sheep Sports Bar",
    "lat": 32.7366278,
    "long": -97.1012171,
    "gmapsCategory": "Sports bar"
  },
  {
    "type": "Bar",
    "name": "Tanstaafl Pub",
    "lat": 32.738607,
    "long": -97.148823,
    "gmapsCategory": "Bar"
  },
  {
    "type": "Bar",
    "name": "River Bottoms Pub",
    "lat": 32.7797031,
    "long": -97.1820158,
    "gmapsCategory": "Pub"
  },
  {
    "type": "Bar",
    "name": " Kahunas",
    "lat": 32.7379588,
    "long": -97.1019288,
    "gmapsCategory": "Bar"
  },
  {
    "type": "Bar",
    "name": "Showdown Saloon",
    "lat": 32.7113037,
    "long": -97.1135966,
    "gmapsCategory": "Bar"
  },
  {
    "type": "Bar",
    "name": "Sunshine Club",
    "lat": 32.7389187,
    "long": -97.117261,
    "gmapsCategory": "Bar"
  },
  {
    "type": "Bar",
    "name": "JR Little Indian Athletic Club",
    "lat": 32.7575347,
    "long": -97.0376413,
    "gmapsCategory": "Bar"
  },
  {
    "type": "Bar",
    "name": "The Moon Saloon",
    "lat": 32.7409801,
    "long": -97.0462953,
    "gmapsCategory": "Sports bar"
  },
  {
    "type": "Bar",
    "name": "The Chuggin Monk",
    "lat": 32.7737922,
    "long": -97.0962142,
    "gmapsCategory": "Sports bar"
  },
  {
    "type": "Bar",
    "name": "Milo s Bar",
    "lat": 32.7391875,
    "long": -97.1026726,
    "gmapsCategory": "Bar"
  },
  {
    "type": "Bar",
    "name": " Club",
    "lat": 32.7393124,
    "long": -97.1187468,
    "gmapsCategory": "Bar"
  },
  {
    "type": "Bar",
    "name": "Plaza Pub",
    "lat": 32.7196512,
    "long": -97.0799942,
    "gmapsCategory": "Irish pub"
  },
  {
    "type": "Bar",
    "name": "Pearl s Cherokee Lounge",
    "lat": 32.7363018,
    "long": -97.1508017,
    "gmapsCategory": "Bar"
  },
  {
    "type": "Bar",
    "name": "Sport Spot Bar Grill",
    "lat": 32.7237413,
    "long": -97.1150347,
    "gmapsCategory": "Bar"
  },
  {
    "type": "Bar",
    "name": "Mary s Outpost Your TX Home Bar",
    "lat": 32.7274279,
    "long": -97.044502,
    "gmapsCategory": "Bar"
  },
  {
    "type": "Bar",
    "name": "Nite Star Bar Lounge",
    "lat": 32.7651478,
    "long": -97.0640102,
    "gmapsCategory": "Bar"
  },
  {
    "type": "Bar",
    "name": "Hooligans Pub",
    "lat": 32.7352752,
    "long": -97.1039549,
    "gmapsCategory": "Bar"
  },
  {
    "type": "Bar",
    "name": "John B s Food Spirits",
    "lat": 32.707265,
    "long": -97.140032,
    "gmapsCategory": "Cocktail bar"
  },
  {
    "type": "Bar",
    "name": "G Willickers Pub",
    "lat": 32.7421804,
    "long": -97.0531417,
    "gmapsCategory": "Karaoke bar"
  },
  {
    "type": "Bar",
    "name": "Jack s Pour House",
    "lat": 32.7209472,
    "long": -97.0423771,
    "gmapsCategory": "Bar"
  },
  {
    "type": "Bar",
    "name": "New Solution Club",
    "lat": 32.7728964,
    "long": -97.0609084,
    "gmapsCategory": "Bar"
  },
  {
    "type": "Bar",
    "name": "Daiquiris To Go",
    "lat": 32.7716043,
    "long": -97.0976497,
    "gmapsCategory": "Bar"
  },
  {
    "type": "Bar",
    "name": "Wxyz Lounge",
    "lat": 32.7613339,
    "long": -97.0749287,
    "gmapsCategory": "Bar"
  },
  {
    "type": "Bar",
    "name": "Mac s Tavern Grill Karaoke Bar",
    "lat": 32.7466611,
    "long": -97.0587235,
    "gmapsCategory": "Karaoke bar"
  },
  {
    "type": "Bar",
    "name": "Mis Tragos Bar Grill",
    "lat": 32.7194213,
    "long": -97.0823135,
    "gmapsCategory": "Mis Tragos Bar & Grill"
  },
  {
    "type": "Bar",
    "name": "Smoke Chemistry Social",
    "lat": 32.7507894,
    "long": -97.0968457,
    "gmapsCategory": "Bar"
  },
  {
    "type": "Bar",
    "name": "J Gilligan s Bar Grill",
    "lat": 32.7350959,
    "long": -97.1030349,
    "gmapsCategory": "Sports bar"
  },
  {
    "type": "Bar",
    "name": "Dr Jeckyll s Beer Lab",
    "lat": 32.7209033,
    "long": -97.147559,
    "gmapsCategory": "Brewpub"
  },
  {
    "type": "Bar",
    "name": "Cooper s Bar Grill",
    "lat": 32.6874198,
    "long": -97.1323692,
    "gmapsCategory": "Cooper's Bar & Grill"
  },
  {
    "type": "Bar",
    "name": "The Brass Spur Bar Grill",
    "lat": 32.7734399,
    "long": -97.0634908,
    "gmapsCategory": "The Brass Spur Bar & Grill"
  },
  {
    "type": "Bar",
    "name": "Arlington Clover Club",
    "lat": 32.7494515,
    "long": -97.085689,
    "gmapsCategory": "Bar"
  },
  {
    "type": "Bar",
    "name": "The R Lounge Bar Poolside",
    "lat": 32.7650162,
    "long": -97.0641294,
    "gmapsCategory": "Bar"
  },
  {
    "type": "Bar",
    "name": "Sensation Lounge",
    "lat": 32.7443411,
    "long": -97.0416271,
    "gmapsCategory": ""
  },
  {
    "type": "Bar",
    "name": "Pancho Villa Sport Bar",
    "lat": 32.7349004,
    "long": -97.0709406,
    "gmapsCategory": "Bar"
  },
  {
    "type": "Bar",
    "name": "Mezcal Sports Bar Grill",
    "lat": 32.7024679,
    "long": -97.1194948,
    "gmapsCategory": "Mezcal Sports Bar & Grill"
  },
  {
    "type": "Bar",
    "name": "Lay it on da Wood",
    "lat": 32.6996396,
    "long": -97.1265619,
    "gmapsCategory": ""
  },
  {
    "type": "Bar",
    "name": "PBR Texas A Coors Banquet Bar",
    "lat": 32.7487273,
    "long": -97.0847902,
    "gmapsCategory": "Bar"
  },
  {
    "type": "Bar",
    "name": "Zuri bar and Lounge",
    "lat": 32.7401135,
    "long": -97.0598855,
    "gmapsCategory": "Zuri bar and Lounge"
  },
  {
    "type": "Bar",
    "name": "Gonzalez Idle Hour",
    "lat": 32.7371215,
    "long": -97.0434341,
    "gmapsCategory": "Cocktail bar"
  },
  {
    "type": "Bar",
    "name": "America s Sports Bar",
    "lat": 32.7402476,
    "long": -97.04635,
    "gmapsCategory": "Sports bar"
  },
  {
    "type": "Bar",
    "name": "HWY BAR",
    "lat": 32.6717376,
    "long": -97.1993865,
    "gmapsCategory": "Bar"
  },
  {
    "type": "Bar",
    "name": "CLICKS Billiards Billiards, Games, Sports, Bar Grill",
    "lat": 32.7860071,
    "long": -97.0657184,
    "gmapsCategory": "Sports bar"
  },
  {
    "type": "Bar",
    "name": "Oscar E s Cantina",
    "lat": 32.7203525,
    "long": -97.0507944,
    "gmapsCategory": "Bar"
  },
  {
    "type": "Bar",
    "name": "Troy s",
    "lat": 32.7495117,
    "long": -97.0852584,
    "gmapsCategory": "Live music bar"
  },
  {
    "type": "Bar",
    "name": "Tokyo Station",
    "lat": 32.7343804,
    "long": -97.1031966,
    "gmapsCategory": "Bar"
  },
  {
    "type": "Bar",
    "name": "Murf s Trivia",
    "lat": 32.7534288,
    "long": -97.1119019,
    "gmapsCategory": ""
  },
  {
    "type": "Bar",
    "name": "CLICKS Billiards Billiards, Games, Sports, Bar Grill",
    "lat": 32.7521844,
    "long": -97.0621545,
    "gmapsCategory": "Sports bar"
  },
  {
    "type": "Bar",
    "name": "Kool Keg",
    "lat": 32.734932,
    "long": -97.1031807,
    "gmapsCategory": "Bar"
  },
  {
    "type": "Bar",
    "name": "Miller Tavern Beer Garden",
    "lat": 32.749576,
    "long": -97.084763,
    "gmapsCategory": ""
  },
  {
    "type": "Bar",
    "name": "Grease Monkey Burger Shop",
    "lat": 32.7383757,
    "long": -97.1059626,
    "gmapsCategory": "Bar"
  },
  {
    "type": "Bar",
    "name": "The Draft Bar Grill",
    "lat": 32.7614165,
    "long": -97.0921204,
    "gmapsCategory": "Bar"
  },
  {
    "type": "Bar",
    "name": "The Addy Sports Lounge",
    "lat": 32.67322,
    "long": -97.1155288,
    "gmapsCategory": ""
  },
  {
    "type": "Bar",
    "name": "Amigos Sports Bar",
    "lat": 32.7203601,
    "long": -97.0508438,
    "gmapsCategory": "Bar"
  },
  {
    "type": "Bar",
    "name": "Old School Pizza Tavern",
    "lat": 32.7359552,
    "long": -97.1132356,
    "gmapsCategory": "Bar"
  },
  {
    "type": "Bar",
    "name": "Bobby V s Sports Gallery Cafe",
    "lat": 32.6761427,
    "long": -97.1488873,
    "gmapsCategory": ""
  },
  {
    "type": "Bar",
    "name": "Water Hole Bar Billiards",
    "lat": 32.8145594,
    "long": -97.1344714,
    "gmapsCategory": "Bar"
  },
  {
    "type": "Bar",
    "name": "Cobra Club",
    "lat": 32.8093455,
    "long": -97.1724083,
    "gmapsCategory": "Bar"
  },
  {
    "type": "Bar",
    "name": "NAMOO Koreanbowl",
    "lat": 32.7352599,
    "long": -97.1042609,
    "gmapsCategory": ""
  },
  {
    "type": "Bar",
    "name": "The Hideout",
    "lat": 32.8335227,
    "long": -97.2041509,
    "gmapsCategory": "Sports bar"
  },
  {
    "type": "Bar",
    "name": "Dino s Subs",
    "lat": 32.7069888,
    "long": -97.0971755,
    "gmapsCategory": ""
  },
  {
    "type": "Bar",
    "name": "Neighborhood Grill",
    "lat": 32.7069778,
    "long": -97.1329278,
    "gmapsCategory": ""
  },
  {
    "type": "Bar",
    "name": "Mccullars Irish Pub and Grill South",
    "lat": 32.6691523,
    "long": -97.2027025,
    "gmapsCategory": "Bar"
  },
  {
    "type": "Bar",
    "name": "Bar Book at Lone Star Park",
    "lat": 32.773276,
    "long": -96.9901516,
    "gmapsCategory": "Sports bar"
  },
  {
    "type": "Bar",
    "name": "No Frills Grill Sports Bar Arlington, TX",
    "lat": 32.6697282,
    "long": -97.2045808,
    "gmapsCategory": "Sports bar"
  },
  {
    "type": "Bar",
    "name": "Marina s Restaurant Club",
    "lat": 32.8256827,
    "long": -97.107128,
    "gmapsCategory": "Bar"
  },
  {
    "type": "Bar",
    "name": "The Den",
    "lat": 32.8324782,
    "long": -97.1000433,
    "gmapsCategory": "Sports bar"
  },
  {
    "type": "Bar",
    "name": "Scooters Sports Bar Grill",
    "lat": 32.6716019,
    "long": -97.2029175,
    "gmapsCategory": "Sports bar"
  },
  {
    "type": "Bar",
    "name": "Trinity Tavern",
    "lat": 32.8246536,
    "long": -97.0601501,
    "gmapsCategory": "Bar"
  },
  {
    "type": "Bar",
    "name": "Ron s Corner Tavern",
    "lat": 32.8378308,
    "long": -97.1383708,
    "gmapsCategory": "Bar"
  },
  {
    "type": "Bar",
    "name": "Diamond Jim s",
    "lat": 32.7406267,
    "long": -97.0464565,
    "gmapsCategory": "Bar"
  },
  {
    "type": "Bar",
    "name": "Binions Ice House",
    "lat": 32.7386894,
    "long": -97.1104049,
    "gmapsCategory": "Bar"
  },
  {
    "type": "Bar",
    "name": "Dude s",
    "lat": 32.6135809,
    "long": -97.1871433,
    "gmapsCategory": "Bar"
  },
  {
    "type": "Bar",
    "name": "Greedy s Arlington",
    "lat": 32.6636763,
    "long": -97.1333591,
    "gmapsCategory": "Sports bar"
  },
  {
    "type": "Bar",
    "name": "Tommy s Oasis",
    "lat": 32.6126533,
    "long": -97.141357,
    "gmapsCategory": "Bar"
  },
  {
    "type": "Bar",
    "name": "RED BAR Bn D",
    "lat": 32.7428288,
    "long": -97.288446,
    "gmapsCategory": "Bar"
  },
  {
    "type": "Bar",
    "name": "The Thirsty Turtle Bar and Grill",
    "lat": 32.8467025,
    "long": -97.2378387,
    "gmapsCategory": "The Thirsty Turtle Bar and Grill"
  },
  {
    "type": "Bar",
    "name": "The Down n Out",
    "lat": 32.7332988,
    "long": -97.3265821,
    "gmapsCategory": "Bar"
  },
  {
    "type": "Bar",
    "name": "Redd Dawg Saloon",
    "lat": 32.7402338,
    "long": -97.2770289,
    "gmapsCategory": "Bar"
  },
  {
    "type": "Bar",
    "name": "Euless Yacht Club",
    "lat": 32.8361083,
    "long": -97.0750972,
    "gmapsCategory": "Bar"
  },
  {
    "type": "Bar",
    "name": "OFFICE ON TRINITY",
    "lat": 32.8205159,
    "long": -97.0832768,
    "gmapsCategory": "Bar"
  },
  {
    "type": "Bar",
    "name": "The Boiled Owl Tavern",
    "lat": 32.7304173,
    "long": -97.3337335,
    "gmapsCategory": "Bar"
  },
  {
    "type": "Bar",
    "name": "The Old Cocktail Lounge",
    "lat": 32.7364627,
    "long": -97.1494572,
    "gmapsCategory": "Bar"
  },
  {
    "type": "Bar",
    "name": "Big Shots Sports Cafe",
    "lat": 32.8378246,
    "long": -97.1413628,
    "gmapsCategory": "Sports bar"
  },
  {
    "type": "Bar",
    "name": "Off the Clock",
    "lat": 32.8633807,
    "long": -97.2911473,
    "gmapsCategory": "Bar"
  },
  {
    "type": "Bar",
    "name": "Hell s Half Acre Saloon",
    "lat": 32.7894938,
    "long": -97.351276,
    "gmapsCategory": "Bar"
  },
  {
    "type": "Bar",
    "name": "PapaG s Sports Bar Grill",
    "lat": 32.8523407,
    "long": -97.1081696,
    "gmapsCategory": "Sports bar"
  },
  {
    "type": "Bar",
    "name": "Bronco s Sports Bar Grill",
    "lat": 32.840397,
    "long": -97.1923706,
    "gmapsCategory": "Sports bar"
  },
  {
    "type": "Bar",
    "name": "Hangout Restaurant Sports Club",
    "lat": 32.8353165,
    "long": -96.9972332,
    "gmapsCategory": "Sports bar"
  },
  {
    "type": "Bar",
    "name": "Charlie brown s",
    "lat": 32.742006,
    "long": -97.286831,
    "gmapsCategory": "Bar"
  },
  {
    "type": "Bar",
    "name": "Danny s Celtic Pub",
    "lat": 32.8510957,
    "long": -97.129966,
    "gmapsCategory": "Danny's Celtic Pub"
  },
  {
    "type": "Bar",
    "name": "Strokers Ice House",
    "lat": 32.8421432,
    "long": -96.8704699,
    "gmapsCategory": "Bar"
  },
  {
    "type": "Bar",
    "name": "Liberty Lounge",
    "lat": 32.7387829,
    "long": -97.3296738,
    "gmapsCategory": "Bar"
  },
  {
    "type": "Bar",
    "name": "Winchester Tavern",
    "lat": 32.7511811,
    "long": -97.330694,
    "gmapsCategory": "Bar"
  },
  {
    "type": "Bar",
    "name": "Wxyz Lounge",
    "lat": 32.8746886,
    "long": -97.1027966,
    "gmapsCategory": "Bar"
  },
  {
    "type": "Bar",
    "name": "FW Thunderbird",
    "lat": 32.755097,
    "long": -97.332793,
    "gmapsCategory": "Bar"
  },
  {
    "type": "Bar",
    "name": "The Tub",
    "lat": 32.7630401,
    "long": -97.3097411,
    "gmapsCategory": "Bar"
  },
  {
    "type": "Bar",
    "name": "The Cicada",
    "lat": 32.733939,
    "long": -97.3261116,
    "gmapsCategory": "Bar"
  },
  {
    "type": "Bar",
    "name": "The Rabbit Hole Pub",
    "lat": 32.7589107,
    "long": -97.3642753,
    "gmapsCategory": "Pub"
  },
  {
    "type": "Bar",
    "name": "Pockets Restaurant Sports Bar",
    "lat": 32.8346475,
    "long": -97.1002768,
    "gmapsCategory": "Bar"
  },
  {
    "type": "Bar",
    "name": "Texas Billiards",
    "lat": 32.8614601,
    "long": -97.2392716,
    "gmapsCategory": "Spacious pool hall with pub grub & beers"
  },
  {
    "type": "Bar",
    "name": " s Shortys",
    "lat": 32.7813116,
    "long": -97.2895534,
    "gmapsCategory": "Bar"
  },
  {
    "type": "Bar",
    "name": "Sparks Sports Bar",
    "lat": 32.8448257,
    "long": -97.2393417,
    "gmapsCategory": "Sports bar"
  },
  {
    "type": "Bar",
    "name": "Zona Caliente Sports Bar And Grill",
    "lat": 32.6388488,
    "long": -97.1340548,
    "gmapsCategory": "Sports bar"
  },
  {
    "type": "Bar",
    "name": "Division St Icehouse",
    "lat": 32.7345717,
    "long": -97.1508039,
    "gmapsCategory": "Bar"
  },
  {
    "type": "Bar",
    "name": "Tequila Bar",
    "lat": 32.8777844,
    "long": -96.9418433,
    "gmapsCategory": "Bar"
  },
  {
    "type": "Bar",
    "name": "Nickel City",
    "lat": 32.7421934,
    "long": -97.3262297,
    "gmapsCategory": "Bar"
  },
  {
    "type": "Bar",
    "name": "Distribution Bar",
    "lat": 32.7422618,
    "long": -97.3235675,
    "gmapsCategory": "Bar"
  },
  {
    "type": "Bar",
    "name": "The Mad Hatter Neighborhood Pub Fort Worth",
    "lat": 32.7518036,
    "long": -97.3548666,
    "gmapsCategory": "Pub"
  },
  {
    "type": "Bar",
    "name": "Fat Daddy s Sports Spirits Cafe",
    "lat": 32.591192,
    "long": -97.154697,
    "gmapsCategory": "Sports bar"
  },
  {
    "type": "Bar",
    "name": "The BoxCar",
    "lat": 32.5605392,
    "long": -96.8918494,
    "gmapsCategory": "Bar"
  },
  {
    "type": "Bar",
    "name": "The Spirit Grille",
    "lat": 32.8611834,
    "long": -96.9581441,
    "gmapsCategory": "Sports bar with poker & karaoke"
  },
  {
    "type": "Bar",
    "name": "Basic Bar Fort Worth",
    "lat": 32.7512982,
    "long": -97.3302708,
    "gmapsCategory": "Bar"
  },
  {
    "type": "Bar",
    "name": "Malone s Pub",
    "lat": 32.750144,
    "long": -97.3260117,
    "gmapsCategory": "Pub"
  },
  {
    "type": "Bar",
    "name": "Jimmy s Burgers",
    "lat": 32.7444147,
    "long": -96.9954265,
    "gmapsCategory": ""
  },
  {
    "type": "Bar",
    "name": " Rattler Bar",
    "lat": 32.778354,
    "long": -96.8317441,
    "gmapsCategory": "Bar"
  },
  {
    "type": "Bar",
    "name": "Tricia s Rock House",
    "lat": 32.8089243,
    "long": -97.3975219,
    "gmapsCategory": "Bar"
  },
  {
    "type": "Bar",
    "name": "Jackie O s Cocktail Club",
    "lat": 32.7382635,
    "long": -97.3298436,
    "gmapsCategory": "Cocktail bar"
  },
  {
    "type": "Bar",
    "name": "The Texas Hog Wild",
    "lat": 32.5861072,
    "long": -97.2452663,
    "gmapsCategory": "Bar"
  },
  {
    "type": "Bar",
    "name": "Mama Tried Irving",
    "lat": 32.874514,
    "long": -96.9452164,
    "gmapsCategory": "Live music bar"
  },
  {
    "type": "Bar",
    "name": "Deuce s Bar",
    "lat": 32.8657423,
    "long": -96.9047206,
    "gmapsCategory": "Deuce's Bar"
  },
  {
    "type": "Bar",
    "name": "The Cockpit Bar",
    "lat": 32.8628942,
    "long": -96.8555666,
    "gmapsCategory": "Bar"
  },
  {
    "type": "Bar",
    "name": "The Grapevine Bar",
    "lat": 32.8152237,
    "long": -96.8378847,
    "gmapsCategory": "Bar"
  },
  {
    "type": "Bar",
    "name": "A Step Up Lounge",
    "lat": 32.8797811,
    "long": -96.85552,
    "gmapsCategory": "\"Great live music, super affordable cocktails, good bartenders!\""
  },
  {
    "type": "Bar",
    "name": "OUTLAW Taproom",
    "lat": 32.8624174,
    "long": -96.9584091,
    "gmapsCategory": "Cocktail bar"
  },
  {
    "type": "Bar",
    "name": "The Cottage Lounge",
    "lat": 32.8548781,
    "long": -96.8704969,
    "gmapsCategory": "Live music bar"
  },
  {
    "type": "Bar",
    "name": "Nirvana Lounge Bar",
    "lat": 32.8750613,
    "long": -96.9452557,
    "gmapsCategory": "Bar"
  },
  {
    "type": "Bar",
    "name": "Cowboy Saloon and Sports Bar",
    "lat": 32.8640533,
    "long": -96.9013828,
    "gmapsCategory": "Bar"
  },
  {
    "type": "Bar",
    "name": "Tap and Tavern",
    "lat": 32.8610281,
    "long": -96.8499206,
    "gmapsCategory": "Bar"
  },
  {
    "type": "Bar",
    "name": "Bar Juniper",
    "lat": 32.8626132,
    "long": -96.9585193,
    "gmapsCategory": "Bar"
  },
  {
    "type": "Bar",
    "name": "Glass Half Full Taproom",
    "lat": 32.8747541,
    "long": -96.9442119,
    "gmapsCategory": ""
  },
  {
    "type": "Bar",
    "name": "Bar Louie Music Factory",
    "lat": 32.8757986,
    "long": -96.9438247,
    "gmapsCategory": "American pub grub, microbrews & martinis"
  },
  {
    "type": "Bar",
    "name": "Reservoir at Toyota Music Factory",
    "lat": 32.8749343,
    "long": -96.9449306,
    "gmapsCategory": "Bar"
  },
  {
    "type": "Bar",
    "name": "Jackpot Club",
    "lat": 32.8689819,
    "long": -96.8806801,
    "gmapsCategory": "Bar"
  },
  {
    "type": "Bar",
    "name": "Magnum Speakeasy",
    "lat": 32.933234,
    "long": -97.076993,
    "gmapsCategory": "Bar"
  },
  {
    "type": "Bar",
    "name": "R J s Bar and Grill",
    "lat": 32.9424019,
    "long": -97.0738677,
    "gmapsCategory": "R&J's Bar and Grill"
  },
  {
    "type": "Bar",
    "name": "Rowdy Cowboy",
    "lat": 32.9215233,
    "long": -97.0902508,
    "gmapsCategory": "Sports bar"
  },
  {
    "type": "Bar",
    "name": "Hoppin Grapevine",
    "lat": 32.9721903,
    "long": -97.0330841,
    "gmapsCategory": "Bar"
  },
  {
    "type": "Bar",
    "name": "The Watering Hole",
    "lat": 32.9417788,
    "long": -97.0589191,
    "gmapsCategory": "Bar"
  },
  {
    "type": "Bar",
    "name": "Bonnie Clyde s Bar Grill",
    "lat": 32.9591739,
    "long": -97.0462966,
    "gmapsCategory": "Casual sports bar for burgers & brews"
  },
  {
    "type": "Bar",
    "name": " Barrels Beer Garden",
    "lat": 32.9289495,
    "long": -97.0859415,
    "gmapsCategory": "3 Barrels Beer Garden"
  },
  {
    "type": "Bar",
    "name": "Bottlecap Alley Icehouse Grill",
    "lat": 32.9309564,
    "long": -97.0913674,
    "gmapsCategory": "Sports bar with gourmet burgers"
  },
  {
    "type": "Bar",
    "name": "Third Rail Bar B Events",
    "lat": 32.9333051,
    "long": -97.0772408,
    "gmapsCategory": "Bar"
  },
  {
    "type": "Bar",
    "name": "The Brass Tap Euless",
    "lat": 32.8773577,
    "long": -97.097924,
    "gmapsCategory": "Bar"
  },
  {
    "type": "Bar",
    "name": "Silver Bar",
    "lat": 32.9550114,
    "long": -97.0642288,
    "gmapsCategory": "Bar"
  },
  {
    "type": "Bar",
    "name": "Chill Bar Grill Grapevine",
    "lat": 32.9330934,
    "long": -97.0786242,
    "gmapsCategory": "Bar"
  },
  {
    "type": "Bar",
    "name": "Flips Patio Grill",
    "lat": 32.9215011,
    "long": -97.0821914,
    "gmapsCategory": ""
  },
  {
    "type": "Bar",
    "name": "Rock Brews",
    "lat": 32.925014,
    "long": -97.082149,
    "gmapsCategory": "\"great Atmosphere, friendly staff, decent bar food, affordable and memorable.\""
  },
  {
    "type": "Bar",
    "name": "Hallfords Bar and Grill",
    "lat": 32.9565065,
    "long": -97.0447842,
    "gmapsCategory": "Hallfords Bar and Grill"
  },
  {
    "type": "Bar",
    "name": "Grizzly Jacks Bar And Grill Inside Great Wolf Lodge",
    "lat": 32.9420324,
    "long": -97.0597859,
    "gmapsCategory": "Grizzly Jacks Bar And Grill Inside Great Wolf Lodge"
  },
  {
    "type": "Bar",
    "name": "The Brass Tap",
    "lat": 33.0004465,
    "long": -97.2177715,
    "gmapsCategory": "Bar"
  },
  {
    "type": "Bar",
    "name": "Doug s Dive",
    "lat": 33.0590575,
    "long": -97.3019177,
    "gmapsCategory": "Bar"
  },
  {
    "type": "Bar",
    "name": "Mule Barn Sports Bar Grill",
    "lat": 33.0840874,
    "long": -97.2965148,
    "gmapsCategory": "Mule Barn Sports Bar & Grill"
  },
  {
    "type": "Bar",
    "name": " Ice House",
    "lat": 33.2417259,
    "long": -97.2450866,
    "gmapsCategory": ""
  },
  {
    "type": "Bar",
    "name": "Over the Top Bar and Grill",
    "lat": 33.3684474,
    "long": -97.4277948,
    "gmapsCategory": "Bar"
  },
  {
    "type": "Bar",
    "name": "The County Seat",
    "lat": 33.2337385,
    "long": -97.5863602,
    "gmapsCategory": "Bar"
  },
  {
    "type": "Bar",
    "name": "The Rack Pub Eatery",
    "lat": 33.5594972,
    "long": -97.8487,
    "gmapsCategory": "Pub"
  }
]