[
  {
    "type": "Bar",
    "name": "Charlie brown s",
    "lat": 32.742006,
    "long": -97.286831
  },
  {
    "type": "Bar",
    "name": "The Rabbit Hole Pub",
    "lat": 32.7589107,
    "long": -97.3642753
  },
  {
    "type": "Bar",
    "name": "The Mad Hatter Neighborhood Pub Fort Worth",
    "lat": 32.7518036,
    "long": -97.3548666
  },
  {
    "type": "Bar",
    "name": "Nickel City",
    "lat": 32.7421934,
    "long": -97.3262297
  },
  {
    "type": "Bar",
    "name": "The Boiled Owl Tavern",
    "lat": 32.7304173,
    "long": -97.3337335
  },
  {
    "type": "Bar",
    "name": "Tricia s Rock House",
    "lat": 32.8089243,
    "long": -97.3975219
  },
  {
    "type": "Bar",
    "name": "The Down n Out",
    "lat": 32.7332988,
    "long": -97.3265821
  },
  {
    "type": "Bar",
    "name": "The Durty Crow",
    "lat": 32.7497928,
    "long": -97.3567622
  },
  {
    "type": "Bar",
    "name": "Chat Room",
    "lat": 32.7305162,
    "long": -97.3392494
  },
  {
    "type": "Bar",
    "name": "Hell s Half Acre Saloon",
    "lat": 32.7894938,
    "long": -97.351276
  },
  {
    "type": "Bar",
    "name": "Ye Olde Bull Bush",
    "lat": 32.7367233,
    "long": -97.3702026
  },
  {
    "type": "Bar",
    "name": "RED BAR Bn D",
    "lat": 32.7428288,
    "long": -97.288446
  },
  {
    "type": "Bar",
    "name": "The Cicada",
    "lat": 32.733939,
    "long": -97.3261116
  },
  {
    "type": "Bar",
    "name": "Low Doubt Bar",
    "lat": 32.7431477,
    "long": -97.3289829
  },
  {
    "type": "Bar",
    "name": "Malone s Pub",
    "lat": 32.750144,
    "long": -97.3260117
  },
  {
    "type": "Bar",
    "name": "Showdown",
    "lat": 32.7375409,
    "long": -97.3935396
  },
  {
    "type": "Bar",
    "name": "The Tub",
    "lat": 32.7630401,
    "long": -97.3097411
  },
  {
    "type": "Bar",
    "name": "White Elephant Saloon",
    "lat": 32.7886424,
    "long": -97.348792
  },
  {
    "type": "Bar",
    "name": "Sarah s Place",
    "lat": 32.7351788,
    "long": -97.3993332
  },
  {
    "type": "Bar",
    "name": "The Local",
    "lat": 32.7484548,
    "long": -97.3570931
  },
  {
    "type": "Bar",
    "name": "Winchester Tavern",
    "lat": 32.7511811,
    "long": -97.330694
  },
  {
    "type": "Bar",
    "name": "Jackie O s Cocktail Club",
    "lat": 32.7382635,
    "long": -97.3298436
  },
  {
    "type": "Bar",
    "name": " s Shortys",
    "lat": 32.7813116,
    "long": -97.2895534
  },
  {
    "type": "Bar",
    "name": "Liberty Lounge",
    "lat": 32.7387829,
    "long": -97.3296738
  },
  {
    "type": "Bar",
    "name": "Refuel Bar Grill",
    "lat": 32.7697223,
    "long": -97.3081408
  },
  {
    "type": "Bar",
    "name": "Durty Murphy s",
    "lat": 32.753243,
    "long": -97.3311607
  },
  {
    "type": "Bar",
    "name": "Basic Bar Fort Worth",
    "lat": 32.7512982,
    "long": -97.3302708
  },
  {
    "type": "Bar",
    "name": "Red Goose Saloon",
    "lat": 32.7550772,
    "long": -97.3327745
  },
  {
    "type": "Bar",
    "name": "FW Thunderbird",
    "lat": 32.755097,
    "long": -97.332793
  },
  {
    "type": "Bar",
    "name": "Redd Dawg Saloon",
    "lat": 32.7402338,
    "long": -97.2770289
  },
  {
    "type": "Bar",
    "name": "Star s Basement Bar",
    "lat": 32.788772,
    "long": -97.349637
  },
  {
    "type": "Bar",
    "name": "the basement lounge",
    "lat": 32.7269722,
    "long": -97.4176922
  },
  {
    "type": "Bar",
    "name": "The Library Bar Fort Worth Texas",
    "lat": 32.7530916,
    "long": -97.3310408
  },
  {
    "type": "Bar",
    "name": "The Abbey Pub",
    "lat": 32.7513824,
    "long": -97.3552692
  },
  {
    "type": "Bar",
    "name": "McFly s Pub",
    "lat": 32.7749503,
    "long": -97.4149301
  },
  {
    "type": "Bar",
    "name": "Grandma s Near Southside Fort Worth",
    "lat": 32.7305066,
    "long": -97.3321449
  },
  {
    "type": "Bar",
    "name": "Proper",
    "lat": 32.7304869,
    "long": -97.3294086
  },
  {
    "type": "Bar",
    "name": "River s Cocktail Wine Bar",
    "lat": 32.7602473,
    "long": -97.3957974
  },
  {
    "type": "Bar",
    "name": "Conlon s Pub",
    "lat": 32.7592881,
    "long": -97.3524266
  },
  {
    "type": "Bar",
    "name": "The Usual",
    "lat": 32.730826,
    "long": -97.3408039
  },
  {
    "type": "Bar",
    "name": "The Lazy Moose",
    "lat": 32.7308179,
    "long": -97.3406151
  },
  {
    "type": "Bar",
    "name": "Office Bar",
    "lat": 32.7706912,
    "long": -97.3064795
  },
  {
    "type": "Bar",
    "name": "Finn MacCool s Pub",
    "lat": 32.7265205,
    "long": -97.3438949
  },
  {
    "type": "Bar",
    "name": "CURFEW",
    "lat": 32.7532064,
    "long": -97.3330012
  },
  {
    "type": "Bar",
    "name": "The Bearded Lady",
    "lat": 32.7419117,
    "long": -97.3263685
  },
  {
    "type": "Bar",
    "name": "Bar Museo",
    "lat": 32.7494433,
    "long": -97.3617452
  },
  {
    "type": "Bar",
    "name": "Distribution Bar",
    "lat": 32.7422618,
    "long": -97.3235675
  },
  {
    "type": "Bar",
    "name": "Crystal Springs Hideaway",
    "lat": 32.7612903,
    "long": -97.4001816
  },
  {
    "type": "Bar",
    "name": "Oscar s Pub",
    "lat": 32.7271384,
    "long": -97.417823
  },
  {
    "type": "Bar",
    "name": "Upper ",
    "lat": 32.7302134,
    "long": -97.3347258
  },
  {
    "type": "Bar",
    "name": "Poop Deck Bar and Grill",
    "lat": 32.6985864,
    "long": -97.3596456
  },
  {
    "type": "Bar",
    "name": "Ray s Sportsman Club",
    "lat": 32.7829323,
    "long": -97.3495335
  },
  {
    "type": "Bar",
    "name": "Atlas",
    "lat": 32.7414851,
    "long": -97.3263829
  },
  {
    "type": "Bar",
    "name": "Wonder Bar",
    "lat": 32.749398,
    "long": -97.3586251
  },
  {
    "type": "Bar",
    "name": "Corner Taproom",
    "lat": 32.7516414,
    "long": -97.3548803
  },
  {
    "type": "Bar",
    "name": "Lil Red s Longhorn Saloon",
    "lat": 32.7886814,
    "long": -97.3501788
  },
  {
    "type": "Bar",
    "name": "Poag Mahone s",
    "lat": 32.7519444,
    "long": -97.355
  },
  {
    "type": "Bar",
    "name": "Morton s Tavern",
    "lat": 32.742311,
    "long": -97.3333117
  },
  {
    "type": "Bar",
    "name": "The Amber Room",
    "lat": 32.7409492,
    "long": -97.3251969
  },
  {
    "type": "Bar",
    "name": "Flying Saucer Draught Emporium",
    "lat": 32.7554418,
    "long": -97.3312001
  },
  {
    "type": "Bar",
    "name": "The Shot Cellar",
    "lat": 32.749485,
    "long": -97.3562698
  },
  {
    "type": "Bar",
    "name": "Rogers Roundhouse",
    "lat": 32.7273497,
    "long": -97.3654565
  },
  {
    "type": "Bar",
    "name": "Birdie s Social Club",
    "lat": 32.7526512,
    "long": -97.3563133
  },
  {
    "type": "Bar",
    "name": "Tarantula Tiki Lounge",
    "lat": 32.7428206,
    "long": -97.3257686
  },
  {
    "type": "Bar",
    "name": "Junk Punch",
    "lat": 32.7481922,
    "long": -97.3569467
  },
  {
    "type": "Bar",
    "name": "ShipWreck th Tiki Lounge",
    "lat": 32.7484344,
    "long": -97.356357
  },
  {
    "type": "Bar",
    "name": "Whiskey Garden",
    "lat": 32.7485298,
    "long": -97.3573388
  },
  {
    "type": "Bar",
    "name": "Our Taphouse",
    "lat": 32.7341236,
    "long": -97.3248681
  },
  {
    "type": "Bar",
    "name": "Sidesaddle Saloon",
    "lat": 32.7883403,
    "long": -97.3477735
  },
  {
    "type": "Bar",
    "name": "Reservoir Bar, Patio Kitchen",
    "lat": 32.7489579,
    "long": -97.3561371
  },
  {
    "type": "Bar",
    "name": "Thompson s Bookstore Speakeasy",
    "lat": 32.7514427,
    "long": -97.330496
  },
  {
    "type": "Bar",
    "name": "LOT Rooftop Bar",
    "lat": 32.7062203,
    "long": -97.3536088
  },
  {
    "type": "Bar",
    "name": "BAR ",
    "lat": 32.7488899,
    "long": -97.3589075
  },
  {
    "type": "Bar",
    "name": "Tulane E s",
    "lat": 32.7573394,
    "long": -97.3550643
  },
  {
    "type": "Bar",
    "name": "Little Woodrow s Fort Worth",
    "lat": 32.7489463,
    "long": -97.358066
  },
  {
    "type": "Bar",
    "name": "Filthy McNasty s Saloon",
    "lat": 32.788996,
    "long": -97.34985
  },
  {
    "type": "Bar",
    "name": "Kung Fu Saloon",
    "lat": 32.7494279,
    "long": -97.3573741
  },
  {
    "type": "Bar",
    "name": "The Bar at Bowie House",
    "lat": 32.746877,
    "long": -97.3727395
  },
  {
    "type": "Bar",
    "name": "El Corral Bar",
    "lat": 32.7389129,
    "long": -97.2777342
  },
  {
    "type": "Bar",
    "name": "Broken Barrel Tavern",
    "lat": 32.7268424,
    "long": -97.4398092
  },
  {
    "type": "Bar",
    "name": "Shaw s Patio Bar Grill",
    "lat": 32.7304719,
    "long": -97.3362157
  },
  {
    "type": "Bar",
    "name": "Scat Jazz Lounge",
    "lat": 32.7540707,
    "long": -97.331422
  },
  {
    "type": "Bar",
    "name": "A Great Notion",
    "lat": 32.7395109,
    "long": -97.4254357
  },
  {
    "type": "Bar",
    "name": "Old School Texas",
    "lat": 32.7881298,
    "long": -97.3855859
  },
  {
    "type": "Bar",
    "name": "Pour Decisions",
    "lat": 32.7484364,
    "long": -97.3570861
  },
  {
    "type": "Bar",
    "name": "People s Republic",
    "lat": 32.6946875,
    "long": -97.3527738
  },
  {
    "type": "Bar",
    "name": "The Hideout",
    "lat": 32.8335227,
    "long": -97.2041509
  },
  {
    "type": "Bar",
    "name": "Bodega West th",
    "lat": 32.7489579,
    "long": -97.3593704
  },
  {
    "type": "Bar",
    "name": "Eight Ball Billiard Bar",
    "lat": 32.803369,
    "long": -97.410559
  },
  {
    "type": "Bar",
    "name": "Maxine s Cocktails",
    "lat": 32.7107035,
    "long": -97.4473342
  },
  {
    "type": "Bar",
    "name": "Woody s Tavern",
    "lat": 32.679472,
    "long": -97.4172867
  },
  {
    "type": "Bar",
    "name": "Starlight Lounge",
    "lat": 32.7268625,
    "long": -97.4402453
  },
  {
    "type": "Bar",
    "name": "Spad Bar Grill",
    "lat": 32.7789226,
    "long": -97.4292204
  },
  {
    "type": "Bar",
    "name": "Durango Club",
    "lat": 32.8093562,
    "long": -97.3512622
  },
  {
    "type": "Bar",
    "name": "The Yellow Rose Saloon",
    "lat": 32.7332775,
    "long": -97.4502843
  },
  {
    "type": "Bar",
    "name": "P R s",
    "lat": 32.788553,
    "long": -97.349304
  },
  {
    "type": "Bar",
    "name": "HWY BAR",
    "lat": 32.6717376,
    "long": -97.1993865
  },
  {
    "type": "Bar",
    "name": "Jakes Burgers and Beer",
    "lat": 32.7540449,
    "long": -97.330689
  },
  {
    "type": "Bar",
    "name": "Dirty Water Saloon",
    "lat": 32.7251786,
    "long": -97.4930452
  },
  {
    "type": "Bar",
    "name": "River Bottoms Pub",
    "lat": 32.7797031,
    "long": -97.1820158
  },
  {
    "type": "Bar",
    "name": "Overtime Bar Grill",
    "lat": 32.837405,
    "long": -97.2911757
  },
  {
    "type": "Bar",
    "name": "Johnny B s",
    "lat": 32.7069755,
    "long": -97.4485094
  },
  {
    "type": "Bar",
    "name": "Tumbleweeds Sports Bar",
    "lat": 32.8414168,
    "long": -97.3414775
  },
  {
    "type": "Bar",
    "name": "Shucker s Sports Bar",
    "lat": 32.7239634,
    "long": -97.4514526
  },
  {
    "type": "Bar",
    "name": "The Home Plate",
    "lat": 32.7268638,
    "long": -97.4403076
  },
  {
    "type": "Bar",
    "name": "Sparks Sports Bar",
    "lat": 32.8448257,
    "long": -97.2393417
  },
  {
    "type": "Bar",
    "name": "Wild Pitch Sports Bar Grill",
    "lat": 32.6809488,
    "long": -97.408269
  },
  {
    "type": "Bar",
    "name": "Second Chances Saloon",
    "lat": 32.7206609,
    "long": -97.4419118
  },
  {
    "type": "Bar",
    "name": "Yupp s Karaoke Bar",
    "lat": 32.6713069,
    "long": -97.3828638
  },
  {
    "type": "Bar",
    "name": "The Horny Toad",
    "lat": 32.725047,
    "long": -97.4868072
  },
  {
    "type": "Bar",
    "name": "Club Changes",
    "lat": 32.7431425,
    "long": -97.2876143
  },
  {
    "type": "Bar",
    "name": "Caves Lounge",
    "lat": 32.7384812,
    "long": -97.1171506
  },
  {
    "type": "Bar",
    "name": "Showdown Saloon",
    "lat": 32.7113037,
    "long": -97.1135966
  },
  {
    "type": "Bar",
    "name": "Lucky Lou s",
    "lat": 33.214371,
    "long": -97.1453357
  },
  {
    "type": "Bar",
    "name": "Two Charlies",
    "lat": 33.2294044,
    "long": -97.1406479
  },
  {
    "type": "Bar",
    "name": "d Tavern",
    "lat": 33.2157206,
    "long": -97.1331419
  },
  {
    "type": "Bar",
    "name": "RT s Bar",
    "lat": 33.1972887,
    "long": -97.1225467
  },
  {
    "type": "Bar",
    "name": "Glass Half Full Taproom",
    "lat": 33.2252646,
    "long": -97.1687863
  },
  {
    "type": "Bar",
    "name": "Dusty s Bar Grill",
    "lat": 33.213684,
    "long": -97.133502
  },
  {
    "type": "Bar",
    "name": "Miss Angeline s Denton",
    "lat": 33.2157774,
    "long": -97.1312942
  },
  {
    "type": "Bar",
    "name": "Cool Beans",
    "lat": 33.2147561,
    "long": -97.1459078
  },
  {
    "type": "Bar",
    "name": "Dirty Dick E s Bar, Denton, TX",
    "lat": 33.2142624,
    "long": -97.1459323
  },
  {
    "type": "Bar",
    "name": "The Hydeout",
    "lat": 33.2144157,
    "long": -97.1459711
  },
  {
    "type": "Bar",
    "name": "The LakeHaus",
    "lat": 33.1712746,
    "long": -97.0965537
  },
  {
    "type": "Bar",
    "name": "Fry Street Tavern",
    "lat": 33.213904,
    "long": -97.145941
  },
  {
    "type": "Bar",
    "name": "East Side Denton",
    "lat": 33.2157479,
    "long": -97.1315028
  },
  {
    "type": "Bar",
    "name": "Tom s Daiquiri Place",
    "lat": 33.2138561,
    "long": -97.1456969
  },
  {
    "type": "Bar",
    "name": "Harvest House",
    "lat": 33.2146361,
    "long": -97.1287615
  },
  {
    "type": "Bar",
    "name": "Paschall Bar",
    "lat": 33.2153804,
    "long": -97.1321882
  },
  {
    "type": "Bar",
    "name": "Oak St Drafthouse and Cocktail Parlor",
    "lat": 33.2153661,
    "long": -97.1297592
  },
  {
    "type": "Bar",
    "name": "The Garage",
    "lat": 33.2141818,
    "long": -97.1459443
  },
  {
    "type": "Bar",
    "name": "The Loophole Funky Fresh Food Booze",
    "lat": 33.2142431,
    "long": -97.1333797
  },
  {
    "type": "Bar",
    "name": "The Bearded Monk",
    "lat": 33.2163825,
    "long": -97.1314885
  }
]