[
  {
    "type": "Liquor",
    "name": "J J s Liquor",
    "lat": 33.9451106,
    "long": -117.2794631,
    "gmapsCategory": "Liquor store"
  },
  {
    "type": "Liquor",
    "name": "Ironwood Liquor",
    "lat": 33.9469704,
    "long": -117.2446623,
    "gmapsCategory": "Liquor store"
  },
  {
    "type": "Liquor",
    "name": "Pigeon Pass Liquor Market",
    "lat": 33.9434543,
    "long": -117.2603303,
    "gmapsCategory": "Liquor store"
  },
  {
    "type": "Liquor",
    "name": "Sundance Liquor",
    "lat": 33.9387593,
    "long": -117.2366911,
    "gmapsCategory": "Liquor store"
  },
  {
    "type": "Liquor",
    "name": "Frank s Liquors",
    "lat": 33.9302521,
    "long": -117.2265582,
    "gmapsCategory": "Liquor store"
  },
  {
    "type": "Liquor",
    "name": "DUKE S Liquor",
    "lat": 33.9376641,
    "long": -117.2260635,
    "gmapsCategory": "Liquor store"
  },
  {
    "type": "Liquor",
    "name": "Mel s Liquor Check Cashing",
    "lat": 33.915738,
    "long": -117.2354373,
    "gmapsCategory": "Liquor store"
  },
  {
    "type": "Liquor",
    "name": "Sunnymead Liquor",
    "lat": 33.9388589,
    "long": -117.2417606,
    "gmapsCategory": "Liquor store"
  },
  {
    "type": "Liquor",
    "name": "Qwick Pick",
    "lat": 33.9180949,
    "long": -117.2422549,
    "gmapsCategory": "Liquor store"
  },
  {
    "type": "Liquor",
    "name": "West Gate Liquor",
    "lat": 33.8894273,
    "long": -117.2259685,
    "gmapsCategory": "Liquor store"
  },
  {
    "type": "Liquor",
    "name": "Roy s Liquor",
    "lat": 33.9177923,
    "long": -117.268912,
    "gmapsCategory": "Liquor store"
  },
  {
    "type": "Liquor",
    "name": "Charlebois Liquors",
    "lat": 33.917086,
    "long": -117.2814445,
    "gmapsCategory": "Liquor store"
  },
  {
    "type": "Liquor",
    "name": "ABC Food Store",
    "lat": 33.9168322,
    "long": -117.2354367,
    "gmapsCategory": "Liquor store"
  },
  {
    "type": "Liquor",
    "name": "Liquor Market",
    "lat": 33.9181019,
    "long": -117.2422269,
    "gmapsCategory": "Liquor store"
  },
  {
    "type": "Liquor",
    "name": "Valley Liquor Market",
    "lat": 33.9272118,
    "long": -117.2269389,
    "gmapsCategory": "Liquor store"
  },
  {
    "type": "Liquor",
    "name": "Moreno Liquor Market",
    "lat": 33.9393487,
    "long": -117.2461614,
    "gmapsCategory": "Liquor store"
  },
  {
    "type": "Liquor",
    "name": "Rz liquor market",
    "lat": 33.9188118,
    "long": -117.2603517,
    "gmapsCategory": "Liquor store"
  },
  {
    "type": "Liquor",
    "name": "University Village Market Liquor",
    "lat": 33.9759507,
    "long": -117.3163003,
    "gmapsCategory": "Liquor store"
  },
  {
    "type": "Liquor",
    "name": "Liquor Market",
    "lat": 33.9424253,
    "long": -117.2441683,
    "gmapsCategory": "Liquor store"
  },
  {
    "type": "Liquor",
    "name": "Fastrip",
    "lat": 33.9387269,
    "long": -117.2442154,
    "gmapsCategory": "Convenience store"
  },
  {
    "type": "Liquor",
    "name": " Eleven",
    "lat": 33.938476,
    "long": -117.226881,
    "gmapsCategory": "Convenience store"
  },
  {
    "type": "Liquor",
    "name": "Country Liquor Co",
    "lat": 33.9173573,
    "long": -117.2637489,
    "gmapsCategory": "Liquor store"
  },
  {
    "type": "Liquor",
    "name": "BevMo ",
    "lat": 33.9365845,
    "long": -117.2635597,
    "gmapsCategory": "Wine store"
  },
  {
    "type": "Liquor",
    "name": "El Mercadito",
    "lat": 33.8990759,
    "long": -117.2252722,
    "gmapsCategory": "Gourmet grocery store"
  },
  {
    "type": "Liquor",
    "name": " Eleven",
    "lat": 33.9391466,
    "long": -117.2609326,
    "gmapsCategory": "Convenience store"
  },
  {
    "type": "Liquor",
    "name": "BevMo ",
    "lat": 33.9138963,
    "long": -117.323965,
    "gmapsCategory": "Wine store"
  },
  {
    "type": "Liquor",
    "name": " Eleven",
    "lat": 33.9419126,
    "long": -117.2441834,
    "gmapsCategory": "Convenience store"
  },
  {
    "type": "Liquor",
    "name": "Yucaipa Liquor and Mini Mart",
    "lat": 34.00952,
    "long": -117.0391112,
    "gmapsCategory": "Liquor store"
  },
  {
    "type": "Liquor",
    "name": "S N Liquor",
    "lat": 33.9967761,
    "long": -117.0574868,
    "gmapsCategory": "Liquor store"
  },
  {
    "type": "Liquor",
    "name": "Hal s Liquor",
    "lat": 34.0251048,
    "long": -117.0384451,
    "gmapsCategory": "Liquor store"
  },
  {
    "type": "Liquor",
    "name": "Tower Market liquor",
    "lat": 34.0048036,
    "long": -117.0487414,
    "gmapsCategory": "Liquor store"
  },
  {
    "type": "Liquor",
    "name": "County Cork Wine Spirits",
    "lat": 33.993914,
    "long": -117.057839,
    "gmapsCategory": "Liquor store"
  },
  {
    "type": "Liquor",
    "name": "Yucaipa Sunshine Liquor",
    "lat": 34.0335183,
    "long": -117.0571607,
    "gmapsCategory": "Liquor store"
  },
  {
    "type": "Liquor",
    "name": "C H Liquors",
    "lat": 34.0045066,
    "long": -117.0622192,
    "gmapsCategory": "Liquor store"
  },
  {
    "type": "Liquor",
    "name": "Cherry Valley liquor",
    "lat": 33.9706282,
    "long": -116.9768362,
    "gmapsCategory": "Liquor store"
  },
  {
    "type": "Liquor",
    "name": "Mike Son Market Liquor",
    "lat": 34.0333331,
    "long": -117.0524634,
    "gmapsCategory": "Liquor store"
  },
  {
    "type": "Liquor",
    "name": "Sam s Liquor",
    "lat": 34.0337581,
    "long": -117.0393402,
    "gmapsCategory": "Liquor store"
  },
  {
    "type": "Liquor",
    "name": "Uptown Wine Merchant",
    "lat": 34.0340654,
    "long": -117.0407117,
    "gmapsCategory": "Wine store"
  },
  {
    "type": "Liquor",
    "name": "High Country Liquor",
    "lat": 34.0291596,
    "long": -117.0400787,
    "gmapsCategory": "Liquor store"
  },
  {
    "type": "Liquor",
    "name": "Fastrip",
    "lat": 34.0043519,
    "long": -117.0628526,
    "gmapsCategory": "Convenience store"
  },
  {
    "type": "Liquor",
    "name": "Biergarten Sandwiches Cold Beer Wines",
    "lat": 34.0002894,
    "long": -117.0602357,
    "gmapsCategory": "Beer store"
  },
  {
    "type": "Liquor",
    "name": "Fine Cigars",
    "lat": 33.9938324,
    "long": -117.058022,
    "gmapsCategory": "Liquor store"
  },
  {
    "type": "Liquor",
    "name": "THE CALIMESA DRIVE THRU DAIRY AND CORNER MARKET",
    "lat": 33.9995862,
    "long": -117.0599189,
    "gmapsCategory": "Convenience store"
  },
  {
    "type": "Liquor",
    "name": " Eleven",
    "lat": 34.033529,
    "long": -117.0958699,
    "gmapsCategory": "Convenience store"
  },
  {
    "type": "Liquor",
    "name": "Suveg Cellars Public Tasting Room",
    "lat": 34.033241,
    "long": -117.039049,
    "gmapsCategory": "Winery"
  },
  {
    "type": "Liquor",
    "name": " Eleven",
    "lat": 34.0039036,
    "long": -117.0477627,
    "gmapsCategory": "Convenience store"
  },
  {
    "type": "Liquor",
    "name": "Party Pantry",
    "lat": 34.0341576,
    "long": -117.0496092,
    "gmapsCategory": "Liquor store"
  },
  {
    "type": "Liquor",
    "name": "Sunset Liquor",
    "lat": 33.9261355,
    "long": -116.9115674,
    "gmapsCategory": "Liquor store"
  },
  {
    "type": "Liquor",
    "name": "Legacy Liquor",
    "lat": 33.9257525,
    "long": -116.8922305,
    "gmapsCategory": "Liquor store"
  },
  {
    "type": "Liquor",
    "name": "Logan s Liquor Deli",
    "lat": 33.92527,
    "long": -116.8734918,
    "gmapsCategory": "Liquor store"
  },
  {
    "type": "Liquor",
    "name": "Cheers Liquor Market",
    "lat": 33.9251137,
    "long": -116.882873,
    "gmapsCategory": "Liquor store"
  },
  {
    "type": "Liquor",
    "name": "Liquor Water Market",
    "lat": 33.9220142,
    "long": -116.8763567,
    "gmapsCategory": "Liquor store"
  },
  {
    "type": "Liquor",
    "name": "Sportsman s Liquor",
    "lat": 33.9250812,
    "long": -116.867238,
    "gmapsCategory": "Wine store"
  },
  {
    "type": "Liquor",
    "name": " nd Street Market",
    "lat": 33.925955,
    "long": -116.9007308,
    "gmapsCategory": "Liquor store"
  },
  {
    "type": "Liquor",
    "name": "WINDMILL LIQUOR",
    "lat": 33.9221817,
    "long": -116.8762807,
    "gmapsCategory": "Liquor store"
  },
  {
    "type": "Liquor",
    "name": " Bros Liquor ",
    "lat": 33.9253013,
    "long": -116.8734464,
    "gmapsCategory": "Liquor store"
  },
  {
    "type": "Liquor",
    "name": " Bros Liquor ",
    "lat": 33.9258467,
    "long": -116.9007771,
    "gmapsCategory": "Liquor store"
  },
  {
    "type": "Liquor",
    "name": "Jack s Market",
    "lat": 33.9259547,
    "long": -116.8851211,
    "gmapsCategory": "Liquor store"
  },
  {
    "type": "Liquor",
    "name": "Banning Liquor",
    "lat": 33.925976,
    "long": -116.8851,
    "gmapsCategory": "Liquor store"
  },
  {
    "type": "Liquor",
    "name": "Greenspot Market",
    "lat": 34.0711899,
    "long": -117.0992112,
    "gmapsCategory": "Grocery store"
  },
  {
    "type": "Liquor",
    "name": "Liquor Shop",
    "lat": 34.1206204,
    "long": -117.2258386,
    "gmapsCategory": "Liquor store"
  },
  {
    "type": "Liquor",
    "name": "Highland Liquor",
    "lat": 34.1165697,
    "long": -117.2259424,
    "gmapsCategory": "Liquor store"
  },
  {
    "type": "Liquor",
    "name": "One Stop Liquor",
    "lat": 34.1216668,
    "long": -117.2170695,
    "gmapsCategory": "Liquor store"
  },
  {
    "type": "Liquor",
    "name": "Cee Vee s Liquor Market",
    "lat": 34.11277,
    "long": -117.2095946,
    "gmapsCategory": "Liquor store"
  },
  {
    "type": "Liquor",
    "name": "M C Liquor",
    "lat": 34.076138,
    "long": -117.181763,
    "gmapsCategory": "Liquor store"
  },
  {
    "type": "Liquor",
    "name": "Palm Liquor",
    "lat": 34.1344621,
    "long": -117.2084015,
    "gmapsCategory": "Liquor store"
  },
  {
    "type": "Liquor",
    "name": "King Tut Wine Spirits",
    "lat": 34.135487,
    "long": -117.2296787,
    "gmapsCategory": "Liquor store"
  },
  {
    "type": "Liquor",
    "name": "Base Line Liquor Market",
    "lat": 34.1210977,
    "long": -117.237764,
    "gmapsCategory": "Liquor store"
  },
  {
    "type": "Liquor",
    "name": "Lucky One Liquor market",
    "lat": 34.121558,
    "long": -117.212188,
    "gmapsCategory": "Liquor store"
  },
  {
    "type": "Liquor",
    "name": "Mentone Liquor",
    "lat": 34.0697524,
    "long": -117.1277256,
    "gmapsCategory": "Liquor store"
  },
  {
    "type": "Liquor",
    "name": "Hot spot food and liquor",
    "lat": 34.0704261,
    "long": -117.1352615,
    "gmapsCategory": "Liquor store"
  },
  {
    "type": "Liquor",
    "name": "Highlander Liquor",
    "lat": 34.1216875,
    "long": -117.2096875,
    "gmapsCategory": "Liquor store"
  },
  {
    "type": "Liquor",
    "name": "Quick Pick Redlands",
    "lat": 34.0670631,
    "long": -117.1828415,
    "gmapsCategory": "Liquor store"
  },
  {
    "type": "Liquor",
    "name": "California Drive Thru",
    "lat": 34.1209814,
    "long": -117.2176587,
    "gmapsCategory": "Liquor store"
  },
  {
    "type": "Liquor",
    "name": "BevMo ",
    "lat": 34.0712375,
    "long": -117.2024861,
    "gmapsCategory": "Wine store"
  },
  {
    "type": "Liquor",
    "name": "M G Market Liquor, Beer Wine",
    "lat": 34.1087596,
    "long": -117.2215432,
    "gmapsCategory": "Liquor store"
  },
  {
    "type": "Liquor",
    "name": "Boulder Bay Liquor",
    "lat": 34.238599,
    "long": -116.9474172,
    "gmapsCategory": "Liquor store"
  },
  {
    "type": "Liquor",
    "name": " Eleven",
    "lat": 34.2479513,
    "long": -117.1900255,
    "gmapsCategory": "Convenience store"
  },
  {
    "type": "Liquor",
    "name": "CVS",
    "lat": 34.2500328,
    "long": -117.1895156,
    "gmapsCategory": "Liquor store"
  },
  {
    "type": "Liquor",
    "name": "AppleJack Liquor",
    "lat": 34.4263915,
    "long": -117.3501969,
    "gmapsCategory": "Liquor store"
  },
  {
    "type": "Liquor",
    "name": "Champs liquor ",
    "lat": 34.4265251,
    "long": -117.3391386,
    "gmapsCategory": "Liquor store"
  },
  {
    "type": "Liquor",
    "name": "Porgie s Liquor Deli",
    "lat": 34.4198611,
    "long": -117.2922961,
    "gmapsCategory": "Porgie's Liquor & Deli"
  },
  {
    "type": "Liquor",
    "name": "Sun Liquor Market",
    "lat": 34.4240836,
    "long": -117.3170542,
    "gmapsCategory": "Liquor store"
  },
  {
    "type": "Liquor",
    "name": "M M Liquor Market",
    "lat": 34.4419878,
    "long": -117.3216848,
    "gmapsCategory": "Liquor store"
  },
  {
    "type": "Liquor",
    "name": "Live Oak Liquor Jr Market",
    "lat": 34.4261667,
    "long": -117.2820166,
    "gmapsCategory": "Liquor store"
  },
  {
    "type": "Liquor",
    "name": "Hesperia Liquor",
    "lat": 34.422224,
    "long": -117.3086333,
    "gmapsCategory": "Liquor store"
  },
  {
    "type": "Liquor",
    "name": "Main Street Gas Mart",
    "lat": 34.4223733,
    "long": -117.3053809,
    "gmapsCategory": "Liquor store"
  },
  {
    "type": "Liquor",
    "name": "Mark s Liquor Market",
    "lat": 34.3989402,
    "long": -117.2801328,
    "gmapsCategory": "Liquor store"
  },
  {
    "type": "Liquor",
    "name": "Fastrip",
    "lat": 34.4190912,
    "long": -117.2874565,
    "gmapsCategory": "Liquor store"
  },
  {
    "type": "Liquor",
    "name": "Market Liquor",
    "lat": 34.507113,
    "long": -117.4176532,
    "gmapsCategory": "Liquor store"
  },
  {
    "type": "Liquor",
    "name": "Alpha Market Spirits",
    "lat": 34.4128133,
    "long": -117.589668,
    "gmapsCategory": "Liquor store"
  },
  {
    "type": "Liquor",
    "name": "Wrightwood Fine Foods",
    "lat": 34.361021,
    "long": -117.6319786,
    "gmapsCategory": "Grocery store"
  },
  {
    "type": "Liquor",
    "name": "C A Luxor Market",
    "lat": 34.6002629,
    "long": -117.8252709,
    "gmapsCategory": "Liquor store"
  },
  {
    "type": "Liquor",
    "name": "Hi Way Liquor Junior Market",
    "lat": 34.5060115,
    "long": -117.8961706,
    "gmapsCategory": "Liquor store"
  },
  {
    "type": "Liquor",
    "name": "N M Liquor",
    "lat": 34.6119055,
    "long": -117.8272116,
    "gmapsCategory": "Liquor store"
  },
  {
    "type": "Liquor",
    "name": "Lake L a Liquor",
    "lat": 34.6119508,
    "long": -117.827096,
    "gmapsCategory": "Liquor store"
  },
  {
    "type": "Liquor",
    "name": "Chevron Pi C B on Hills",
    "lat": 34.4429682,
    "long": -117.6474116,
    "gmapsCategory": "Liquor store"
  },
  {
    "type": "Liquor",
    "name": "Pi C B on Hills Market",
    "lat": 34.442849,
    "long": -117.647561,
    "gmapsCategory": "Liquor store"
  },
  {
    "type": "Liquor",
    "name": "Little Rock Liquor Store",
    "lat": 34.5206801,
    "long": -117.9859902,
    "gmapsCategory": "Liquor store"
  },
  {
    "type": "Liquor",
    "name": "Desert View Superette",
    "lat": 34.5864834,
    "long": -118.1472255,
    "gmapsCategory": "Liquor store"
  },
  {
    "type": "Liquor",
    "name": "Shamrock Liquor ",
    "lat": 34.5800038,
    "long": -118.1034836,
    "gmapsCategory": "Liquor store"
  },
  {
    "type": "Liquor",
    "name": "B Market Liquor",
    "lat": 34.5722225,
    "long": -118.1114191,
    "gmapsCategory": "Liquor store"
  },
  {
    "type": "Liquor",
    "name": "Sam s Market Liquor",
    "lat": 34.5797276,
    "long": -118.1113086,
    "gmapsCategory": "Liquor store"
  },
  {
    "type": "Liquor",
    "name": "Ana Verde Market",
    "lat": 34.557398,
    "long": -118.1354529,
    "gmapsCategory": "Convenience store"
  },
  {
    "type": "Liquor",
    "name": "Kwik Stop Liquor",
    "lat": 34.6014736,
    "long": -118.1216678,
    "gmapsCategory": "Liquor store"
  },
  {
    "type": "Liquor",
    "name": "BevMo ",
    "lat": 34.602685,
    "long": -118.1460341,
    "gmapsCategory": "Wine store"
  },
  {
    "type": "Liquor",
    "name": "Pyramid Market",
    "lat": 34.5809145,
    "long": -118.0989185,
    "gmapsCategory": "Grocery store"
  },
  {
    "type": "Liquor",
    "name": "Liquidation Super Deals",
    "lat": 34.5795569,
    "long": -118.1238346,
    "gmapsCategory": "Warehouse store"
  },
  {
    "type": "Liquor",
    "name": "Lucky Luke Brewing",
    "lat": 34.615941,
    "long": -118.1411693,
    "gmapsCategory": ""
  },
  {
    "type": "Liquor",
    "name": " Eleven",
    "lat": 34.6022612,
    "long": -118.1508968,
    "gmapsCategory": "Convenience store"
  },
  {
    "type": "Liquor",
    "name": "Liquor King",
    "lat": 34.5429801,
    "long": -118.0313294,
    "gmapsCategory": "Liquor store"
  },
  {
    "type": "Liquor",
    "name": "Four Points Liquor Market",
    "lat": 34.5425089,
    "long": -118.0312459,
    "gmapsCategory": "Liquor store"
  },
  {
    "type": "Liquor",
    "name": "Joshua Liquor Jr Market",
    "lat": 34.5426775,
    "long": -117.974035,
    "gmapsCategory": "Liquor store"
  },
  {
    "type": "Liquor",
    "name": "New Acton Market",
    "lat": 34.4685515,
    "long": -118.197661,
    "gmapsCategory": "Grocery store"
  },
  {
    "type": "Liquor",
    "name": "Agua Dulce Liquor",
    "lat": 34.4960291,
    "long": -118.3264029,
    "gmapsCategory": "Beer store"
  },
  {
    "type": "Liquor",
    "name": "Pepper Tree Liquor",
    "lat": 34.5201963,
    "long": -118.3036069,
    "gmapsCategory": "Pepper Tree Liquor"
  },
  {
    "type": "Liquor",
    "name": "Dooly s Liquor Market",
    "lat": 34.386019,
    "long": -118.53251,
    "gmapsCategory": "Convenience store"
  },
  {
    "type": "Liquor",
    "name": "International Wines Liquor",
    "lat": 34.3792159,
    "long": -118.5462319,
    "gmapsCategory": "Liquor store"
  },
  {
    "type": "Liquor",
    "name": "Sunrise Spirits Food Co",
    "lat": 34.3925735,
    "long": -118.5608311,
    "gmapsCategory": "Liquor store"
  },
  {
    "type": "Liquor",
    "name": "Total Wine More",
    "lat": 34.4199908,
    "long": -118.5588266,
    "gmapsCategory": "Liquor store"
  },
  {
    "type": "Liquor",
    "name": "Friendly Market",
    "lat": 34.3991369,
    "long": -118.4738208,
    "gmapsCategory": "Liquor store"
  },
  {
    "type": "Liquor",
    "name": "Kwik Stop Liquor",
    "lat": 34.4350777,
    "long": -118.5314654,
    "gmapsCategory": "Liquor store"
  },
  {
    "type": "Liquor",
    "name": "LIQUOR HUT",
    "lat": 34.4081064,
    "long": -118.462247,
    "gmapsCategory": "Liquor store"
  },
  {
    "type": "Liquor",
    "name": "Michael s Liquor",
    "lat": 34.4213393,
    "long": -118.4958444,
    "gmapsCategory": "Liquor store"
  },
  {
    "type": "Liquor",
    "name": "Oak Tree Liquor Deli Grill Local and Small Business",
    "lat": 34.4446877,
    "long": -118.5078132,
    "gmapsCategory": "Liquor store"
  },
  {
    "type": "Liquor",
    "name": "Bouquet Plaza Liquor",
    "lat": 34.4535521,
    "long": -118.4953789,
    "gmapsCategory": "Liquor store"
  },
  {
    "type": "Liquor",
    "name": "Bonanza Liquor Market",
    "lat": 34.3786622,
    "long": -118.5281118,
    "gmapsCategory": "Liquor store"
  },
  {
    "type": "Liquor",
    "name": "Valencia Liquors",
    "lat": 34.380508,
    "long": -118.533956,
    "gmapsCategory": "Liquor store"
  },
  {
    "type": "Liquor",
    "name": "Flow",
    "lat": 34.4160266,
    "long": -118.4540853,
    "gmapsCategory": "Liquor store"
  },
  {
    "type": "Liquor",
    "name": "Canyon Mini Mart",
    "lat": 34.4029785,
    "long": -118.4589691,
    "gmapsCategory": "Convenience store"
  },
  {
    "type": "Liquor",
    "name": "Kwik Pick Jr Market",
    "lat": 34.4426698,
    "long": -118.5116692,
    "gmapsCategory": "Liquor store"
  },
  {
    "type": "Liquor",
    "name": "Oak Tree Mini Mart",
    "lat": 34.4206562,
    "long": -118.4842113,
    "gmapsCategory": "Convenience store"
  },
  {
    "type": "Liquor",
    "name": "Flying Tiger Liquor",
    "lat": 34.4077094,
    "long": -118.4601018,
    "gmapsCategory": "Liquor store"
  },
  {
    "type": "Liquor",
    "name": "Sierra Liquor",
    "lat": 34.4268178,
    "long": -118.4467757,
    "gmapsCategory": "Liquor store"
  },
  {
    "type": "Liquor",
    "name": "Placerita Liquor Store",
    "lat": 34.3801513,
    "long": -118.5288016,
    "gmapsCategory": "Liquor store"
  },
  {
    "type": "Liquor",
    "name": "Fox Liquor",
    "lat": 34.4174855,
    "long": -118.4767504,
    "gmapsCategory": "Liquor store"
  },
  {
    "type": "Liquor",
    "name": "Ricky s Liquor",
    "lat": 34.4159876,
    "long": -118.4566599,
    "gmapsCategory": "Liquor store"
  },
  {
    "type": "Liquor",
    "name": "Country Liquor and Mart",
    "lat": 34.4156745,
    "long": -118.4649679,
    "gmapsCategory": "Liquor store"
  },
  {
    "type": "Liquor",
    "name": "Town Country Liquor Store",
    "lat": 34.3700184,
    "long": -118.5130436,
    "gmapsCategory": "Liquor store"
  },
  {
    "type": "Liquor",
    "name": "MGA Liquor",
    "lat": 34.4218831,
    "long": -118.5464906,
    "gmapsCategory": "Liquor store"
  },
  {
    "type": "Liquor",
    "name": "E Z Stop",
    "lat": 34.3876645,
    "long": -118.5338925,
    "gmapsCategory": "Liquor store"
  },
  {
    "type": "Liquor",
    "name": "Flying Tiger Market",
    "lat": 34.4076208,
    "long": -118.4603758,
    "gmapsCategory": "Convenience store"
  },
  {
    "type": "Liquor",
    "name": "Thrifty Shopper Liquor",
    "lat": 34.4163411,
    "long": -118.465912,
    "gmapsCategory": "Liquor store"
  },
  {
    "type": "Liquor",
    "name": " Gas Station Friendly Station Mart Liquor",
    "lat": 34.3995001,
    "long": -118.473303,
    "gmapsCategory": "76 Gas Station - Friendly Station Mart & Liquor"
  },
  {
    "type": "Liquor",
    "name": "BevMo ",
    "lat": 34.3936916,
    "long": -118.4668113,
    "gmapsCategory": "Wine store"
  },
  {
    "type": "Liquor",
    "name": "Lopez Spirits Beverages Company",
    "lat": 34.4107945,
    "long": -118.5060762,
    "gmapsCategory": "Lopez Spirits & Beverages Company"
  },
  {
    "type": "Liquor",
    "name": "Golden Stop Liquor",
    "lat": 34.3955399,
    "long": -118.4838924,
    "gmapsCategory": "Liquor store"
  },
  {
    "type": "Liquor",
    "name": "Rainbow Market",
    "lat": 34.4208333,
    "long": -118.49,
    "gmapsCategory": "Grocery store"
  },
  {
    "type": "Liquor",
    "name": "Seco Mini Market",
    "lat": 34.4605324,
    "long": -118.5337977,
    "gmapsCategory": "Convenience store"
  },
  {
    "type": "Liquor",
    "name": "Street Corner",
    "lat": 34.4150657,
    "long": -118.436737,
    "gmapsCategory": "Liquor store"
  },
  {
    "type": "Liquor",
    "name": "Hasley Liquor Deli",
    "lat": 34.453432,
    "long": -118.616533,
    "gmapsCategory": "Liquor store"
  },
  {
    "type": "Liquor",
    "name": "Vipspirits",
    "lat": 34.4548313,
    "long": -118.5774934,
    "gmapsCategory": "Liquor store"
  },
  {
    "type": "Liquor",
    "name": "Young s Market Liquor",
    "lat": 34.4919931,
    "long": -118.6192096,
    "gmapsCategory": "Liquor store"
  },
  {
    "type": "Liquor",
    "name": "Gallions Castaic Corner",
    "lat": 34.4912621,
    "long": -118.6175879,
    "gmapsCategory": "Convenience store"
  },
  {
    "type": "Liquor",
    "name": "Fast Stop Country Market",
    "lat": 34.4467389,
    "long": -118.661989,
    "gmapsCategory": "Liquor store"
  },
  {
    "type": "Liquor",
    "name": "Hasley Market Place",
    "lat": 34.453375,
    "long": -118.6164686,
    "gmapsCategory": ""
  },
  {
    "type": "Liquor",
    "name": " Eleven",
    "lat": 34.4319678,
    "long": -118.5901315,
    "gmapsCategory": "Convenience store"
  },
  {
    "type": "Liquor",
    "name": " Eleven",
    "lat": 34.4964305,
    "long": -118.6220121,
    "gmapsCategory": "Convenience store"
  },
  {
    "type": "Liquor",
    "name": "circus liquor",
    "lat": 34.42413,
    "long": -118.4227817,
    "gmapsCategory": "Liquor store"
  },
  {
    "type": "Liquor",
    "name": "Canyon Liquor",
    "lat": 34.4273913,
    "long": -118.4238769,
    "gmapsCategory": "Liquor store"
  },
  {
    "type": "Liquor",
    "name": "Bills Place",
    "lat": 34.4511984,
    "long": -118.4221004,
    "gmapsCategory": "Convenience store"
  },
  {
    "type": "Liquor",
    "name": "Newhall Market Side Store ",
    "lat": 34.3846367,
    "long": -118.5294134,
    "gmapsCategory": "Supermarket"
  },
  {
    "type": "Liquor",
    "name": " Eleven",
    "lat": 34.4266013,
    "long": -118.4239397,
    "gmapsCategory": "Convenience store"
  },
  {
    "type": "Liquor",
    "name": " Eleven",
    "lat": 34.4901323,
    "long": -118.617793,
    "gmapsCategory": "Convenience store"
  },
  {
    "type": "Liquor",
    "name": " Eleven",
    "lat": 34.4371233,
    "long": -118.5643868,
    "gmapsCategory": "Convenience store"
  },
  {
    "type": "Liquor",
    "name": "Papa s Country Store",
    "lat": 34.6746807,
    "long": -118.440147,
    "gmapsCategory": "Liquor store"
  },
  {
    "type": "Liquor",
    "name": "Antelope Acres Market",
    "lat": 34.754933,
    "long": -118.290781,
    "gmapsCategory": "Liquor store"
  },
  {
    "type": "Liquor",
    "name": "Minit Mart",
    "lat": 34.989715,
    "long": -118.940607,
    "gmapsCategory": "Convenience store"
  },
  {
    "type": "Liquor",
    "name": "GOASIS",
    "lat": 34.9895757,
    "long": -118.9409122,
    "gmapsCategory": "Convenience store"
  },
  {
    "type": "Liquor",
    "name": "Popeyes Louisiana Kitchen",
    "lat": 34.9917721,
    "long": -118.9411995,
    "gmapsCategory": ""
  }
]