[
  {
    "type": "Liquor",
    "name": "Mac s Beer Wine FMidtown Liquor",
    "lat": 33.7808333,
    "long": -84.3877778
  },
  {
    "type": "Liquor",
    "name": "Northside Drive Liquor Store",
    "lat": 33.791652,
    "long": -84.4075197
  },
  {
    "type": "Liquor",
    "name": "My Friend s Bottle Shop",
    "lat": 33.7467021,
    "long": -84.3790338
  },
  {
    "type": "Liquor",
    "name": "Elemental Spirits Co ",
    "lat": 33.7709317,
    "long": -84.3527324
  },
  {
    "type": "Liquor",
    "name": "Peachtree Package Store",
    "lat": 33.7625507,
    "long": -84.3878992
  },
  {
    "type": "Liquor",
    "name": "Kenny Bottle Shop",
    "lat": 33.7509653,
    "long": -84.3227889
  },
  {
    "type": "Liquor",
    "name": "Sol s Liquor",
    "lat": 33.759443,
    "long": -84.3844265
  },
  {
    "type": "Liquor",
    "name": "All American Package Store",
    "lat": 33.7214472,
    "long": -84.3930658
  },
  {
    "type": "Liquor",
    "name": "D M Package",
    "lat": 33.7380021,
    "long": -84.407231
  },
  {
    "type": "Liquor",
    "name": "Hop City Craft Beer and Wine The Krog District",
    "lat": 33.7572236,
    "long": -84.3639691
  },
  {
    "type": "Liquor",
    "name": "Southeast Package Store",
    "lat": 33.7232251,
    "long": -84.3497616
  },
  {
    "type": "Liquor",
    "name": "Midtown Liquor Store",
    "lat": 33.8007934,
    "long": -84.420844
  },
  {
    "type": "Liquor",
    "name": "Metro Package Store",
    "lat": 33.7214301,
    "long": -84.4083679
  },
  {
    "type": "Liquor",
    "name": "Little Five Points Package Store",
    "lat": 33.7665458,
    "long": -84.3494485
  },
  {
    "type": "Liquor",
    "name": "T K Package Store",
    "lat": 33.7511944,
    "long": -84.468351
  },
  {
    "type": "Liquor",
    "name": "AJ Package Store",
    "lat": 33.7696345,
    "long": -84.4051823
  },
  {
    "type": "Liquor",
    "name": "Bims Liquor Store",
    "lat": 33.7851189,
    "long": -84.4202591
  },
  {
    "type": "Liquor",
    "name": "Sweet Auburn Bottle Shop",
    "lat": 33.7556772,
    "long": -84.3774351
  },
  {
    "type": "Liquor",
    "name": "Cascade Heights Liquor Store",
    "lat": 33.738773,
    "long": -84.435067
  },
  {
    "type": "Liquor",
    "name": "Gresham Package",
    "lat": 33.7150763,
    "long": -84.3108362
  },
  {
    "type": "Liquor",
    "name": "Total Wine More",
    "lat": 33.858894,
    "long": -84.342031
  },
  {
    "type": "Liquor",
    "name": "Rainbow Liquore Store",
    "lat": 33.7638597,
    "long": -84.4331928
  },
  {
    "type": "Liquor",
    "name": "Atlanta Package Spirits Beer Wine",
    "lat": 33.7769034,
    "long": -84.4743956
  },
  {
    "type": "Liquor",
    "name": "Ansley Wine Merchants",
    "lat": 33.7979099,
    "long": -84.3705896
  },
  {
    "type": "Liquor",
    "name": "Tony s Package Store",
    "lat": 33.7623703,
    "long": -84.3884827
  },
  {
    "type": "Liquor",
    "name": "HN Liquor Store",
    "lat": 33.7636775,
    "long": -84.4127832
  },
  {
    "type": "Liquor",
    "name": "Citi Wine and Spirits",
    "lat": 33.7472743,
    "long": -84.3495442
  },
  {
    "type": "Liquor",
    "name": "Affordable Spirits",
    "lat": 33.8014866,
    "long": -84.4255718
  },
  {
    "type": "Liquor",
    "name": "The Zero Co ",
    "lat": 33.7715608,
    "long": -84.3527726
  },
  {
    "type": "Liquor",
    "name": "Empire Package",
    "lat": 33.7254136,
    "long": -84.3225849
  },
  {
    "type": "Liquor",
    "name": "Bonanza Liquor Store",
    "lat": 33.7068776,
    "long": -84.4571721
  },
  {
    "type": "Liquor",
    "name": "Red Carpet Liquor Store",
    "lat": 33.7366501,
    "long": -84.436395
  },
  {
    "type": "Liquor",
    "name": "Hop City Craft Beer and Wine West End",
    "lat": 33.7299389,
    "long": -84.4187309
  },
  {
    "type": "Liquor",
    "name": "Midtown Market",
    "lat": 33.7816772,
    "long": -84.3802123
  },
  {
    "type": "Liquor",
    "name": "Decatur Package Store",
    "lat": 33.7884661,
    "long": -84.3073889
  },
  {
    "type": "Liquor",
    "name": "Green s Beverages Ponce De Leon",
    "lat": 33.7736266,
    "long": -84.3629404
  },
  {
    "type": "Liquor",
    "name": "Banks Liquor Store",
    "lat": 33.6956699,
    "long": -84.4084857
  },
  {
    "type": "Liquor",
    "name": "Citi Package Liquor, Beer, Wine",
    "lat": 33.7727256,
    "long": -84.4178855
  },
  {
    "type": "Liquor",
    "name": "Li Package Store Inc",
    "lat": 33.7257504,
    "long": -84.41964
  },
  {
    "type": "Liquor",
    "name": "Candler Park Market",
    "lat": 33.7649366,
    "long": -84.3336236
  },
  {
    "type": "Liquor",
    "name": "Zee Package Store",
    "lat": 33.7471958,
    "long": -84.3342789
  },
  {
    "type": "Liquor",
    "name": "PERRINE s WINE Westside",
    "lat": 33.7852587,
    "long": -84.4120695
  },
  {
    "type": "Liquor",
    "name": "F S Package Store",
    "lat": 33.71691,
    "long": -84.349902
  },
  {
    "type": "Liquor",
    "name": "Track One Package Store",
    "lat": 33.6973258,
    "long": -84.4302385
  },
  {
    "type": "Liquor",
    "name": "KINGS FOOD LIQUOR",
    "lat": 33.7425625,
    "long": -84.3978
  },
  {
    "type": "Liquor",
    "name": "Ace s Package Store",
    "lat": 33.7137132,
    "long": -84.3100623
  },
  {
    "type": "Liquor",
    "name": "Ponce Mini Market",
    "lat": 33.7720098,
    "long": -84.3846212
  },
  {
    "type": "Liquor",
    "name": "The Tap on Ponce",
    "lat": 33.7730812,
    "long": -84.3661557
  },
  {
    "type": "Liquor",
    "name": "Ancestral Bottle Shop B Market",
    "lat": 33.7838777,
    "long": -84.4191502
  },
  {
    "type": "Liquor",
    "name": "Ale Yeah ",
    "lat": 33.7655237,
    "long": -84.3081962
  },
  {
    "type": "Liquor",
    "name": "Moreland Package Store",
    "lat": 33.7530021,
    "long": -84.3496432
  },
  {
    "type": "Liquor",
    "name": "Highland Fine Wine",
    "lat": 33.7927635,
    "long": -84.3522824
  },
  {
    "type": "Liquor",
    "name": " Parks Wine Shop",
    "lat": 33.7411545,
    "long": -84.3583321
  },
  {
    "type": "Liquor",
    "name": "Diamond Package Liquor, Beer, Wine",
    "lat": 33.7138743,
    "long": -84.4371711
  },
  {
    "type": "Liquor",
    "name": "Intown Market Deli",
    "lat": 33.749975,
    "long": -84.376891
  },
  {
    "type": "Liquor",
    "name": "Vin ATL",
    "lat": 33.7611408,
    "long": -84.3402181
  },
  {
    "type": "Liquor",
    "name": "Cascade Package",
    "lat": 33.7222888,
    "long": -84.4618165
  },
  {
    "type": "Liquor",
    "name": "Wine Riot",
    "lat": 33.779064,
    "long": -84.4106
  },
  {
    "type": "Liquor",
    "name": "Stanton Road Package Store",
    "lat": 33.6988274,
    "long": -84.4489873
  },
  {
    "type": "Liquor",
    "name": "Savi Provisions Midtown",
    "lat": 33.7809654,
    "long": -84.384256
  },
  {
    "type": "Liquor",
    "name": "Southwest Package Store",
    "lat": 33.7060697,
    "long": -84.4576623
  },
  {
    "type": "Liquor",
    "name": "Dom Beijos",
    "lat": 33.7509751,
    "long": -84.3211657
  },
  {
    "type": "Liquor",
    "name": "Sammy s Package Store",
    "lat": 33.7503161,
    "long": -84.4521813
  },
  {
    "type": "Liquor",
    "name": "Savi Provisions",
    "lat": 33.7623383,
    "long": -84.3577923
  },
  {
    "type": "Liquor",
    "name": "Clairmont Liquors",
    "lat": 33.7885091,
    "long": -84.3074811
  },
  {
    "type": "Liquor",
    "name": "Broadway Package",
    "lat": 33.7137747,
    "long": -84.4371291
  },
  {
    "type": "Liquor",
    "name": "O W Market",
    "lat": 33.7521038,
    "long": -84.3701363
  },
  {
    "type": "Liquor",
    "name": "Pitch Putt",
    "lat": 33.8044932,
    "long": -84.3388418
  },
  {
    "type": "Liquor",
    "name": "Market At MLK",
    "lat": 33.7538378,
    "long": -84.4724718
  },
  {
    "type": "Liquor",
    "name": "Wahoo Wine and Provisions",
    "lat": 33.7649492,
    "long": -84.3105586
  },
  {
    "type": "Liquor",
    "name": "Pink and White Wine Boutique",
    "lat": 33.777653,
    "long": -84.408398
  },
  {
    "type": "Liquor",
    "name": "Tana Beer Wine",
    "lat": 33.7257611,
    "long": -84.4195556
  },
  {
    "type": "Liquor",
    "name": "Little Bear Food Mart",
    "lat": 33.7066276,
    "long": -84.3792843
  },
  {
    "type": "Liquor",
    "name": "Swift Bodega Beer Wine and Convenience",
    "lat": 33.7852535,
    "long": -84.3801622
  },
  {
    "type": "Liquor",
    "name": "Wild Leap Atlanta E E B Brewery E E B Distillery",
    "lat": 33.751625,
    "long": -84.3965454
  },
  {
    "type": "Liquor",
    "name": " Parks Wine Shop Old Fourth Ward",
    "lat": 33.7685551,
    "long": -84.3631034
  },
  {
    "type": "Liquor",
    "name": "Palate Atlanta Tasting Room",
    "lat": 33.7515775,
    "long": -84.3988889
  },
  {
    "type": "Liquor",
    "name": "VinoTeca",
    "lat": 33.7622967,
    "long": -84.3589897
  },
  {
    "type": "Liquor",
    "name": "Murphy s Wine Shop",
    "lat": 33.7820185,
    "long": -84.3547638
  },
  {
    "type": "Liquor",
    "name": "Savi Provisions",
    "lat": 33.7754189,
    "long": -84.2983246
  },
  {
    "type": "Liquor",
    "name": "savi liquor store",
    "lat": 33.7751368,
    "long": -84.2983964
  },
  {
    "type": "Liquor",
    "name": "Capital City Wine Spirits",
    "lat": 33.8092665,
    "long": -84.4137773
  },
  {
    "type": "Liquor",
    "name": "Westview Corner Grocery",
    "lat": 33.7438937,
    "long": -84.4385396
  },
  {
    "type": "Liquor",
    "name": "Vine Fine Wine",
    "lat": 33.7758309,
    "long": -84.3013554
  },
  {
    "type": "Liquor",
    "name": "Terrific Package Store",
    "lat": 33.809613,
    "long": -84.3604085
  },
  {
    "type": "Liquor",
    "name": "Glass Room Wine Craft Beer",
    "lat": 33.7224191,
    "long": -84.4644162
  },
  {
    "type": "Liquor",
    "name": "Publix Super Market at Atlantic Station",
    "lat": 33.7927262,
    "long": -84.397981
  },
  {
    "type": "Liquor",
    "name": "Fiesta Package Store",
    "lat": 33.7919602,
    "long": -84.291994
  },
  {
    "type": "Liquor",
    "name": "Valero Gas Station E B BD EF B F E B BD EF B F E B BD EF B F",
    "lat": 33.7673243,
    "long": -84.3046033
  },
  {
    "type": "Liquor",
    "name": "Rocky s Package Store",
    "lat": 33.8141156,
    "long": -84.3343499
  },
  {
    "type": "Liquor",
    "name": "Tower Beer, Wine Spirits",
    "lat": 33.8155841,
    "long": -84.3660231
  },
  {
    "type": "Liquor",
    "name": "Midtown Butcher Shoppe",
    "lat": 33.7814205,
    "long": -84.3683628
  },
  {
    "type": "Liquor",
    "name": "Tuscany At Your Table",
    "lat": 33.783228,
    "long": -84.3546472
  },
  {
    "type": "Liquor",
    "name": "Publix Super Market at The Plaza Midtown",
    "lat": 33.7804802,
    "long": -84.388809
  },
  {
    "type": "Liquor",
    "name": "Trader Joe s",
    "lat": 33.7796552,
    "long": -84.3679103
  },
  {
    "type": "Liquor",
    "name": "Bouldercrest Package Store",
    "lat": 33.6866773,
    "long": -84.3101677
  },
  {
    "type": "Liquor",
    "name": "Old South Package Store",
    "lat": 33.6815345,
    "long": -84.4018079
  },
  {
    "type": "Liquor",
    "name": "Whole Foods Market",
    "lat": 33.7752338,
    "long": -84.3658288
  },
  {
    "type": "Liquor",
    "name": "Campbellton Rd",
    "lat": 33.6962229,
    "long": -84.4856152
  },
  {
    "type": "Liquor",
    "name": "Alon s Bakery Market",
    "lat": 33.7926156,
    "long": -84.3528306
  },
  {
    "type": "Liquor",
    "name": "Whole Foods Market",
    "lat": 33.7862472,
    "long": -84.3887557
  },
  {
    "type": "Liquor",
    "name": "Publix Super Market at Summerhill",
    "lat": 33.7390788,
    "long": -84.3871346
  },
  {
    "type": "Liquor",
    "name": "Greene E s Fine Foods",
    "lat": 33.7897248,
    "long": -84.30742
  },
  {
    "type": "Liquor",
    "name": "Publix Super Market at East Lake",
    "lat": 33.7386351,
    "long": -84.3131507
  },
  {
    "type": "Liquor",
    "name": "Decatur Wine Spirits",
    "lat": 33.7992965,
    "long": -84.2811647
  },
  {
    "type": "Liquor",
    "name": "Power Package Store",
    "lat": 33.7857629,
    "long": -84.4918324
  },
  {
    "type": "Liquor",
    "name": "Liquor Store",
    "lat": 33.6923748,
    "long": -84.4913081
  },
  {
    "type": "Liquor",
    "name": "Green s Liquor Store",
    "lat": 33.8263119,
    "long": -84.3492997
  },
  {
    "type": "Liquor",
    "name": "Publix Super Market at Madison Yards",
    "lat": 33.7458821,
    "long": -84.3573905
  },
  {
    "type": "Liquor",
    "name": "Toco Giant Package store",
    "lat": 33.8153563,
    "long": -84.3110026
  },
  {
    "type": "Liquor",
    "name": "Publix Super Market at Ponce",
    "lat": 33.7728343,
    "long": -84.3542849
  },
  {
    "type": "Liquor",
    "name": "Holeman Finch Bottle Shop",
    "lat": 33.8198659,
    "long": -84.3866772
  },
  {
    "type": "Liquor",
    "name": "Westside Package Store",
    "lat": 33.753635,
    "long": -84.4945715
  },
  {
    "type": "Liquor",
    "name": "Publix Super Market at Ansley Mall",
    "lat": 33.7990623,
    "long": -84.3718066
  },
  {
    "type": "Liquor",
    "name": "Tipsy World Of Beverage",
    "lat": 33.6677908,
    "long": -84.4450421
  },
  {
    "type": "Liquor",
    "name": "Old National Liquor",
    "lat": 33.6172256,
    "long": -84.4731991
  },
  {
    "type": "Liquor",
    "name": "Camp Creek Liquor",
    "lat": 33.6513519,
    "long": -84.4815979
  },
  {
    "type": "Liquor",
    "name": "Star Package Store",
    "lat": 33.6171229,
    "long": -84.4732599
  },
  {
    "type": "Liquor",
    "name": "Kilroy s Package Store",
    "lat": 33.6226686,
    "long": -84.4752501
  },
  {
    "type": "Liquor",
    "name": "Camp Creek World Of Beverages",
    "lat": 33.6574865,
    "long": -84.5118356
  },
  {
    "type": "Liquor",
    "name": "Red Oak Package",
    "lat": 33.6229422,
    "long": -84.5024297
  },
  {
    "type": "Liquor",
    "name": "Ben Hill Store Package Store",
    "lat": 33.6907566,
    "long": -84.5096684
  },
  {
    "type": "Liquor",
    "name": "County Line Bottle Shop",
    "lat": 33.6954753,
    "long": -84.5356669
  },
  {
    "type": "Liquor",
    "name": "East Point Package Store",
    "lat": 33.6762093,
    "long": -84.4479272
  },
  {
    "type": "Liquor",
    "name": "Beverage City Package Store",
    "lat": 33.6595886,
    "long": -84.4365214
  },
  {
    "type": "Liquor",
    "name": "Tommie s Package Store",
    "lat": 33.6924545,
    "long": -84.4912692
  },
  {
    "type": "Liquor",
    "name": "ATL Market",
    "lat": 33.6407059,
    "long": -84.42968
  },
  {
    "type": "Liquor",
    "name": "Local Vine Wine Beer and Liquor",
    "lat": 33.8787329,
    "long": -84.4565416
  },
  {
    "type": "Liquor",
    "name": "Prohibition Liquor and Wine",
    "lat": 33.8269242,
    "long": -84.4959165
  },
  {
    "type": "Liquor",
    "name": "Smyrna World Of Beverages",
    "lat": 33.845053,
    "long": -84.5035476
  },
  {
    "type": "Liquor",
    "name": " Stop Beverage Near Truist Park ",
    "lat": 33.8956595,
    "long": -84.4798537
  },
  {
    "type": "Liquor",
    "name": "Leroy s Liquor",
    "lat": 33.8987185,
    "long": -84.5407351
  },
  {
    "type": "Liquor",
    "name": "Paces Bottle Shop",
    "lat": 33.865978,
    "long": -84.492484
  },
  {
    "type": "Liquor",
    "name": "Smyrna Cobb Package",
    "lat": 33.8764859,
    "long": -84.5310649
  },
  {
    "type": "Liquor",
    "name": "Vineyard Beverage",
    "lat": 33.8284874,
    "long": -84.491423
  },
  {
    "type": "Liquor",
    "name": "Concord Liquor Store",
    "lat": 33.8694444,
    "long": -84.5375
  },
  {
    "type": "Liquor",
    "name": "Smyrna Liquors",
    "lat": 33.8825092,
    "long": -84.4869436
  },
  {
    "type": "Liquor",
    "name": "Hillside Package",
    "lat": 33.9000028,
    "long": -84.4484979
  },
  {
    "type": "Liquor",
    "name": "Savi Spirits at the Battery",
    "lat": 33.8876617,
    "long": -84.4713423
  },
  {
    "type": "Liquor",
    "name": "Spring Road Package",
    "lat": 33.8826411,
    "long": -84.5048273
  },
  {
    "type": "Liquor",
    "name": "Metrobottle",
    "lat": 33.8181111,
    "long": -84.4481363
  },
  {
    "type": "Liquor",
    "name": "Savi Provisions",
    "lat": 33.8876284,
    "long": -84.4713616
  },
  {
    "type": "Liquor",
    "name": "Vinings Bottle Shop",
    "lat": 33.8715558,
    "long": -84.4573474
  },
  {
    "type": "Liquor",
    "name": "Total Wine More",
    "lat": 33.8828945,
    "long": -84.4608914
  },
  {
    "type": "Liquor",
    "name": "Ray s Liquor Store",
    "lat": 33.8977629,
    "long": -84.5225475
  },
  {
    "type": "Liquor",
    "name": "Buckhead s Best Wine Spirits",
    "lat": 33.8480943,
    "long": -84.430207
  },
  {
    "type": "Liquor",
    "name": "Sherlock s Wine Merchant",
    "lat": 33.8472728,
    "long": -84.42798
  },
  {
    "type": "Liquor",
    "name": "First Choice Beer, Wine Spirits",
    "lat": 33.8834584,
    "long": -84.5355704
  },
  {
    "type": "Liquor",
    "name": "G N Package Store",
    "lat": 33.8911767,
    "long": -84.5046869
  },
  {
    "type": "Liquor",
    "name": "The Wine Shop at Ivy Walk",
    "lat": 33.8498172,
    "long": -84.4924679
  },
  {
    "type": "Liquor",
    "name": "Mr Bill s Package Store",
    "lat": 33.8610083,
    "long": -84.5169361
  },
  {
    "type": "Liquor",
    "name": "RaceTrac",
    "lat": 33.7817131,
    "long": -84.5361017
  },
  {
    "type": "Liquor",
    "name": "RaceTrac",
    "lat": 33.841607,
    "long": -84.5029198
  },
  {
    "type": "Liquor",
    "name": "The Vineyard Wine Market",
    "lat": 33.8842203,
    "long": -84.5162078
  },
  {
    "type": "Liquor",
    "name": "The Stout Brothers Smyrna",
    "lat": 33.8838433,
    "long": -84.5153291
  },
  {
    "type": "Liquor",
    "name": "Fine Wine Connection",
    "lat": 33.8872172,
    "long": -84.4744011
  },
  {
    "type": "Liquor",
    "name": "Discount smoke and food mart",
    "lat": 33.8949878,
    "long": -84.538189
  },
  {
    "type": "Liquor",
    "name": "Citi Wine Spirits",
    "lat": 33.9152014,
    "long": -84.3788821
  },
  {
    "type": "Liquor",
    "name": "Taste Bottle Shop",
    "lat": 33.9333159,
    "long": -84.3492287
  },
  {
    "type": "Liquor",
    "name": "Chamblee Liquor",
    "lat": 33.8869499,
    "long": -84.2551008
  },
  {
    "type": "Liquor",
    "name": "Dunwoody Beverage",
    "lat": 33.9504436,
    "long": -84.3330701
  },
  {
    "type": "Liquor",
    "name": "The Liquor Cabinet",
    "lat": 33.9687822,
    "long": -84.2600583
  },
  {
    "type": "Liquor",
    "name": "Tower Beer, Wine Spirits",
    "lat": 33.910432,
    "long": -84.264955
  },
  {
    "type": "Liquor",
    "name": "Corks Caps",
    "lat": 33.8810072,
    "long": -84.3808419
  },
  {
    "type": "Liquor",
    "name": "Perimeter Bottle Shop",
    "lat": 33.9319998,
    "long": -84.3323096
  },
  {
    "type": "Liquor",
    "name": "Winters Fine Wine Spirits",
    "lat": 33.931381,
    "long": -84.265863
  },
  {
    "type": "Liquor",
    "name": "Royal Package Liquor Store",
    "lat": 33.90023,
    "long": -84.379786
  },
  {
    "type": "Liquor",
    "name": "Beverage World Package Store",
    "lat": 33.9282647,
    "long": -84.2694274
  },
  {
    "type": "Liquor",
    "name": "Parmans Fine Wines Spirits",
    "lat": 33.935277,
    "long": -84.377285
  },
  {
    "type": "Liquor",
    "name": "Dan s Package Store",
    "lat": 33.987337,
    "long": -84.35058
  },
  {
    "type": "Liquor",
    "name": "Holiday Wine Spirits sign says chamblee dunwoody package store",
    "lat": 33.8893582,
    "long": -84.285852
  },
  {
    "type": "Liquor",
    "name": "Roswell Package Store",
    "lat": 33.9301256,
    "long": -84.3789995
  },
  {
    "type": "Liquor",
    "name": "Total Wine More",
    "lat": 33.9269401,
    "long": -84.3447905
  },
  {
    "type": "Liquor",
    "name": "Atlanta Liquor",
    "lat": 33.9105442,
    "long": -84.3798312
  },
  {
    "type": "Liquor",
    "name": "All American Package Store",
    "lat": 33.8769281,
    "long": -84.3795565
  },
  {
    "type": "Liquor",
    "name": "Hill Liquors Liquor Store in Sandy Springs",
    "lat": 33.905345,
    "long": -84.3491341
  },
  {
    "type": "Liquor",
    "name": "Sams Elite Liquors",
    "lat": 33.9809126,
    "long": -84.3508981
  },
  {
    "type": "Liquor",
    "name": "Hilltop Bottle Shop",
    "lat": 33.9535825,
    "long": -84.3655208
  },
  {
    "type": "Liquor",
    "name": "International Beverage",
    "lat": 33.9086639,
    "long": -84.2884213
  },
  {
    "type": "Liquor",
    "name": "The Reserve List",
    "lat": 33.9380267,
    "long": -84.3804724
  },
  {
    "type": "Liquor",
    "name": "winestore Dunwoody",
    "lat": 33.9474417,
    "long": -84.3371552
  },
  {
    "type": "Liquor",
    "name": "Dunwoody Liquor Store",
    "lat": 33.9598717,
    "long": -84.3001962
  },
  {
    "type": "Liquor",
    "name": "Robico Elite Package Store",
    "lat": 33.9814571,
    "long": -84.3507718
  },
  {
    "type": "Liquor",
    "name": "Grapes Grains Wine Spirits",
    "lat": 33.8804143,
    "long": -84.3205634
  },
  {
    "type": "Liquor",
    "name": "Beer Wine Craft and Sandy Springs Boutique Winery",
    "lat": 33.9226239,
    "long": -84.3805687
  },
  {
    "type": "Liquor",
    "name": "Cambridge Bottle Shop",
    "lat": 33.8943797,
    "long": -84.331037
  },
  {
    "type": "Liquor",
    "name": "Costco Liquor",
    "lat": 33.9286038,
    "long": -84.3542488
  },
  {
    "type": "Liquor",
    "name": "The Winery II",
    "lat": 33.9195249,
    "long": -84.3029945
  },
  {
    "type": "Liquor",
    "name": "Chamblee Package Store",
    "lat": 33.885295,
    "long": -84.285369
  },
  {
    "type": "Liquor",
    "name": "Empire Package",
    "lat": 33.8969869,
    "long": -84.3039733
  },
  {
    "type": "Liquor",
    "name": "Soiree North Park Llc",
    "lat": 33.9341409,
    "long": -84.3523163
  },
  {
    "type": "Liquor",
    "name": "The Wine Store",
    "lat": 33.9860037,
    "long": -84.269447
  },
  {
    "type": "Liquor",
    "name": "PERRINE s WINE Sandy Springs",
    "lat": 33.916345,
    "long": -84.3800915
  },
  {
    "type": "Liquor",
    "name": "The Cellar Fine Wines",
    "lat": 33.8803447,
    "long": -84.3207001
  },
  {
    "type": "Liquor",
    "name": "Sidetracked Wine Co ",
    "lat": 33.8910441,
    "long": -84.3027681
  },
  {
    "type": "Liquor",
    "name": "DoMA Bottle Shop",
    "lat": 33.8971363,
    "long": -84.2960901
  },
  {
    "type": "Liquor",
    "name": "QuikTrip",
    "lat": 33.9331967,
    "long": -84.3383858
  },
  {
    "type": "Liquor",
    "name": "Savi Provisions At Hill Sandy Springs ",
    "lat": 33.9053059,
    "long": -84.3493906
  },
  {
    "type": "Liquor",
    "name": "QuikTrip",
    "lat": 33.9732059,
    "long": -84.3584272
  },
  {
    "type": "Liquor",
    "name": "E th Street Market",
    "lat": 33.9582912,
    "long": -84.3040525
  },
  {
    "type": "Liquor",
    "name": "Costco Wholesale",
    "lat": 33.9286594,
    "long": -84.3543309
  },
  {
    "type": "Liquor",
    "name": "CellarFiller",
    "lat": 33.9145495,
    "long": -84.3753373
  },
  {
    "type": "Liquor",
    "name": "Lemae Group Wines",
    "lat": 33.9267973,
    "long": -84.3594038
  },
  {
    "type": "Liquor",
    "name": "Wines To Treasure",
    "lat": 33.92324,
    "long": -84.278856
  },
  {
    "type": "Liquor",
    "name": "Doraville Package Store",
    "lat": 33.9241186,
    "long": -84.2813403
  },
  {
    "type": "Liquor",
    "name": "Smoke Rise Bottle Shoppe",
    "lat": 33.8278926,
    "long": -84.1536339
  },
  {
    "type": "Liquor",
    "name": "Strong Water Liquor Warehouse",
    "lat": 33.8784737,
    "long": -84.1673605
  },
  {
    "type": "Liquor",
    "name": " Packagestore liquor, Wine Beer",
    "lat": 33.8360593,
    "long": -84.1993661
  },
  {
    "type": "Liquor",
    "name": "Avondale Package Store",
    "lat": 33.7783409,
    "long": -84.243602
  },
  {
    "type": "Liquor",
    "name": "Tucker Beer, Wine Spirits",
    "lat": 33.8485578,
    "long": -84.2243857
  },
  {
    "type": "Liquor",
    "name": "Royal Package",
    "lat": 33.8831943,
    "long": -84.1607882
  },
  {
    "type": "Liquor",
    "name": "Beverage Club",
    "lat": 33.8051891,
    "long": -84.1875652
  },
  {
    "type": "Liquor",
    "name": "Dekalb Package",
    "lat": 33.7854681,
    "long": -84.2437267
  },
  {
    "type": "Liquor",
    "name": "Happy Hour Wine Spirits",
    "lat": 33.8506497,
    "long": -84.2058324
  },
  {
    "type": "Liquor",
    "name": "Happy Liquor Store",
    "lat": 33.883389,
    "long": -84.2183409
  },
  {
    "type": "Liquor",
    "name": "Spritzer s Package Store",
    "lat": 33.8656039,
    "long": -84.188446
  },
  {
    "type": "Liquor",
    "name": "J B Liquor Store",
    "lat": 33.8112419,
    "long": -84.2392381
  },
  {
    "type": "Liquor",
    "name": "Mountain Package Store",
    "lat": 33.7856058,
    "long": -84.1591856
  },
  {
    "type": "Liquor",
    "name": "Big John s Package Store",
    "lat": 33.7987789,
    "long": -84.2193259
  },
  {
    "type": "Liquor",
    "name": "Brockett Triangle Package",
    "lat": 33.819175,
    "long": -84.2316336
  },
  {
    "type": "Liquor",
    "name": "Nick s Package Store",
    "lat": 33.8834297,
    "long": -84.2205145
  },
  {
    "type": "Liquor",
    "name": "M M Package Store",
    "lat": 33.8176045,
    "long": -84.180253
  },
  {
    "type": "Liquor",
    "name": "Happy s Package Store",
    "lat": 33.7866996,
    "long": -84.2110722
  },
  {
    "type": "Liquor",
    "name": "Big Brockett Package Store",
    "lat": 33.8233033,
    "long": -84.2315182
  },
  {
    "type": "Liquor",
    "name": "City Life Liquors",
    "lat": 33.7824371,
    "long": -84.2364632
  },
  {
    "type": "Liquor",
    "name": "Village bottle shop",
    "lat": 33.8037675,
    "long": -84.1697568
  },
  {
    "type": "Liquor",
    "name": "Lulu E s Package Store",
    "lat": 33.8040111,
    "long": -84.2481065
  },
  {
    "type": "Liquor",
    "name": "L C Beverage Center",
    "lat": 33.8111754,
    "long": -84.2392058
  },
  {
    "type": "Liquor",
    "name": "Wine Whimseys",
    "lat": 33.8534432,
    "long": -84.2147738
  },
  {
    "type": "Liquor",
    "name": "American Package Store",
    "lat": 33.7858124,
    "long": -84.2064286
  },
  {
    "type": "Liquor",
    "name": "CD package store",
    "lat": 33.8045647,
    "long": -84.1907402
  },
  {
    "type": "Liquor",
    "name": "Georgia Beverage Co Inc",
    "lat": 33.858648,
    "long": -84.1802286
  },
  {
    "type": "Liquor",
    "name": "Fifi package store",
    "lat": 33.787677,
    "long": -84.2334624
  },
  {
    "type": "Liquor",
    "name": "Happy Shop",
    "lat": 33.890849,
    "long": -84.212625
  },
  {
    "type": "Liquor",
    "name": "Memorial Package",
    "lat": 33.7902118,
    "long": -84.2298147
  },
  {
    "type": "Liquor",
    "name": "Brookhaven Bottle Shop",
    "lat": 33.8656672,
    "long": -84.3371963
  },
  {
    "type": "Liquor",
    "name": "bevshop",
    "lat": 33.8645667,
    "long": -84.287477
  },
  {
    "type": "Liquor",
    "name": "Tuxedo Wine Spirits",
    "lat": 33.8596577,
    "long": -84.3798299
  },
  {
    "type": "Liquor",
    "name": "Mz package store",
    "lat": 33.8645666,
    "long": -84.2874769
  },
  {
    "type": "Liquor",
    "name": "Jumbo Package Store Best Liquor Store",
    "lat": 33.763007,
    "long": -84.224973
  },
  {
    "type": "Liquor",
    "name": "Redan Package Store",
    "lat": 33.7612388,
    "long": -84.1962254
  },
  {
    "type": "Liquor",
    "name": "C T Package Store",
    "lat": 33.8467476,
    "long": -84.2507844
  },
  {
    "type": "Liquor",
    "name": "Midway Package store",
    "lat": 33.7609279,
    "long": -84.2465106
  },
  {
    "type": "Liquor",
    "name": "PJ s Package Store",
    "lat": 33.7571423,
    "long": -84.1658771
  },
  {
    "type": "Liquor",
    "name": "Branded Barrel",
    "lat": 33.9185918,
    "long": -84.1143528
  },
  {
    "type": "Liquor",
    "name": "Market at The Grove",
    "lat": 33.8593044,
    "long": -84.0176129
  },
  {
    "type": "Liquor",
    "name": "Twenty Nine Package",
    "lat": 33.9031733,
    "long": -84.1186854
  },
  {
    "type": "Liquor",
    "name": "Niko s Wine Cellar",
    "lat": 33.8648097,
    "long": -84.0164532
  },
  {
    "type": "Liquor",
    "name": "Majik Market USA Convenience Store",
    "lat": 33.9502667,
    "long": -84.0917475
  },
  {
    "type": "Liquor",
    "name": "Loter C ADa mart",
    "lat": 33.949319,
    "long": -83.985504
  },
  {
    "type": "Liquor",
    "name": "Smoke Shop at Five Forks",
    "lat": 33.8876615,
    "long": -84.0583998
  },
  {
    "type": "Liquor",
    "name": "Lincoln Fill Station",
    "lat": 33.855077,
    "long": -84.0242009
  },
  {
    "type": "Liquor",
    "name": "QuikTrip",
    "lat": 33.8554038,
    "long": -83.9930472
  },
  {
    "type": "Liquor",
    "name": "Webb Gin",
    "lat": 33.8987883,
    "long": -84.0022734
  },
  {
    "type": "Liquor",
    "name": "RaceTrac",
    "lat": 33.9254094,
    "long": -84.1134279
  },
  {
    "type": "Liquor",
    "name": "Speede Stop",
    "lat": 33.9435465,
    "long": -83.9931411
  },
  {
    "type": "Liquor",
    "name": "RaceTrac",
    "lat": 33.9244707,
    "long": -84.0173337
  },
  {
    "type": "Liquor",
    "name": "QuikTrip",
    "lat": 33.8882697,
    "long": -84.0594703
  },
  {
    "type": "Liquor",
    "name": "QuikTrip",
    "lat": 33.8696786,
    "long": -84.014504
  },
  {
    "type": "Liquor",
    "name": "Pineapple Xpress Smoke Shop",
    "lat": 33.9247056,
    "long": -84.113363
  },
  {
    "type": "Liquor",
    "name": "QuikTrip",
    "lat": 33.9482441,
    "long": -83.9860422
  },
  {
    "type": "Liquor",
    "name": "RaceTrac",
    "lat": 33.860151,
    "long": -84.0198641
  },
  {
    "type": "Liquor",
    "name": "Chevron",
    "lat": 33.8400912,
    "long": -84.0698295
  },
  {
    "type": "Liquor",
    "name": "Nam Dae Mun Farmers Market",
    "lat": 33.8906564,
    "long": -84.0606682
  },
  {
    "type": "Liquor",
    "name": "Lilburn Package",
    "lat": 33.8969931,
    "long": -84.1411623
  },
  {
    "type": "Liquor",
    "name": "Depot Package Lilburn, GA",
    "lat": 33.9015061,
    "long": -84.1238469
  },
  {
    "type": "Liquor",
    "name": "Publix Super Market at Sugarloaf Crossing",
    "lat": 33.9541203,
    "long": -84.0555096
  },
  {
    "type": "Liquor",
    "name": "QuikTrip",
    "lat": 33.9430189,
    "long": -84.1246319
  },
  {
    "type": "Liquor",
    "name": "KING MART Drive thru",
    "lat": 33.9414731,
    "long": -84.1643783
  },
  {
    "type": "Liquor",
    "name": "RaceTrac",
    "lat": 33.9350209,
    "long": -84.156827
  },
  {
    "type": "Liquor",
    "name": "Publix Super Market at Promenade at Pleasant Hill",
    "lat": 33.9438321,
    "long": -84.1281714
  },
  {
    "type": "Liquor",
    "name": "QuikTrip",
    "lat": 33.9538314,
    "long": -84.141592
  },
  {
    "type": "Liquor",
    "name": "Exxon",
    "lat": 33.9066277,
    "long": -84.1559047
  },
  {
    "type": "Liquor",
    "name": "Corners Fine Wine Spirits",
    "lat": 33.9619016,
    "long": -84.2256316
  },
  {
    "type": "Liquor",
    "name": "Total Wine More",
    "lat": 34.0450246,
    "long": -84.2892796
  },
  {
    "type": "Liquor",
    "name": "Kassa s Beer Wine And SPIRITS",
    "lat": 34.0319757,
    "long": -84.340609
  },
  {
    "type": "Liquor",
    "name": "Martin s Wine spirits",
    "lat": 34.0156932,
    "long": -84.3089065
  },
  {
    "type": "Liquor",
    "name": "Grapes Grains Wine Spirits",
    "lat": 34.0235996,
    "long": -84.2523003
  },
  {
    "type": "Liquor",
    "name": "Roswell Liquor Store",
    "lat": 34.0040548,
    "long": -84.2939086
  },
  {
    "type": "Liquor",
    "name": "Alpha Dog Beer Wine Spirits",
    "lat": 34.0439117,
    "long": -84.3381414
  },
  {
    "type": "Liquor",
    "name": "Platinum Bottle Shoppe",
    "lat": 33.9998377,
    "long": -84.2837147
  },
  {
    "type": "Liquor",
    "name": "Mega Package Store",
    "lat": 34.0243882,
    "long": -84.0447955
  },
  {
    "type": "Liquor",
    "name": "Pop s Wine Spirits",
    "lat": 34.0870914,
    "long": -84.1639208
  },
  {
    "type": "Liquor",
    "name": "Suwanee TopShelf Beverage",
    "lat": 34.0652075,
    "long": -84.0711691
  },
  {
    "type": "Liquor",
    "name": "Suwanee Package Store",
    "lat": 34.0321446,
    "long": -84.0496016
  },
  {
    "type": "Liquor",
    "name": "Hooch Beverage",
    "lat": 34.0223151,
    "long": -84.1493403
  },
  {
    "type": "Liquor",
    "name": "Johns Creek Beverage UNDER NEW MANAGEMENT",
    "lat": 34.0575144,
    "long": -84.129873
  },
  {
    "type": "Liquor",
    "name": "Sharon Xing Beverage",
    "lat": 34.125195,
    "long": -84.1699284
  },
  {
    "type": "Liquor",
    "name": "Sip Wine Spirits",
    "lat": 34.1322008,
    "long": -84.1276078
  },
  {
    "type": "Liquor",
    "name": "Gary E s Wine More",
    "lat": 34.1370082,
    "long": -84.0999405
  },
  {
    "type": "Liquor",
    "name": "Forsyth World of Beverage",
    "lat": 34.075699,
    "long": -84.16312
  },
  {
    "type": "Liquor",
    "name": "Sip Happens",
    "lat": 34.0557469,
    "long": -84.0618782
  },
  {
    "type": "Liquor",
    "name": "Pit Stop",
    "lat": 34.1106559,
    "long": -84.0394932
  },
  {
    "type": "Liquor",
    "name": "RaceTrac",
    "lat": 34.105573,
    "long": -84.0313882
  },
  {
    "type": "Liquor",
    "name": "Smoke And Toke Duluth",
    "lat": 34.0235514,
    "long": -84.1498707
  },
  {
    "type": "Liquor",
    "name": "McFarland Wine, Spirits and Cigars",
    "lat": 34.1245643,
    "long": -84.2234267
  },
  {
    "type": "Liquor",
    "name": "Westside Beverage",
    "lat": 34.2092096,
    "long": -84.2218002
  },
  {
    "type": "Liquor",
    "name": "PJ s Liquors",
    "lat": 34.1747417,
    "long": -84.1865333
  },
  {
    "type": "Liquor",
    "name": "Rox Fine Wine and Spirits",
    "lat": 34.1406397,
    "long": -84.1735461
  },
  {
    "type": "Liquor",
    "name": "McFarland Wine Spirits",
    "lat": 34.1301362,
    "long": -84.2281467
  },
  {
    "type": "Liquor",
    "name": "Liquor Locker",
    "lat": 34.160129,
    "long": -84.1745906
  },
  {
    "type": "Liquor",
    "name": "MK Liquor",
    "lat": 34.1591698,
    "long": -84.240112
  },
  {
    "type": "Liquor",
    "name": "Beverage Shop Publix Bethany Village Plaza ",
    "lat": 34.1179252,
    "long": -84.2718849
  },
  {
    "type": "Liquor",
    "name": "World Beverage Alpharetta",
    "lat": 34.1418795,
    "long": -84.249577
  },
  {
    "type": "Liquor",
    "name": "Kroger Liquor Store",
    "lat": 34.1695856,
    "long": -84.1853899
  },
  {
    "type": "Liquor",
    "name": "Beverage Depot",
    "lat": 34.126619,
    "long": -84.2594823
  },
  {
    "type": "Liquor",
    "name": "Blue Glass Liquor and Wine",
    "lat": 34.1808229,
    "long": -84.218434
  },
  {
    "type": "Liquor",
    "name": "Cork and Glass",
    "lat": 34.1447573,
    "long": -84.2526148
  },
  {
    "type": "Liquor",
    "name": "RaceTrac",
    "lat": 34.1172928,
    "long": -84.222109
  },
  {
    "type": "Liquor",
    "name": "RaceTrac",
    "lat": 34.1578987,
    "long": -84.2366338
  },
  {
    "type": "Liquor",
    "name": "Midway Shopping Center",
    "lat": 34.1588462,
    "long": -84.2398513
  },
  {
    "type": "Liquor",
    "name": "The liquor shop",
    "lat": 34.2149281,
    "long": -84.1461712
  },
  {
    "type": "Liquor",
    "name": "Package Place",
    "lat": 34.2544558,
    "long": -84.0806773
  },
  {
    "type": "Liquor",
    "name": "Coal Mountain Package Store",
    "lat": 34.2675363,
    "long": -84.090475
  },
  {
    "type": "Liquor",
    "name": "Lake Pointe Package Inc",
    "lat": 34.2490723,
    "long": -84.0572758
  },
  {
    "type": "Liquor",
    "name": "Beverage World of Cumming",
    "lat": 34.2091447,
    "long": -84.1276191
  },
  {
    "type": "Liquor",
    "name": "Old town liquor store",
    "lat": 34.204718,
    "long": -84.136763
  },
  {
    "type": "Liquor",
    "name": "World Beverage",
    "lat": 34.3176168,
    "long": -84.0614829
  },
  {
    "type": "Liquor",
    "name": "Downtown Package Store",
    "lat": 34.2999024,
    "long": -83.8233242
  },
  {
    "type": "Liquor",
    "name": "Hillside Beverage Superstore",
    "lat": 34.2915108,
    "long": -83.8448574
  },
  {
    "type": "Liquor",
    "name": "Queen City Package Store",
    "lat": 34.2851218,
    "long": -83.8252596
  },
  {
    "type": "Liquor",
    "name": "Athens Hwy Package Store",
    "lat": 34.2883477,
    "long": -83.8112151
  },
  {
    "type": "Liquor",
    "name": "Discount Liquor",
    "lat": 34.2859409,
    "long": -83.8433506
  },
  {
    "type": "Liquor",
    "name": "Blue Ridge Bottle Shop",
    "lat": 34.285984,
    "long": -83.843359
  },
  {
    "type": "Liquor",
    "name": "Atlanta Hwy Package Store",
    "lat": 34.267224,
    "long": -83.841626
  },
  {
    "type": "Liquor",
    "name": " Package Store, Smoke Vape Shop",
    "lat": 34.280429,
    "long": -83.785596
  }
]