[
  {
    "type": "Liquor",
    "name": "Bethany Discount Liquor",
    "lat": 33.085037,
    "long": -96.646694,
    "gmapsCategory": "Liquor store"
  },
  {
    "type": "Liquor",
    "name": "The Liquor Outpost",
    "lat": 33.0052741,
    "long": -97.0084842,
    "gmapsCategory": "Liquor store"
  },
  {
    "type": "Liquor",
    "name": "Bonnie Liquor",
    "lat": 33.0062898,
    "long": -97.0166644,
    "gmapsCategory": "Liquor store"
  },
  {
    "type": "Liquor",
    "name": "Lewisville Liquor",
    "lat": 33.0136344,
    "long": -96.9924748,
    "gmapsCategory": "Liquor store"
  },
  {
    "type": "Liquor",
    "name": "Liquor King",
    "lat": 32.993802,
    "long": -96.9743209,
    "gmapsCategory": "Liquor store"
  },
  {
    "type": "Liquor",
    "name": "Cheers Liquor Beer Wine",
    "lat": 33.005134,
    "long": -97.012886,
    "gmapsCategory": "Liquor store"
  },
  {
    "type": "Liquor",
    "name": "Hilltop Liquor",
    "lat": 33.0260284,
    "long": -96.9903,
    "gmapsCategory": "Liquor store"
  },
  {
    "type": "Liquor",
    "name": "Applejacks Liquor",
    "lat": 32.9927768,
    "long": -96.9771537,
    "gmapsCategory": "Liquor store"
  },
  {
    "type": "Liquor",
    "name": "Total Wine More",
    "lat": 33.008832,
    "long": -96.978902,
    "gmapsCategory": "Liquor store"
  },
  {
    "type": "Liquor",
    "name": "Shotz Liquor Lewisville",
    "lat": 33.041457,
    "long": -97.02824,
    "gmapsCategory": "Liquor store"
  },
  {
    "type": "Liquor",
    "name": "Spec s Wines, Spirits Finer Foods",
    "lat": 33.0068472,
    "long": -96.9681563,
    "gmapsCategory": "Liquor store"
  },
  {
    "type": "Liquor",
    "name": "Barrel Craft",
    "lat": 33.02125,
    "long": -97.028638,
    "gmapsCategory": "Liquor store"
  },
  {
    "type": "Liquor",
    "name": "Liquor Stop",
    "lat": 33.0039253,
    "long": -96.9979404,
    "gmapsCategory": "Liquor store"
  },
  {
    "type": "Liquor",
    "name": "Valley Ridge Liquor",
    "lat": 33.0573894,
    "long": -97.0228896,
    "gmapsCategory": "Liquor store"
  },
  {
    "type": "Liquor",
    "name": "HEBRON LIQUOR",
    "lat": 33.0125744,
    "long": -96.9627017,
    "gmapsCategory": "Liquor store"
  },
  {
    "type": "Liquor",
    "name": "WB Liquors Wine",
    "lat": 32.9980025,
    "long": -96.9637793,
    "gmapsCategory": "Liquor store"
  },
  {
    "type": "Liquor",
    "name": "LiquorLand",
    "lat": 33.0414289,
    "long": -97.0243449,
    "gmapsCategory": "Liquor store"
  },
  {
    "type": "Liquor",
    "name": "LiquorLand",
    "lat": 33.046802,
    "long": -96.9135764,
    "gmapsCategory": "Liquor store"
  },
  {
    "type": "Liquor",
    "name": "Goody Goody Liquor",
    "lat": 33.0723056,
    "long": -97.047937,
    "gmapsCategory": "Liquor store"
  },
  {
    "type": "Liquor",
    "name": "Spec s Wines, Spirits Finer Foods",
    "lat": 33.0717529,
    "long": -97.0223818,
    "gmapsCategory": "Liquor store"
  },
  {
    "type": "Liquor",
    "name": "Buy Low Liquor Beer Wine",
    "lat": 33.0341632,
    "long": -96.9958446,
    "gmapsCategory": "Liquor store"
  },
  {
    "type": "Liquor",
    "name": "Liquid Courage Spirits and More",
    "lat": 33.019472,
    "long": -96.701777,
    "gmapsCategory": "Liquor store"
  },
  {
    "type": "Liquor",
    "name": "Freddy s Liqour",
    "lat": 33.085027,
    "long": -96.792483,
    "gmapsCategory": "Liquor store"
  },
  {
    "type": "Liquor",
    "name": "Durbar Liquor",
    "lat": 32.997868,
    "long": -96.9938442,
    "gmapsCategory": "Liquor store"
  },
  {
    "type": "Liquor",
    "name": "L S Liquor Lewisville",
    "lat": 33.0159883,
    "long": -96.9855362,
    "gmapsCategory": "Liquor store"
  },
  {
    "type": "Liquor",
    "name": "LiquorLand",
    "lat": 33.0742962,
    "long": -97.0707542,
    "gmapsCategory": "Liquor store"
  },
  {
    "type": "Liquor",
    "name": "HIGHLAND LIQUOR",
    "lat": 33.0716937,
    "long": -97.0300078,
    "gmapsCategory": "Liquor store"
  },
  {
    "type": "Liquor",
    "name": "American Liquor",
    "lat": 33.0721805,
    "long": -97.0161086,
    "gmapsCategory": "Liquor store"
  },
  {
    "type": "Liquor",
    "name": "FM BEVERAGE",
    "lat": 33.0418937,
    "long": -97.0364904,
    "gmapsCategory": "Liquor store"
  },
  {
    "type": "Liquor",
    "name": "NEIGHBORHOOD LIQUOR SMOKE",
    "lat": 33.0718165,
    "long": -97.0370587,
    "gmapsCategory": "Liquor store"
  },
  {
    "type": "Liquor",
    "name": "Liquor Den Lewisville",
    "lat": 33.0479079,
    "long": -96.9362192,
    "gmapsCategory": "Liquor store"
  },
  {
    "type": "Liquor",
    "name": "Liquid Courage Spirits and More",
    "lat": 33.045636,
    "long": -96.994651,
    "gmapsCategory": "Liquor store"
  },
  {
    "type": "Liquor",
    "name": "Tap s Liquor",
    "lat": 32.9981776,
    "long": -96.9936451,
    "gmapsCategory": "Liquor store"
  },
  {
    "type": "Liquor",
    "name": "Liquor King",
    "lat": 33.0723212,
    "long": -97.0593524,
    "gmapsCategory": "Liquor store"
  },
  {
    "type": "Liquor",
    "name": "Whip In",
    "lat": 33.0158593,
    "long": -97.0462352,
    "gmapsCategory": "Beer store"
  },
  {
    "type": "Liquor",
    "name": "Beer Wine",
    "lat": 33.0280173,
    "long": -97.0195255,
    "gmapsCategory": "Liquor store"
  },
  {
    "type": "Liquor",
    "name": "BENDT Distilling Co ",
    "lat": 33.0447239,
    "long": -96.9972219,
    "gmapsCategory": ""
  },
  {
    "type": "Liquor",
    "name": "WHIP IN Beer Wine and Truck Stop",
    "lat": 33.0480508,
    "long": -96.9360632,
    "gmapsCategory": "Liquor store"
  },
  {
    "type": "Liquor",
    "name": "Rubia Y Morena Beer Wine",
    "lat": 33.0376947,
    "long": -97.0040281,
    "gmapsCategory": "Beer store"
  },
  {
    "type": "Liquor",
    "name": "Shop N Go",
    "lat": 33.0340825,
    "long": -96.991118,
    "gmapsCategory": "Convenience store"
  },
  {
    "type": "Liquor",
    "name": "Mi Tiendita Beer And Wine",
    "lat": 33.0356644,
    "long": -97.0109246,
    "gmapsCategory": "Beer store"
  },
  {
    "type": "Liquor",
    "name": "Worth The Pour",
    "lat": 33.0581283,
    "long": -96.9011764,
    "gmapsCategory": "Liquor store"
  },
  {
    "type": "Liquor",
    "name": "Billards Bites Booze",
    "lat": 33.0133533,
    "long": -96.9925749,
    "gmapsCategory": "Liquor store"
  },
  {
    "type": "Liquor",
    "name": "Cold s Beverage",
    "lat": 33.071869,
    "long": -97.0167799,
    "gmapsCategory": "Convenience store"
  },
  {
    "type": "Liquor",
    "name": "Castle Spirits",
    "lat": 33.0350817,
    "long": -96.8977769,
    "gmapsCategory": "Liquor store"
  },
  {
    "type": "Liquor",
    "name": "FM BEER AND WINE",
    "lat": 33.0313911,
    "long": -97.0713992,
    "gmapsCategory": "FM BEER AND WINE"
  },
  {
    "type": "Liquor",
    "name": "QuikTrip",
    "lat": 33.0720866,
    "long": -97.0242504,
    "gmapsCategory": ""
  },
  {
    "type": "Liquor",
    "name": "RaceTrac",
    "lat": 33.0490423,
    "long": -96.92796,
    "gmapsCategory": ""
  },
  {
    "type": "Liquor",
    "name": " Eleven",
    "lat": 33.0362966,
    "long": -97.0691709,
    "gmapsCategory": "Convenience store"
  },
  {
    "type": "Liquor",
    "name": " Eleven",
    "lat": 33.0213946,
    "long": -96.9336476,
    "gmapsCategory": "Convenience store"
  },
  {
    "type": "Liquor",
    "name": "Oasis Liquors",
    "lat": 33.1001814,
    "long": -96.8920956,
    "gmapsCategory": "Liquor store"
  },
  {
    "type": "Liquor",
    "name": "RaceTrac",
    "lat": 33.0055925,
    "long": -96.9821315,
    "gmapsCategory": ""
  },
  {
    "type": "Liquor",
    "name": "RaceTrac",
    "lat": 33.0041151,
    "long": -97.0056119,
    "gmapsCategory": ""
  },
  {
    "type": "Liquor",
    "name": " Eleven",
    "lat": 33.0272189,
    "long": -96.9933273,
    "gmapsCategory": "Convenience store"
  },
  {
    "type": "Liquor",
    "name": " Eleven",
    "lat": 32.993339,
    "long": -96.9761022,
    "gmapsCategory": "Convenience store"
  },
  {
    "type": "Liquor",
    "name": "RaceTrac",
    "lat": 32.9948688,
    "long": -96.9382215,
    "gmapsCategory": ""
  },
  {
    "type": "Liquor",
    "name": " Eleven",
    "lat": 33.0121371,
    "long": -96.9108995,
    "gmapsCategory": "Convenience store"
  },
  {
    "type": "Liquor",
    "name": " Eleven",
    "lat": 33.0337211,
    "long": -96.9924196,
    "gmapsCategory": "Convenience store"
  },
  {
    "type": "Liquor",
    "name": "QuikTrip",
    "lat": 33.0586272,
    "long": -97.0762456,
    "gmapsCategory": ""
  },
  {
    "type": "Liquor",
    "name": " Eleven",
    "lat": 33.0468327,
    "long": -96.9177585,
    "gmapsCategory": "Convenience store"
  },
  {
    "type": "Liquor",
    "name": "QuikTrip",
    "lat": 33.0187444,
    "long": -96.9938374,
    "gmapsCategory": ""
  },
  {
    "type": "Liquor",
    "name": "Spec s Wines, Spirits Finer Foods",
    "lat": 33.0692065,
    "long": -96.8839454,
    "gmapsCategory": "Liquor store"
  },
  {
    "type": "Liquor",
    "name": " Eleven",
    "lat": 33.0041297,
    "long": -96.9787796,
    "gmapsCategory": "Convenience store"
  },
  {
    "type": "Liquor",
    "name": "RaceTrac",
    "lat": 33.0708031,
    "long": -97.0557423,
    "gmapsCategory": ""
  },
  {
    "type": "Liquor",
    "name": "Liquor Depot Hebron",
    "lat": 33.0452664,
    "long": -96.8823231,
    "gmapsCategory": "Liquor store"
  },
  {
    "type": "Liquor",
    "name": " Eleven",
    "lat": 32.9934291,
    "long": -97.0627212,
    "gmapsCategory": "Convenience store"
  },
  {
    "type": "Liquor",
    "name": " Eleven",
    "lat": 33.012415,
    "long": -96.9938039,
    "gmapsCategory": "Convenience store"
  },
  {
    "type": "Liquor",
    "name": "QuikTrip",
    "lat": 33.021757,
    "long": -96.9316833,
    "gmapsCategory": ""
  },
  {
    "type": "Liquor",
    "name": " Eleven",
    "lat": 33.0098781,
    "long": -96.9678229,
    "gmapsCategory": "Convenience store"
  },
  {
    "type": "Liquor",
    "name": "VARIETY LIQUORS",
    "lat": 33.0982396,
    "long": -96.8929808,
    "gmapsCategory": "Liquor store"
  },
  {
    "type": "Liquor",
    "name": " Eleven",
    "lat": 33.0142413,
    "long": -97.0717144,
    "gmapsCategory": "Convenience store"
  },
  {
    "type": "Liquor",
    "name": "Clink Wine Bar B Bites",
    "lat": 32.9928584,
    "long": -97.0671581,
    "gmapsCategory": "Wine bar"
  },
  {
    "type": "Liquor",
    "name": " Eleven",
    "lat": 33.0417916,
    "long": -97.0278647,
    "gmapsCategory": "Convenience store"
  },
  {
    "type": "Liquor",
    "name": " Eleven",
    "lat": 33.0353432,
    "long": -97.0108501,
    "gmapsCategory": "Convenience store"
  },
  {
    "type": "Liquor",
    "name": "QuikTrip",
    "lat": 33.0439795,
    "long": -96.9806867,
    "gmapsCategory": "\"Clean restrooms clean store friendly staff\""
  },
  {
    "type": "Liquor",
    "name": "QuikTrip",
    "lat": 33.0066151,
    "long": -97.0154634,
    "gmapsCategory": ""
  },
  {
    "type": "Liquor",
    "name": " Eleven",
    "lat": 33.0417447,
    "long": -97.0442361,
    "gmapsCategory": "Convenience store"
  },
  {
    "type": "Liquor",
    "name": "Lone Star Beverages",
    "lat": 32.9994112,
    "long": -96.8875788,
    "gmapsCategory": "Beer store"
  },
  {
    "type": "Liquor",
    "name": " Eleven",
    "lat": 33.0719542,
    "long": -97.0364101,
    "gmapsCategory": "Convenience store"
  },
  {
    "type": "Liquor",
    "name": " Eleven",
    "lat": 33.0161965,
    "long": -96.9849413,
    "gmapsCategory": "Convenience store"
  },
  {
    "type": "Liquor",
    "name": "PUFF LOVE Smoke Shop",
    "lat": 33.033669,
    "long": -97.064903,
    "gmapsCategory": "Liquor store"
  },
  {
    "type": "Liquor",
    "name": " Eleven",
    "lat": 33.0553762,
    "long": -97.0150669,
    "gmapsCategory": "Convenience store"
  },
  {
    "type": "Liquor",
    "name": "Spec s Wines, Spirits Finer Foods",
    "lat": 33.0450406,
    "long": -96.863126,
    "gmapsCategory": "Liquor store"
  },
  {
    "type": "Liquor",
    "name": "KABAYAN FILIPINO STORE CAFE",
    "lat": 33.0132426,
    "long": -96.9944897,
    "gmapsCategory": "Liquor store"
  },
  {
    "type": "Liquor",
    "name": "Arctic Beer Wine",
    "lat": 33.0663895,
    "long": -96.8901514,
    "gmapsCategory": "Beer store"
  },
  {
    "type": "Liquor",
    "name": "Shax s Liquor At Lake Dallas",
    "lat": 33.1229745,
    "long": -97.0339451,
    "gmapsCategory": "Liquor store"
  },
  {
    "type": "Liquor",
    "name": "Goody Goody Liquor",
    "lat": 33.0715024,
    "long": -96.8790157,
    "gmapsCategory": "Liquor store"
  },
  {
    "type": "Liquor",
    "name": "Sam s Club",
    "lat": 33.0476391,
    "long": -97.0124306,
    "gmapsCategory": "Liquor store"
  },
  {
    "type": "Liquor",
    "name": "Goody Goody Liquor",
    "lat": 33.1233686,
    "long": -97.0339169,
    "gmapsCategory": "Liquor store"
  },
  {
    "type": "Liquor",
    "name": "Jerry s Liquor Fine Wine",
    "lat": 33.0788626,
    "long": -96.8625585,
    "gmapsCategory": "Liquor store"
  },
  {
    "type": "Liquor",
    "name": "Lakeside Liquor",
    "lat": 33.1153414,
    "long": -97.0273469,
    "gmapsCategory": "Liquor store"
  },
  {
    "type": "Liquor",
    "name": "Prime Smoke Shop Vape Shop Flower mound disposablevape kratom cigar Delta vapejuice",
    "lat": 33.034963,
    "long": -97.070128,
    "gmapsCategory": "Liquor store"
  },
  {
    "type": "Liquor",
    "name": "CVS",
    "lat": 33.0223829,
    "long": -96.9328671,
    "gmapsCategory": "Drug store"
  },
  {
    "type": "Liquor",
    "name": "Total Wine More",
    "lat": 33.0297435,
    "long": -96.8371958,
    "gmapsCategory": "Liquor store"
  },
  {
    "type": "Liquor",
    "name": "J E s Liquor Fine Cigars",
    "lat": 33.1303921,
    "long": -97.037862,
    "gmapsCategory": "Liquor store"
  },
  {
    "type": "Liquor",
    "name": "LIQUOR MART",
    "lat": 33.1559059,
    "long": -96.9435585,
    "gmapsCategory": "Liquor store"
  },
  {
    "type": "Liquor",
    "name": "Spec s Wines, Spirits Finer Foods",
    "lat": 33.2269057,
    "long": -96.8001088,
    "gmapsCategory": "Liquor store"
  },
  {
    "type": "Liquor",
    "name": "Top Shelf Liquor and Fine Wine",
    "lat": 33.2195376,
    "long": -96.7873806,
    "gmapsCategory": "Liquor store"
  },
  {
    "type": "Liquor",
    "name": "Lucky E s Liquor",
    "lat": 33.1689584,
    "long": -96.907219,
    "gmapsCategory": "Liquor store"
  },
  {
    "type": "Liquor",
    "name": "Beer Barn",
    "lat": 33.1229111,
    "long": -97.0338077,
    "gmapsCategory": "Beer store"
  },
  {
    "type": "Liquor",
    "name": "Posco",
    "lat": 32.9412039,
    "long": -96.8909228,
    "gmapsCategory": "Beer store"
  },
  {
    "type": "Liquor",
    "name": "Flamingo Beer Craft Beer Wine Fine Cigars",
    "lat": 32.9862609,
    "long": -96.8539408,
    "gmapsCategory": "Beer store"
  },
  {
    "type": "Liquor",
    "name": "Liquor King",
    "lat": 33.1625032,
    "long": -96.8901316,
    "gmapsCategory": "Liquor store"
  },
  {
    "type": "Liquor",
    "name": "The Hy Life Fine Wine Spirits",
    "lat": 33.2170197,
    "long": -96.7208365,
    "gmapsCategory": "Liquor store"
  },
  {
    "type": "Liquor",
    "name": "Empire Liquor McKinney",
    "lat": 33.1696642,
    "long": -96.6720398,
    "gmapsCategory": "Liquor store"
  },
  {
    "type": "Liquor",
    "name": "Holiday Depot Fine Wines Spirits",
    "lat": 33.0764593,
    "long": -97.1283322,
    "gmapsCategory": "Liquor store"
  },
  {
    "type": "Liquor",
    "name": "My Liquor Zones",
    "lat": 33.2139361,
    "long": -96.7347931,
    "gmapsCategory": "Liquor store"
  },
  {
    "type": "Liquor",
    "name": "Spec s Wines, Spirits Finer Foods",
    "lat": 33.0942215,
    "long": -96.809318,
    "gmapsCategory": "Liquor store"
  },
  {
    "type": "Liquor",
    "name": "CVS",
    "lat": 33.0350781,
    "long": -97.0627007,
    "gmapsCategory": "Drug store"
  },
  {
    "type": "Liquor",
    "name": "Goody Goody Liquor",
    "lat": 33.169774,
    "long": -96.8878996,
    "gmapsCategory": "Liquor store"
  },
  {
    "type": "Liquor",
    "name": "CVS",
    "lat": 33.0708746,
    "long": -97.0351145,
    "gmapsCategory": "Drug store"
  },
  {
    "type": "Liquor",
    "name": "Total Wine More",
    "lat": 33.0971367,
    "long": -96.8014446,
    "gmapsCategory": "Liquor store"
  },
  {
    "type": "Liquor",
    "name": "Royal Kings Liquor Spirits, Fine Wine, Beer more",
    "lat": 33.2192878,
    "long": -96.7294008,
    "gmapsCategory": "Liquor store"
  },
  {
    "type": "Liquor",
    "name": "DFW Beer and Wine",
    "lat": 33.144107,
    "long": -97.0548548,
    "gmapsCategory": "Convenience store"
  },
  {
    "type": "Liquor",
    "name": "Cheers Liquor Beer Wine",
    "lat": 33.1605422,
    "long": -97.1082016,
    "gmapsCategory": "Liquor store"
  },
  {
    "type": "Liquor",
    "name": "Tex Mex Liquor Beer Wine",
    "lat": 33.0581743,
    "long": -96.8645437,
    "gmapsCategory": "Liquor store"
  },
  {
    "type": "Liquor",
    "name": "LIQUOR MART",
    "lat": 33.0738311,
    "long": -96.7711512,
    "gmapsCategory": "Liquor store"
  },
  {
    "type": "Liquor",
    "name": "CVS",
    "lat": 33.012057,
    "long": -97.0457273,
    "gmapsCategory": "Drug store"
  },
  {
    "type": "Liquor",
    "name": "Trinity Beer Wine",
    "lat": 32.9864545,
    "long": -96.8573046,
    "gmapsCategory": "Convenience store"
  },
  {
    "type": "Liquor",
    "name": "Spec s Wines, Spirits Finer Foods",
    "lat": 33.0269705,
    "long": -96.8269,
    "gmapsCategory": "Liquor store"
  },
  {
    "type": "Liquor",
    "name": "LiquorVille Prosper",
    "lat": 33.247325,
    "long": -96.7667465,
    "gmapsCategory": "Liquor store"
  },
  {
    "type": "Liquor",
    "name": "Flamingo Beer Wine",
    "lat": 32.9515311,
    "long": -96.8899105,
    "gmapsCategory": "Wine store"
  },
  {
    "type": "Liquor",
    "name": "MY BEER STORE ",
    "lat": 33.0069566,
    "long": -96.8279154,
    "gmapsCategory": "Beer store"
  },
  {
    "type": "Liquor",
    "name": "Kool Aid Liquor Shop",
    "lat": 32.9396127,
    "long": -96.771559,
    "gmapsCategory": "Liquor store"
  },
  {
    "type": "Liquor",
    "name": "Flamingo Liquor Willowbend",
    "lat": 33.0154761,
    "long": -96.7946149,
    "gmapsCategory": "Liquor store"
  },
  {
    "type": "Liquor",
    "name": "Tompson Liquor",
    "lat": 33.0201715,
    "long": -96.7476011,
    "gmapsCategory": "Liquor store"
  },
  {
    "type": "Liquor",
    "name": "Richardson Beer and Wine",
    "lat": 32.9761522,
    "long": -96.7372313,
    "gmapsCategory": "Wine store"
  },
  {
    "type": "Liquor",
    "name": "Buckhorn Discount Liquor",
    "lat": 32.9503747,
    "long": -96.8298365,
    "gmapsCategory": "Liquor store"
  },
  {
    "type": "Liquor",
    "name": "American Spirits Beverage Co ",
    "lat": 32.9500532,
    "long": -96.8299313,
    "gmapsCategory": "Wine store"
  },
  {
    "type": "Liquor",
    "name": "Simply Liquor",
    "lat": 33.0071072,
    "long": -96.7687229,
    "gmapsCategory": "Liquor store"
  },
  {
    "type": "Liquor",
    "name": "Liquor Store",
    "lat": 33.019838,
    "long": -96.7309098,
    "gmapsCategory": "Liquor store"
  },
  {
    "type": "Liquor",
    "name": "Goody Goody Liquor",
    "lat": 32.9509697,
    "long": -96.8311307,
    "gmapsCategory": "Liquor store"
  },
  {
    "type": "Liquor",
    "name": "Food Mart Beer Wine",
    "lat": 32.9432358,
    "long": -96.7698297,
    "gmapsCategory": "Convenience store"
  },
  {
    "type": "Liquor",
    "name": "AKC Store Beer and Wine",
    "lat": 32.9253068,
    "long": -96.7700295,
    "gmapsCategory": "Convenience store"
  },
  {
    "type": "Liquor",
    "name": "Kegs Barrels",
    "lat": 33.0198473,
    "long": -96.7306271,
    "gmapsCategory": "Liquor store"
  },
  {
    "type": "Liquor",
    "name": "Spec s Wines, Spirits Finer Foods",
    "lat": 32.9536971,
    "long": -96.8312302,
    "gmapsCategory": "Liquor store"
  },
  {
    "type": "Liquor",
    "name": "Beyond the Bar Alcohol Free Bottle Shop",
    "lat": 32.9495321,
    "long": -96.7332664,
    "gmapsCategory": "Wine store"
  },
  {
    "type": "Liquor",
    "name": "S T Beer Wine",
    "lat": 32.9705304,
    "long": -96.8546369,
    "gmapsCategory": "Beer store"
  },
  {
    "type": "Liquor",
    "name": "QuikTrip",
    "lat": 32.9609231,
    "long": -96.8183792,
    "gmapsCategory": ""
  },
  {
    "type": "Liquor",
    "name": "Neighbors Food n Brews",
    "lat": 32.9900576,
    "long": -96.727717,
    "gmapsCategory": "Convenience store"
  },
  {
    "type": "Liquor",
    "name": "Irving Beer Wine",
    "lat": 32.8390003,
    "long": -96.9770576,
    "gmapsCategory": "Beer store"
  },
  {
    "type": "Liquor",
    "name": "LIQUOR DEPOT IRVING",
    "lat": 32.8547317,
    "long": -96.992666,
    "gmapsCategory": "Beer store"
  },
  {
    "type": "Liquor",
    "name": "JUNO S LIQUOR STORE LAS COLINAS",
    "lat": 32.8661878,
    "long": -96.9375761,
    "gmapsCategory": "Liquor store"
  },
  {
    "type": "Liquor",
    "name": "LIQUOR STOP",
    "lat": 32.8842766,
    "long": -96.9646652,
    "gmapsCategory": "Liquor store"
  },
  {
    "type": "Liquor",
    "name": "Liquor land",
    "lat": 32.8428704,
    "long": -96.991748,
    "gmapsCategory": "Liquor store"
  },
  {
    "type": "Liquor",
    "name": "Cowboys Liquor Number ",
    "lat": 32.8221346,
    "long": -96.9923435,
    "gmapsCategory": "Beer store"
  },
  {
    "type": "Liquor",
    "name": "Total Wine More",
    "lat": 32.911646,
    "long": -96.9564747,
    "gmapsCategory": "Liquor store"
  },
  {
    "type": "Liquor",
    "name": "AlcoHaul Beer, Spirits Wine N O Connor Irving",
    "lat": 32.8658477,
    "long": -96.9491161,
    "gmapsCategory": "Liquor store"
  },
  {
    "type": "Liquor",
    "name": "Legacy Liquor Wine",
    "lat": 32.880768,
    "long": -96.899463,
    "gmapsCategory": "Liquor store"
  },
  {
    "type": "Liquor",
    "name": "The Liquor Outpost",
    "lat": 32.8631782,
    "long": -96.9909331,
    "gmapsCategory": "Liquor store"
  },
  {
    "type": "Liquor",
    "name": "Valley Ranch Liquor",
    "lat": 32.9240826,
    "long": -96.9538515,
    "gmapsCategory": "Liquor store"
  },
  {
    "type": "Liquor",
    "name": "Kindred Spirits Wine",
    "lat": 32.8358709,
    "long": -96.9973518,
    "gmapsCategory": "Liquor store"
  },
  {
    "type": "Liquor",
    "name": "Fossil Creek Liquor",
    "lat": 32.8612241,
    "long": -96.9580258,
    "gmapsCategory": "Liquor store"
  },
  {
    "type": "Liquor",
    "name": "Applejacks Liquor",
    "lat": 32.9247541,
    "long": -96.9903702,
    "gmapsCategory": "Liquor store"
  },
  {
    "type": "Liquor",
    "name": "Esters Liquor",
    "lat": 32.8327012,
    "long": -97.0101141,
    "gmapsCategory": "Liquor store"
  },
  {
    "type": "Liquor",
    "name": "AlcoHaul Vapes, Spirits Wine N MacArthur Irving",
    "lat": 32.8813246,
    "long": -96.9626636,
    "gmapsCategory": "Liquor store"
  },
  {
    "type": "Liquor",
    "name": "Liquor Island",
    "lat": 32.8092892,
    "long": -96.9596514,
    "gmapsCategory": "Liquor store"
  },
  {
    "type": "Liquor",
    "name": "Pine wine liquor store",
    "lat": 32.8450624,
    "long": -96.9507025,
    "gmapsCategory": "Liquor store"
  },
  {
    "type": "Liquor",
    "name": "LIQUOR DEPOT STORY ROAD",
    "lat": 32.8297538,
    "long": -96.9754029,
    "gmapsCategory": "Liquor store"
  },
  {
    "type": "Liquor",
    "name": "C Store Beer Wine Tacos",
    "lat": 32.8480378,
    "long": -96.9918605,
    "gmapsCategory": "Liquor store"
  },
  {
    "type": "Liquor",
    "name": "Sonny E s liquor store",
    "lat": 32.8806664,
    "long": -96.895567,
    "gmapsCategory": "Liquor store"
  },
  {
    "type": "Liquor",
    "name": "Speedy B Mart",
    "lat": 32.917283,
    "long": -97.0074333,
    "gmapsCategory": "Convenience store"
  },
  {
    "type": "Liquor",
    "name": "Ron s Tiendita Beer wine",
    "lat": 32.828704,
    "long": -96.9746128,
    "gmapsCategory": "Beer store"
  },
  {
    "type": "Liquor",
    "name": "Spec s Wines, Spirits Finer Foods",
    "lat": 32.9207126,
    "long": -96.9722194,
    "gmapsCategory": "Liquor store"
  },
  {
    "type": "Liquor",
    "name": "Discount Liquor",
    "lat": 32.8140916,
    "long": -96.9943371,
    "gmapsCategory": "Liquor store"
  },
  {
    "type": "Liquor",
    "name": "Discount Smoke, Beer Liquor",
    "lat": 32.8279116,
    "long": -96.9946233,
    "gmapsCategory": "Liquor store"
  },
  {
    "type": "Liquor",
    "name": "Danny s Liquor",
    "lat": 32.868088,
    "long": -96.909234,
    "gmapsCategory": "Liquor store"
  },
  {
    "type": "Liquor",
    "name": "Amigos Grocery Beer Tacos",
    "lat": 32.8149411,
    "long": -96.9761109,
    "gmapsCategory": "Convenience store"
  },
  {
    "type": "Liquor",
    "name": "Xpress Liquor",
    "lat": 32.8423494,
    "long": -96.973709,
    "gmapsCategory": "Liquor store"
  },
  {
    "type": "Liquor",
    "name": "Beer Wine To Go",
    "lat": 32.8551312,
    "long": -96.9756887,
    "gmapsCategory": "Liquor store"
  },
  {
    "type": "Liquor",
    "name": "Oh eight beverages",
    "lat": 32.829849,
    "long": -96.9257963,
    "gmapsCategory": "Liquor store"
  },
  {
    "type": "Liquor",
    "name": "Payless Beer Wine",
    "lat": 32.8286152,
    "long": -96.9728662,
    "gmapsCategory": "Convenience store"
  },
  {
    "type": "Liquor",
    "name": " liquors",
    "lat": 32.8449558,
    "long": -96.9593522,
    "gmapsCategory": "Liquor store"
  },
  {
    "type": "Liquor",
    "name": " Apples Liquor",
    "lat": 32.838439,
    "long": -96.9599833,
    "gmapsCategory": "Liquor store"
  },
  {
    "type": "Liquor",
    "name": "Jimmy E s Liquor",
    "lat": 32.8675991,
    "long": -96.9066842,
    "gmapsCategory": "Liquor store"
  },
  {
    "type": "Liquor",
    "name": "K N beer Vape",
    "lat": 32.8124584,
    "long": -96.9373469,
    "gmapsCategory": "Vaporizer store"
  },
  {
    "type": "Liquor",
    "name": "Macarthur Beer Wine",
    "lat": 32.8215848,
    "long": -96.9594972,
    "gmapsCategory": "Convenience store"
  },
  {
    "type": "Liquor",
    "name": "RaceTrac",
    "lat": 32.8965004,
    "long": -96.9597147,
    "gmapsCategory": ""
  },
  {
    "type": "Liquor",
    "name": "Circle S Food Stop ",
    "lat": 32.8148312,
    "long": -96.9629122,
    "gmapsCategory": ""
  },
  {
    "type": "Liquor",
    "name": "Liquor Royale",
    "lat": 32.8139566,
    "long": -96.9384943,
    "gmapsCategory": "Liquor store"
  },
  {
    "type": "Liquor",
    "name": "Valley View Shell",
    "lat": 32.8360401,
    "long": -97.0226562,
    "gmapsCategory": ""
  },
  {
    "type": "Liquor",
    "name": "Shop N Go",
    "lat": 32.832588,
    "long": -97.0101771,
    "gmapsCategory": "Convenience store"
  },
  {
    "type": "Liquor",
    "name": "REDDYS LIQUOR",
    "lat": 32.8211607,
    "long": -96.9586159,
    "gmapsCategory": "Liquor store"
  },
  {
    "type": "Liquor",
    "name": "Beverage Depot ",
    "lat": 32.8634034,
    "long": -96.8931895,
    "gmapsCategory": "Liquor store"
  },
  {
    "type": "Liquor",
    "name": "Lee s Beer Wine",
    "lat": 32.8952988,
    "long": -96.8990291,
    "gmapsCategory": "Liquor store"
  },
  {
    "type": "Liquor",
    "name": "RaceTrac",
    "lat": 32.9211803,
    "long": -96.9927301,
    "gmapsCategory": "\"Usually associates are friendly & the store is clean.\""
  },
  {
    "type": "Liquor",
    "name": "QuikTrip",
    "lat": 32.872003,
    "long": -96.9925468,
    "gmapsCategory": ""
  },
  {
    "type": "Liquor",
    "name": " Eleven",
    "lat": 32.9200415,
    "long": -96.9946233,
    "gmapsCategory": "Convenience store"
  },
  {
    "type": "Liquor",
    "name": "QuikTrip",
    "lat": 32.809234,
    "long": -96.9266572,
    "gmapsCategory": ""
  },
  {
    "type": "Liquor",
    "name": "Payless liquor",
    "lat": 32.8549926,
    "long": -96.9756764,
    "gmapsCategory": "Liquor store"
  },
  {
    "type": "Liquor",
    "name": "Deez Smoke Less",
    "lat": 32.8475383,
    "long": -97.0086003,
    "gmapsCategory": "Tobacco shop with beer & wine"
  },
  {
    "type": "Liquor",
    "name": " Eleven",
    "lat": 32.907394,
    "long": -96.9524739,
    "gmapsCategory": "Convenience store"
  },
  {
    "type": "Liquor",
    "name": "Locals Craft Beer Fine Wine",
    "lat": 32.9231576,
    "long": -96.8954396,
    "gmapsCategory": "Wine store"
  },
  {
    "type": "Liquor",
    "name": "QuikTrip",
    "lat": 32.832381,
    "long": -96.9928659,
    "gmapsCategory": ""
  },
  {
    "type": "Liquor",
    "name": "QuikTrip",
    "lat": 32.9305594,
    "long": -96.9926793,
    "gmapsCategory": "\"The store looks amazing, everything clean and sorted!\""
  },
  {
    "type": "Liquor",
    "name": "Spec s Wines, Spirits Finer Foods",
    "lat": 32.8717465,
    "long": -96.9206104,
    "gmapsCategory": "Liquor store"
  },
  {
    "type": "Liquor",
    "name": "QuikTrip",
    "lat": 32.9077391,
    "long": -96.994198,
    "gmapsCategory": ""
  },
  {
    "type": "Liquor",
    "name": "RaceTrac",
    "lat": 32.8212948,
    "long": -96.9928592,
    "gmapsCategory": ""
  },
  {
    "type": "Liquor",
    "name": " Eleven",
    "lat": 32.8656532,
    "long": -96.9910536,
    "gmapsCategory": "Convenience store"
  },
  {
    "type": "Liquor",
    "name": " Eleven",
    "lat": 32.8179373,
    "long": -96.9338916,
    "gmapsCategory": "Convenience store"
  },
  {
    "type": "Liquor",
    "name": " Eleven",
    "lat": 32.8478904,
    "long": -96.9929233,
    "gmapsCategory": "Convenience store"
  },
  {
    "type": "Liquor",
    "name": "Buy Low Food Beer Wine",
    "lat": 32.8157644,
    "long": -96.9674534,
    "gmapsCategory": "Beer store"
  },
  {
    "type": "Liquor",
    "name": " Eleven",
    "lat": 32.9201446,
    "long": -97.0085761,
    "gmapsCategory": "Convenience store"
  },
  {
    "type": "Liquor",
    "name": " Eleven",
    "lat": 32.8357571,
    "long": -97.0088271,
    "gmapsCategory": "Convenience store"
  },
  {
    "type": "Liquor",
    "name": "TETCO",
    "lat": 32.8674682,
    "long": -96.945571,
    "gmapsCategory": "\"Store is a 7-11 & well stocked.\""
  },
  {
    "type": "Liquor",
    "name": "Loco Discount Liquors",
    "lat": 32.8287231,
    "long": -96.9752535,
    "gmapsCategory": "Liquor store"
  },
  {
    "type": "Liquor",
    "name": "Monticello Liquor, Fine Wine, and Beer",
    "lat": 32.8262687,
    "long": -96.7845865,
    "gmapsCategory": "Liquor store"
  },
  {
    "type": "Liquor",
    "name": "Star Liquor Beer Wine",
    "lat": 32.7815483,
    "long": -96.8047104,
    "gmapsCategory": "Liquor store"
  },
  {
    "type": "Liquor",
    "name": "Speedy Beer Wine",
    "lat": 32.7812172,
    "long": -96.8354728,
    "gmapsCategory": "Liquor store"
  },
  {
    "type": "Liquor",
    "name": "Super Save Liquor",
    "lat": 32.8127083,
    "long": -96.7843552,
    "gmapsCategory": "Liquor store"
  },
  {
    "type": "Liquor",
    "name": "Dallas Fine Wine Spirits",
    "lat": 32.8122656,
    "long": -96.8049481,
    "gmapsCategory": "Wine store"
  },
  {
    "type": "Liquor",
    "name": "Royal Liquor Beer Wine",
    "lat": 32.8119517,
    "long": -96.8118119,
    "gmapsCategory": "Liquor store"
  },
  {
    "type": "Liquor",
    "name": "Uptown Liquors",
    "lat": 32.8025494,
    "long": -96.8000213,
    "gmapsCategory": "Liquor store"
  },
  {
    "type": "Liquor",
    "name": "Flamingo Liquor Lovefield",
    "lat": 32.8271223,
    "long": -96.8461664,
    "gmapsCategory": "Liquor store"
  },
  {
    "type": "Liquor",
    "name": "River Cut Rate Liquor",
    "lat": 32.7680423,
    "long": -96.8031546,
    "gmapsCategory": "Liquor store"
  },
  {
    "type": "Liquor",
    "name": "Cheers Liquor Beer Wine",
    "lat": 32.8281546,
    "long": -96.8238767,
    "gmapsCategory": "Liquor store"
  },
  {
    "type": "Liquor",
    "name": "Corner Stop Craft Beers And Fabulous Wine Selection",
    "lat": 32.8165114,
    "long": -96.7705622,
    "gmapsCategory": "Beer store"
  },
  {
    "type": "Liquor",
    "name": "Goody Goody Liquor",
    "lat": 32.8104402,
    "long": -96.8070134,
    "gmapsCategory": "Liquor store"
  },
  {
    "type": "Liquor",
    "name": "Cheap River",
    "lat": 32.7750173,
    "long": -96.8128219,
    "gmapsCategory": "Liquor store"
  },
  {
    "type": "Liquor",
    "name": "Hill Town Liquor",
    "lat": 32.7397811,
    "long": -96.8794736,
    "gmapsCategory": "Liquor store"
  },
  {
    "type": "Liquor",
    "name": "Buddy s Booze",
    "lat": 32.8170041,
    "long": -96.7706256,
    "gmapsCategory": "Liquor store"
  },
  {
    "type": "Liquor",
    "name": "Scott s Discount Liquor beer and wine",
    "lat": 32.7706019,
    "long": -96.7999601,
    "gmapsCategory": "Liquor store"
  },
  {
    "type": "Liquor",
    "name": "Flamingo Liquor",
    "lat": 32.8057794,
    "long": -96.8251897,
    "gmapsCategory": "Liquor store"
  },
  {
    "type": "Liquor",
    "name": "Speakeasy Wine and Spirits",
    "lat": 32.7822112,
    "long": -96.7975932,
    "gmapsCategory": "Liquor store"
  },
  {
    "type": "Liquor",
    "name": "Biagio Wine and Spirits",
    "lat": 32.78761,
    "long": -96.8091459,
    "gmapsCategory": "Liquor store"
  },
  {
    "type": "Liquor",
    "name": "K P Liquor",
    "lat": 32.7373063,
    "long": -96.7579479,
    "gmapsCategory": "Liquor store"
  },
  {
    "type": "Liquor",
    "name": "Bear Creek Spirits Wine",
    "lat": 32.9108333,
    "long": -97.1341667,
    "gmapsCategory": "Liquor store"
  },
  {
    "type": "Liquor",
    "name": " S Spirits Liquor ",
    "lat": 32.993958,
    "long": -97.193504,
    "gmapsCategory": "Liquor store"
  },
  {
    "type": "Liquor",
    "name": "Grapevine Beer Wine",
    "lat": 32.9428389,
    "long": -97.0999378,
    "gmapsCategory": "Beer store"
  },
  {
    "type": "Liquor",
    "name": "Hansom Hank s",
    "lat": 32.9146293,
    "long": -97.1256674,
    "gmapsCategory": "Convenience store"
  },
  {
    "type": "Liquor",
    "name": "Fossil Creek Liquor",
    "lat": 32.9801767,
    "long": -97.1692475,
    "gmapsCategory": "Liquor store"
  },
  {
    "type": "Liquor",
    "name": "Tastes of Texas",
    "lat": 32.9548791,
    "long": -97.0644155,
    "gmapsCategory": "General store"
  },
  {
    "type": "Liquor",
    "name": "Roots and Water Wine Southlake",
    "lat": 32.9447734,
    "long": -97.1196302,
    "gmapsCategory": "Wine store"
  },
  {
    "type": "Liquor",
    "name": "Classic Wine",
    "lat": 32.9348773,
    "long": -97.105868,
    "gmapsCategory": "Wine storage facility"
  },
  {
    "type": "Liquor",
    "name": "Off the Vine Wineshop Cellar",
    "lat": 32.938284,
    "long": -97.0786488,
    "gmapsCategory": "Wine store"
  },
  {
    "type": "Liquor",
    "name": "Circle S Food Stop ",
    "lat": 32.919648,
    "long": -97.107974,
    "gmapsCategory": "Convenience store"
  },
  {
    "type": "Liquor",
    "name": "Bull Lion Winery Grapevine",
    "lat": 32.9358041,
    "long": -97.0788414,
    "gmapsCategory": "Winery"
  },
  {
    "type": "Liquor",
    "name": "Red Dirt Cellars",
    "lat": 32.9375631,
    "long": -97.0781506,
    "gmapsCategory": "Winery"
  },
  {
    "type": "Liquor",
    "name": "Grapevine Market ",
    "lat": 32.9543655,
    "long": -97.0904115,
    "gmapsCategory": ""
  },
  {
    "type": "Liquor",
    "name": "QuikTrip",
    "lat": 32.9373504,
    "long": -97.1055399,
    "gmapsCategory": "\"The store was very clean and the area is very safe.\""
  },
  {
    "type": "Liquor",
    "name": "QuikTrip",
    "lat": 32.9232957,
    "long": -97.1854363,
    "gmapsCategory": ""
  },
  {
    "type": "Liquor",
    "name": "Paradise Quick Stop",
    "lat": 32.9416264,
    "long": -97.073032,
    "gmapsCategory": "Convenience store"
  },
  {
    "type": "Liquor",
    "name": "Smokers Dream",
    "lat": 32.9375938,
    "long": -97.1868683,
    "gmapsCategory": ""
  },
  {
    "type": "Liquor",
    "name": "New Best Mart",
    "lat": 32.9095241,
    "long": -97.1007176,
    "gmapsCategory": "Convenience store"
  },
  {
    "type": "Liquor",
    "name": "Hop and Sting Brewing Company",
    "lat": 32.9325731,
    "long": -97.0747404,
    "gmapsCategory": ""
  },
  {
    "type": "Liquor",
    "name": "Mac s Corner",
    "lat": 32.9328494,
    "long": -97.0614044,
    "gmapsCategory": "Convenience store"
  },
  {
    "type": "Liquor",
    "name": "Central Market",
    "lat": 32.9388711,
    "long": -97.1312801,
    "gmapsCategory": "Gourmet grocery store"
  },
  {
    "type": "Liquor",
    "name": "Winestein s Tasting Room",
    "lat": 32.9429125,
    "long": -97.0773459,
    "gmapsCategory": "Wine bar"
  },
  {
    "type": "Liquor",
    "name": "Trader Joe s",
    "lat": 32.9413499,
    "long": -97.1294316,
    "gmapsCategory": "Liquor store"
  },
  {
    "type": "Liquor",
    "name": " Eleven",
    "lat": 32.9936315,
    "long": -97.1930652,
    "gmapsCategory": "Convenience store"
  },
  {
    "type": "Liquor",
    "name": "QuikTrip",
    "lat": 32.9315026,
    "long": -97.0850189,
    "gmapsCategory": ""
  },
  {
    "type": "Liquor",
    "name": "Messina Hof Grapevine Winery",
    "lat": 32.9390693,
    "long": -97.0782063,
    "gmapsCategory": "Winery"
  },
  {
    "type": "Liquor",
    "name": "Bansella LLC",
    "lat": 32.9024984,
    "long": -97.1375639,
    "gmapsCategory": "Wine store"
  },
  {
    "type": "Liquor",
    "name": "Beltline Beer Wine",
    "lat": 32.953214,
    "long": -96.872337,
    "gmapsCategory": "Convenience store"
  },
  {
    "type": "Liquor",
    "name": "Kelly s Beer and Wine",
    "lat": 32.9894378,
    "long": -96.8667877,
    "gmapsCategory": "Convenience store"
  },
  {
    "type": "Liquor",
    "name": "Webb Chapel Beer Wine",
    "lat": 32.952597,
    "long": -96.871271,
    "gmapsCategory": "Beer store"
  },
  {
    "type": "Liquor",
    "name": " Eleven",
    "lat": 32.9874622,
    "long": -96.8425539,
    "gmapsCategory": "Convenience store"
  },
  {
    "type": "Liquor",
    "name": " Eleven",
    "lat": 32.9395262,
    "long": -96.8393312,
    "gmapsCategory": "Convenience store"
  },
  {
    "type": "Liquor",
    "name": "Payless Food Beer Wine",
    "lat": 32.9251603,
    "long": -96.8108987,
    "gmapsCategory": "Beer store"
  },
  {
    "type": "Liquor",
    "name": "Grapes Grains Liquor",
    "lat": 33.053613,
    "long": -96.795807,
    "gmapsCategory": "Liquor store"
  },
  {
    "type": "Liquor",
    "name": "Liquor King",
    "lat": 33.1094107,
    "long": -96.7675928,
    "gmapsCategory": "Liquor store"
  },
  {
    "type": "Liquor",
    "name": "The Hy Life Fine Wine Spirits",
    "lat": 33.1629611,
    "long": -96.7327157,
    "gmapsCategory": "Liquor store"
  },
  {
    "type": "Liquor",
    "name": "Cheers Liquor Beer Wine",
    "lat": 33.086646,
    "long": -96.7710785,
    "gmapsCategory": "Liquor store"
  },
  {
    "type": "Liquor",
    "name": "Fossil Creek Liquor Custer",
    "lat": 33.1236966,
    "long": -96.7337479,
    "gmapsCategory": "Liquor store"
  },
  {
    "type": "Liquor",
    "name": "Jerry s Liquor and Fine Wine",
    "lat": 33.1419248,
    "long": -96.7327483,
    "gmapsCategory": "Liquor store"
  },
  {
    "type": "Liquor",
    "name": "Sam s liquor warehouse Beer, Wine Cigar",
    "lat": 33.1231596,
    "long": -96.7325905,
    "gmapsCategory": "Liquor store"
  },
  {
    "type": "Liquor",
    "name": "Beverage World",
    "lat": 33.1497727,
    "long": -96.8215023,
    "gmapsCategory": "Beer store"
  },
  {
    "type": "Liquor",
    "name": "QT",
    "lat": 33.1757503,
    "long": -96.8383401,
    "gmapsCategory": "Liquor store"
  },
  {
    "type": "Liquor",
    "name": "The Hy Life Fine Wine Spirits",
    "lat": 33.08558,
    "long": -96.7372256,
    "gmapsCategory": "Liquor store"
  },
  {
    "type": "Liquor",
    "name": "Sigel s Fine Wines Great Spirits",
    "lat": 33.0705546,
    "long": -96.7508251,
    "gmapsCategory": "Liquor store"
  },
  {
    "type": "Liquor",
    "name": "Quick Treat Liquor",
    "lat": 33.059782,
    "long": -96.732794,
    "gmapsCategory": "Liquor store"
  },
  {
    "type": "Liquor",
    "name": "Sahay Market Sierra Market ",
    "lat": 33.106346,
    "long": -96.8184357,
    "gmapsCategory": "Convenience store"
  },
  {
    "type": "Liquor",
    "name": "Loyality Liquors",
    "lat": 33.0788099,
    "long": -96.8625732,
    "gmapsCategory": "Liquor store"
  },
  {
    "type": "Liquor",
    "name": "McDermott Beer Wine and Liquor",
    "lat": 33.0990254,
    "long": -96.7321146,
    "gmapsCategory": "Beer store"
  },
  {
    "type": "Liquor",
    "name": "RaceTrac",
    "lat": 33.1199872,
    "long": -96.751706,
    "gmapsCategory": ""
  },
  {
    "type": "Liquor",
    "name": "RaceTrac",
    "lat": 33.1072889,
    "long": -96.8424475,
    "gmapsCategory": ""
  },
  {
    "type": "Liquor",
    "name": "The Thirsty Growler",
    "lat": 33.0783421,
    "long": -96.8637897,
    "gmapsCategory": "Beer store"
  },
  {
    "type": "Liquor",
    "name": "RaceTrac",
    "lat": 33.153851,
    "long": -96.8470754,
    "gmapsCategory": ""
  },
  {
    "type": "Liquor",
    "name": " Eleven",
    "lat": 33.1022579,
    "long": -96.8153804,
    "gmapsCategory": "Convenience store"
  },
  {
    "type": "Liquor",
    "name": "RaceTrac",
    "lat": 33.0919991,
    "long": -96.8148448,
    "gmapsCategory": "\"The store was clean and the staff was friendly\""
  },
  {
    "type": "Liquor",
    "name": "RaceTrac",
    "lat": 33.1243906,
    "long": -96.8155129,
    "gmapsCategory": ""
  },
  {
    "type": "Liquor",
    "name": " Eleven",
    "lat": 33.173628,
    "long": -96.7513236,
    "gmapsCategory": "Convenience store"
  },
  {
    "type": "Liquor",
    "name": "QuikTrip",
    "lat": 33.1104743,
    "long": -96.7688382,
    "gmapsCategory": "\"Friendly professional employees, clean stores, consistent quality\""
  },
  {
    "type": "Liquor",
    "name": "RaceTrac",
    "lat": 33.1369659,
    "long": -96.7342695,
    "gmapsCategory": ""
  },
  {
    "type": "Liquor",
    "name": " Eleven",
    "lat": 33.1742415,
    "long": -96.8327256,
    "gmapsCategory": "Convenience store"
  },
  {
    "type": "Liquor",
    "name": " Eleven",
    "lat": 33.1304208,
    "long": -96.7873815,
    "gmapsCategory": "Convenience store"
  },
  {
    "type": "Liquor",
    "name": " Eleven",
    "lat": 33.1161917,
    "long": -96.8392329,
    "gmapsCategory": "Convenience store"
  },
  {
    "type": "Liquor",
    "name": " Eleven",
    "lat": 33.1385375,
    "long": -96.8049475,
    "gmapsCategory": "Convenience store"
  },
  {
    "type": "Liquor",
    "name": "RaceTrac",
    "lat": 33.1016866,
    "long": -96.7707335,
    "gmapsCategory": "\"The staff is always friendly here and the store is usually clean\""
  },
  {
    "type": "Liquor",
    "name": " Eleven",
    "lat": 33.124151,
    "long": -96.8237875,
    "gmapsCategory": "Convenience store"
  },
  {
    "type": "Liquor",
    "name": " Eleven",
    "lat": 33.1062962,
    "long": -96.8410672,
    "gmapsCategory": "Convenience store"
  },
  {
    "type": "Liquor",
    "name": " Eleven",
    "lat": 33.1751805,
    "long": -96.7863563,
    "gmapsCategory": "Convenience store"
  },
  {
    "type": "Liquor",
    "name": " Eleven",
    "lat": 33.1523917,
    "long": -96.7835429,
    "gmapsCategory": "Convenience store"
  },
  {
    "type": "Liquor",
    "name": " Eleven",
    "lat": 33.1463849,
    "long": -96.8382101,
    "gmapsCategory": "Convenience store"
  },
  {
    "type": "Liquor",
    "name": " Eleven",
    "lat": 33.1095104,
    "long": -96.8051253,
    "gmapsCategory": "Convenience store"
  },
  {
    "type": "Liquor",
    "name": " Eleven",
    "lat": 33.1740028,
    "long": -96.8039325,
    "gmapsCategory": "Convenience store"
  },
  {
    "type": "Liquor",
    "name": " Eleven",
    "lat": 33.1164309,
    "long": -96.7688237,
    "gmapsCategory": "Convenience store"
  },
  {
    "type": "Liquor",
    "name": "GRRROWLER S Tap Room Beer Garden",
    "lat": 33.0576473,
    "long": -96.8614497,
    "gmapsCategory": ""
  },
  {
    "type": "Liquor",
    "name": "QuikTrip",
    "lat": 33.1306396,
    "long": -96.7322476,
    "gmapsCategory": "\"The store has a larger than normal selection of candy, drinks and products.\""
  },
  {
    "type": "Liquor",
    "name": "QuikTrip",
    "lat": 33.1757863,
    "long": -96.8384566,
    "gmapsCategory": ""
  },
  {
    "type": "Liquor",
    "name": " Eleven",
    "lat": 33.0841734,
    "long": -96.7936267,
    "gmapsCategory": "Convenience store"
  },
  {
    "type": "Liquor",
    "name": " Eleven",
    "lat": 33.0866574,
    "long": -96.736186,
    "gmapsCategory": "Convenience store"
  },
  {
    "type": "Liquor",
    "name": "QuikTrip",
    "lat": 33.1522423,
    "long": -96.848647,
    "gmapsCategory": ""
  },
  {
    "type": "Liquor",
    "name": " Eleven",
    "lat": 33.071375,
    "long": -96.7507955,
    "gmapsCategory": "Convenience store"
  },
  {
    "type": "Liquor",
    "name": " Eleven",
    "lat": 33.1203544,
    "long": -96.8048618,
    "gmapsCategory": "Convenience store"
  },
  {
    "type": "Liquor",
    "name": " Eleven",
    "lat": 33.1371672,
    "long": -96.7513438,
    "gmapsCategory": "Convenience store"
  },
  {
    "type": "Liquor",
    "name": "QuikTrip",
    "lat": 33.0604542,
    "long": -96.7952645,
    "gmapsCategory": "\"The staff is always friendly, and the store is spotless.\""
  },
  {
    "type": "Liquor",
    "name": " Eleven",
    "lat": 33.0606178,
    "long": -96.796755,
    "gmapsCategory": "Convenience store"
  },
  {
    "type": "Liquor",
    "name": " Eleven",
    "lat": 33.1013333,
    "long": -96.7495665,
    "gmapsCategory": "Convenience store"
  },
  {
    "type": "Liquor",
    "name": " Eleven",
    "lat": 33.0706855,
    "long": -96.8331292,
    "gmapsCategory": "Convenience store"
  },
  {
    "type": "Liquor",
    "name": " Eleven",
    "lat": 33.0594523,
    "long": -96.7327295,
    "gmapsCategory": "Convenience store"
  },
  {
    "type": "Liquor",
    "name": " Eleven",
    "lat": 33.0947602,
    "long": -96.7974586,
    "gmapsCategory": "Convenience store"
  },
  {
    "type": "Liquor",
    "name": " Eleven",
    "lat": 33.0587732,
    "long": -96.8624072,
    "gmapsCategory": "Convenience store"
  },
  {
    "type": "Liquor",
    "name": "CVS",
    "lat": 33.1384097,
    "long": -96.8036604,
    "gmapsCategory": "Drug store"
  },
  {
    "type": "Liquor",
    "name": "CVS",
    "lat": 33.17417,
    "long": -96.8314521,
    "gmapsCategory": "Drug store"
  },
  {
    "type": "Liquor",
    "name": "CVS",
    "lat": 33.1158903,
    "long": -96.8403762,
    "gmapsCategory": "Drug store"
  },
  {
    "type": "Liquor",
    "name": "CVS",
    "lat": 33.1751649,
    "long": -96.7671918,
    "gmapsCategory": "Drug store"
  },
  {
    "type": "Liquor",
    "name": "Curry Pizza House Plano",
    "lat": 33.0586177,
    "long": -96.7719242,
    "gmapsCategory": ""
  },
  {
    "type": "Liquor",
    "name": "CVS",
    "lat": 33.0784579,
    "long": -96.829785,
    "gmapsCategory": "Drug store"
  },
  {
    "type": "Liquor",
    "name": "CVS",
    "lat": 33.1539077,
    "long": -96.8487522,
    "gmapsCategory": "Drug store"
  },
  {
    "type": "Liquor",
    "name": "CVS",
    "lat": 33.0855552,
    "long": -96.735973,
    "gmapsCategory": "Drug store"
  },
  {
    "type": "Liquor",
    "name": "CVS",
    "lat": 33.1002641,
    "long": -96.7708975,
    "gmapsCategory": "Drug store"
  },
  {
    "type": "Liquor",
    "name": "CVS",
    "lat": 33.0640096,
    "long": -96.7969414,
    "gmapsCategory": "Drug store"
  },
  {
    "type": "Liquor",
    "name": "CVS",
    "lat": 33.1514829,
    "long": -96.732355,
    "gmapsCategory": "Drug store"
  },
  {
    "type": "Liquor",
    "name": "TETCO",
    "lat": 33.0722855,
    "long": -96.7716435,
    "gmapsCategory": "Convenience store"
  },
  {
    "type": "Liquor",
    "name": "Mirage Fine Spirits",
    "lat": 32.8748171,
    "long": -97.1623602,
    "gmapsCategory": "Liquor store"
  },
  {
    "type": "Liquor",
    "name": "Fossil Creek Liquor",
    "lat": 32.8979215,
    "long": -97.1852981,
    "gmapsCategory": "Liquor store"
  },
  {
    "type": "Liquor",
    "name": "Noctis Spirits Wine",
    "lat": 32.8663076,
    "long": -97.1742698,
    "gmapsCategory": "Liquor store"
  },
  {
    "type": "Liquor",
    "name": "Halls Wine Spirits",
    "lat": 32.8816694,
    "long": -97.1005346,
    "gmapsCategory": "Liquor store"
  },
  {
    "type": "Liquor",
    "name": "TriCity Spirits",
    "lat": 32.8921789,
    "long": -97.1849536,
    "gmapsCategory": "Liquor store"
  },
  {
    "type": "Liquor",
    "name": "Goody Goody Liquor",
    "lat": 32.8780683,
    "long": -97.1570699,
    "gmapsCategory": "Liquor store"
  },
  {
    "type": "Liquor",
    "name": "Total Wine More",
    "lat": 32.8721112,
    "long": -97.1036139,
    "gmapsCategory": "Liquor store"
  },
  {
    "type": "Liquor",
    "name": "Spec s Wines, Spirits Finer Foods",
    "lat": 32.9357197,
    "long": -97.2179696,
    "gmapsCategory": "Liquor store"
  },
  {
    "type": "Liquor",
    "name": " Eleven",
    "lat": 32.9340137,
    "long": -97.2179303,
    "gmapsCategory": "Convenience store"
  },
  {
    "type": "Liquor",
    "name": "QuikTrip",
    "lat": 32.8665094,
    "long": -97.1031527,
    "gmapsCategory": ""
  },
  {
    "type": "Liquor",
    "name": " Eleven",
    "lat": 32.8670884,
    "long": -97.1729268,
    "gmapsCategory": "Convenience store"
  },
  {
    "type": "Liquor",
    "name": "QuikTrip",
    "lat": 32.8613031,
    "long": -97.2104871,
    "gmapsCategory": "\"The store is always clean, neat, orderly, and well stocked.\""
  },
  {
    "type": "Liquor",
    "name": "Shell",
    "lat": 32.892145,
    "long": -97.185398,
    "gmapsCategory": ""
  },
  {
    "type": "Liquor",
    "name": "Yates Corner Grocery",
    "lat": 32.9612478,
    "long": -97.1170319,
    "gmapsCategory": "Convenience store"
  },
  {
    "type": "Liquor",
    "name": "New York Butcher Shoppe",
    "lat": 32.8810231,
    "long": -97.1065446,
    "gmapsCategory": ""
  },
  {
    "type": "Liquor",
    "name": " Eleven",
    "lat": 32.9349596,
    "long": -97.2037938,
    "gmapsCategory": "Convenience store"
  },
  {
    "type": "Liquor",
    "name": " Eleven",
    "lat": 32.8807441,
    "long": -97.1002122,
    "gmapsCategory": ""
  },
  {
    "type": "Liquor",
    "name": " Eleven",
    "lat": 32.9414029,
    "long": -97.1225307,
    "gmapsCategory": "Convenience store"
  },
  {
    "type": "Liquor",
    "name": " Eleven",
    "lat": 32.8807756,
    "long": -97.0828403,
    "gmapsCategory": "Convenience store"
  },
  {
    "type": "Liquor",
    "name": " Eleven",
    "lat": 32.9512267,
    "long": -97.1347879,
    "gmapsCategory": "Convenience store"
  },
  {
    "type": "Liquor",
    "name": "Whole Foods Market",
    "lat": 32.8791874,
    "long": -97.1552062,
    "gmapsCategory": "Grocery store"
  },
  {
    "type": "Liquor",
    "name": "TETCO",
    "lat": 32.8835128,
    "long": -97.2042439,
    "gmapsCategory": "Convenience store"
  },
  {
    "type": "Liquor",
    "name": "Keller Liquor",
    "lat": 32.9555386,
    "long": -97.2791348,
    "gmapsCategory": "Liquor store"
  },
  {
    "type": "Liquor",
    "name": "Speedway Liquor",
    "lat": 33.0258486,
    "long": -97.2870702,
    "gmapsCategory": "Liquor store"
  },
  {
    "type": "Liquor",
    "name": "Justin Spirits",
    "lat": 33.0708078,
    "long": -97.2961912,
    "gmapsCategory": "Liquor store"
  },
  {
    "type": "Liquor",
    "name": " Eleven",
    "lat": 32.9191153,
    "long": -97.118462,
    "gmapsCategory": "Convenience store"
  },
  {
    "type": "Liquor",
    "name": " Eleven",
    "lat": 32.9230616,
    "long": -97.0913433,
    "gmapsCategory": "Convenience store"
  },
  {
    "type": "Liquor",
    "name": "World Market",
    "lat": 32.9406757,
    "long": -97.1060587,
    "gmapsCategory": "Furniture store"
  },
  {
    "type": "Liquor",
    "name": "Colleyville Downs",
    "lat": 32.879189,
    "long": -97.1565386,
    "gmapsCategory": ""
  },
  {
    "type": "Liquor",
    "name": "Argyle Fine Wine and Spirits",
    "lat": 33.0933278,
    "long": -97.1912708,
    "gmapsCategory": "Liquor store"
  },
  {
    "type": "Liquor",
    "name": "Fossil Creek Liquor Argyle",
    "lat": 33.0998451,
    "long": -97.2161482,
    "gmapsCategory": "Liquor store"
  },
  {
    "type": "Liquor",
    "name": "Stir Ups Liquors",
    "lat": 33.1039171,
    "long": -97.1402919,
    "gmapsCategory": "Liquor store"
  },
  {
    "type": "Liquor",
    "name": "Fort Liquor ",
    "lat": 33.0743754,
    "long": -97.1291142,
    "gmapsCategory": "Liquor store"
  },
  {
    "type": "Liquor",
    "name": "LoveMyLiquor",
    "lat": 33.2285396,
    "long": -97.1622072,
    "gmapsCategory": "Liquor store"
  },
  {
    "type": "Liquor",
    "name": "Grand Liquor",
    "lat": 33.2068191,
    "long": -97.1335872,
    "gmapsCategory": "Liquor store"
  },
  {
    "type": "Liquor",
    "name": "Midway Mart",
    "lat": 33.2149754,
    "long": -97.1368716,
    "gmapsCategory": "Beer store"
  },
  {
    "type": "Liquor",
    "name": "Liquor Store Near Me",
    "lat": 33.2294168,
    "long": -97.1409751,
    "gmapsCategory": "Liquor store"
  },
  {
    "type": "Liquor",
    "name": "Eagle Liquor",
    "lat": 33.2144335,
    "long": -97.1375211,
    "gmapsCategory": "Liquor store"
  },
  {
    "type": "Liquor",
    "name": "YOURWAY BEER BARN",
    "lat": 33.2106312,
    "long": -97.1612366,
    "gmapsCategory": "Convenience store"
  },
  {
    "type": "Liquor",
    "name": "Applejacks Liquors",
    "lat": 33.2148365,
    "long": -97.1284798,
    "gmapsCategory": "Liquor store"
  },
  {
    "type": "Liquor",
    "name": "Black Tie Liquors",
    "lat": 33.2401697,
    "long": -97.1322506,
    "gmapsCategory": "Liquor store"
  },
  {
    "type": "Liquor",
    "name": "Imperial Ale Spirits",
    "lat": 33.2294637,
    "long": -97.1409781,
    "gmapsCategory": "Liquor store"
  },
  {
    "type": "Liquor",
    "name": "The Liquor Outpost",
    "lat": 33.230502,
    "long": -97.142677,
    "gmapsCategory": "Liquor store"
  },
  {
    "type": "Liquor",
    "name": "D D Liquor Tobacco",
    "lat": 33.1986895,
    "long": -97.1222899,
    "gmapsCategory": "Liquor store"
  },
  {
    "type": "Liquor",
    "name": "Midway Craft House",
    "lat": 33.214457,
    "long": -97.1445177,
    "gmapsCategory": "Beer store"
  },
  {
    "type": "Liquor",
    "name": "Cletus s Smokin Tobacco Porch, Waterin Hole, Recyclery",
    "lat": 33.2136119,
    "long": -97.1335062,
    "gmapsCategory": ""
  },
  {
    "type": "Liquor",
    "name": "Mark s Beer Barn",
    "lat": 33.210628,
    "long": -97.161235,
    "gmapsCategory": "Convenience store"
  },
  {
    "type": "Liquor",
    "name": "Howdy Doody",
    "lat": 33.218514,
    "long": -97.1499978,
    "gmapsCategory": "Beer store"
  },
  {
    "type": "Liquor",
    "name": "Denton s Craft Beer Wine Really Cheap Beer",
    "lat": 33.2149539,
    "long": -97.1367579,
    "gmapsCategory": "Beer store"
  },
  {
    "type": "Liquor",
    "name": "Eskimo Hut",
    "lat": 33.2293767,
    "long": -97.1397611,
    "gmapsCategory": "Beer store"
  },
  {
    "type": "Liquor",
    "name": "Steve s Wine Bar",
    "lat": 33.2139026,
    "long": -97.1299779,
    "gmapsCategory": "Bar"
  },
  {
    "type": "Liquor",
    "name": "Shotz Liquor Roanoke",
    "lat": 33.023791,
    "long": -97.21346,
    "gmapsCategory": "Liquor store"
  },
  {
    "type": "Liquor",
    "name": "LiquorLand",
    "lat": 33.0999573,
    "long": -97.226784,
    "gmapsCategory": "Liquor store"
  },
  {
    "type": "Liquor",
    "name": " Eleven",
    "lat": 33.0232584,
    "long": -97.2137428,
    "gmapsCategory": "Convenience store"
  },
  {
    "type": "Liquor",
    "name": "Golden Triangle Liquor",
    "lat": 32.9328157,
    "long": -97.2703815,
    "gmapsCategory": "Liquor store"
  },
  {
    "type": "Liquor",
    "name": "Liquor ",
    "lat": 32.9544376,
    "long": -97.3927228,
    "gmapsCategory": "Liquor store"
  },
  {
    "type": "Liquor",
    "name": " Eleven",
    "lat": 33.0250497,
    "long": -97.2575758,
    "gmapsCategory": "Convenience store"
  },
  {
    "type": "Liquor",
    "name": "Spec s Wines, Spirits Finer Foods",
    "lat": 32.9876614,
    "long": -97.2362886,
    "gmapsCategory": "Liquor store"
  },
  {
    "type": "Liquor",
    "name": "Storm Liquor License",
    "lat": 33.0678121,
    "long": -97.0800635,
    "gmapsCategory": "Storm Liquor License"
  },
  {
    "type": "Liquor",
    "name": "Liberty Liquor",
    "lat": 33.3936216,
    "long": -96.9486151,
    "gmapsCategory": "Liquor store"
  },
  {
    "type": "Liquor",
    "name": " Liquor",
    "lat": 33.384969,
    "long": -96.956353,
    "gmapsCategory": "Liquor store"
  },
  {
    "type": "Liquor",
    "name": "Hooch Handlebars",
    "lat": 33.4078492,
    "long": -96.9414082,
    "gmapsCategory": "Store"
  },
  {
    "type": "Liquor",
    "name": "Chaparral Liquor Store",
    "lat": 33.297869,
    "long": -96.9836465,
    "gmapsCategory": "Liquor store"
  },
  {
    "type": "Liquor",
    "name": "Sanger Sportsman Liquor",
    "lat": 33.3920991,
    "long": -97.1756167,
    "gmapsCategory": "Liquor store"
  },
  {
    "type": "Liquor",
    "name": "LIQUOR VILLA SANGER",
    "lat": 33.3585336,
    "long": -97.2457118,
    "gmapsCategory": "Liquor store"
  },
  {
    "type": "Liquor",
    "name": "Kiowa Spirits",
    "lat": 33.5571465,
    "long": -97.0200661,
    "gmapsCategory": "Liquor store"
  },
  {
    "type": "Liquor",
    "name": "COLLINSVILLE LIQUOR",
    "lat": 33.5671857,
    "long": -96.9117783,
    "gmapsCategory": "Liquor store"
  },
  {
    "type": "Liquor",
    "name": "Crossroads Liquor",
    "lat": 33.6412946,
    "long": -97.1532597,
    "gmapsCategory": "Liquor store"
  },
  {
    "type": "Liquor",
    "name": "Red River Liquor",
    "lat": 33.6349798,
    "long": -97.1540917,
    "gmapsCategory": "Liquor store"
  },
  {
    "type": "Liquor",
    "name": "Grand Central Liquor",
    "lat": 33.6245841,
    "long": -97.1329685,
    "gmapsCategory": "Liquor store"
  },
  {
    "type": "Liquor",
    "name": "Still On the Corner",
    "lat": 33.6240417,
    "long": -97.1347051,
    "gmapsCategory": "Liquor store"
  },
  {
    "type": "Liquor",
    "name": "Pit Stop Liquor",
    "lat": 33.628565,
    "long": -97.1545546,
    "gmapsCategory": "Liquor store"
  },
  {
    "type": "Liquor",
    "name": "George s Liquor",
    "lat": 33.6432681,
    "long": -97.1110819,
    "gmapsCategory": "Liquor store"
  },
  {
    "type": "Liquor",
    "name": "Eagle liquor",
    "lat": 33.6370521,
    "long": -97.1328734,
    "gmapsCategory": "Liquor store"
  },
  {
    "type": "Liquor",
    "name": "Apollo Liquor",
    "lat": 33.6381454,
    "long": -97.1338168,
    "gmapsCategory": "Liquor store"
  },
  {
    "type": "Liquor",
    "name": "Grand Liquor",
    "lat": 33.673439,
    "long": -96.905487,
    "gmapsCategory": "Liquor store"
  },
  {
    "type": "Liquor",
    "name": "Whitesboro Liquor",
    "lat": 33.6748595,
    "long": -96.9054232,
    "gmapsCategory": "Liquor store"
  },
  {
    "type": "Liquor",
    "name": "Happy Liquor Beer and Wine",
    "lat": 33.6678562,
    "long": -96.9055577,
    "gmapsCategory": "Liquor store"
  },
  {
    "type": "Liquor",
    "name": "Lakeway Liquor",
    "lat": 33.650088,
    "long": -97.03672,
    "gmapsCategory": "Liquor store"
  },
  {
    "type": "Liquor",
    "name": "L W s Cut Rate Liquor Beer",
    "lat": 33.6417942,
    "long": -97.2176841,
    "gmapsCategory": "Liquor store"
  },
  {
    "type": "Liquor",
    "name": "RED RIVER STOP MOBIL ",
    "lat": 33.6351852,
    "long": -97.1542339,
    "gmapsCategory": ""
  },
  {
    "type": "Liquor",
    "name": "Lama",
    "lat": 33.6411477,
    "long": -97.153053,
    "gmapsCategory": "Convenience store"
  },
  {
    "type": "Liquor",
    "name": "Grand Central C store",
    "lat": 33.6245185,
    "long": -97.1331194,
    "gmapsCategory": "Convenience store"
  },
  {
    "type": "Liquor",
    "name": "Shorty s Corner Grocery",
    "lat": 33.795017,
    "long": -97.1436543,
    "gmapsCategory": "Convenience store"
  },
  {
    "type": "Liquor",
    "name": "Traditions Spirits",
    "lat": 33.7639503,
    "long": -97.1275787,
    "gmapsCategory": "Traditions Spirits"
  },
  {
    "type": "Liquor",
    "name": "Allsup s Convenience Store",
    "lat": 33.794605,
    "long": -97.1383998,
    "gmapsCategory": "Convenience store"
  },
  {
    "type": "Liquor",
    "name": "Loco Joe s",
    "lat": 33.9391746,
    "long": -97.1265339,
    "gmapsCategory": "Liquor store"
  },
  {
    "type": "Liquor",
    "name": "Last Call Liquor Store",
    "lat": 33.9410213,
    "long": -97.1292707,
    "gmapsCategory": "Liquor store"
  },
  {
    "type": "Liquor",
    "name": "E Z Mart",
    "lat": 33.937208,
    "long": -97.126642,
    "gmapsCategory": "Convenience store"
  },
  {
    "type": "Liquor",
    "name": "Corner Carry Out",
    "lat": 33.937782,
    "long": -97.1193451,
    "gmapsCategory": "Convenience store"
  },
  {
    "type": "Liquor",
    "name": "Blue Ostrich Winery Vineyard",
    "lat": 33.7838935,
    "long": -97.4425354,
    "gmapsCategory": "Store"
  },
  {
    "type": "Liquor",
    "name": "Arch C A Winery Vineyard",
    "lat": 33.775576,
    "long": -97.5101499,
    "gmapsCategory": "Winery"
  },
  {
    "type": "Liquor",
    "name": "Chickasaw Travel Stop",
    "lat": 33.7361191,
    "long": -97.1441414,
    "gmapsCategory": ""
  },
  {
    "type": "Liquor",
    "name": "Cowboys Indians Spirits Etc",
    "lat": 34.172076,
    "long": -97.4152361,
    "gmapsCategory": "Liquor store"
  },
  {
    "type": "Liquor",
    "name": "Lone Grove Liquor Store",
    "lat": 34.1731491,
    "long": -97.2663116,
    "gmapsCategory": "Liquor store"
  },
  {
    "type": "Liquor",
    "name": "Hot Rod Liquor",
    "lat": 34.1722818,
    "long": -97.2298385,
    "gmapsCategory": "Liquor store"
  }
]