[
  {
    "type": "Liquor",
    "name": "Bourbon Wine Spirits",
    "lat": 38.759675,
    "long": -121.308086,
    "gmapsCategory": "Liquor store"
  },
  {
    "type": "Liquor",
    "name": "Manns Liquor",
    "lat": 38.7139541,
    "long": -121.2899734,
    "gmapsCategory": "Liquor store"
  },
  {
    "type": "Liquor",
    "name": "Bourbons More",
    "lat": 38.7868502,
    "long": -121.2513376,
    "gmapsCategory": "Liquor store"
  },
  {
    "type": "Liquor",
    "name": "Smart Stop Liquor",
    "lat": 38.7621035,
    "long": -121.3126766,
    "gmapsCategory": "Liquor store"
  },
  {
    "type": "Liquor",
    "name": "Bourbons More Liquors Cigars",
    "lat": 38.7452539,
    "long": -121.2646165,
    "gmapsCategory": "Liquor store"
  },
  {
    "type": "Liquor",
    "name": "Barrel Liquor",
    "lat": 38.7959473,
    "long": -121.2659899,
    "gmapsCategory": "Liquor store"
  },
  {
    "type": "Liquor",
    "name": "DISCOUNT MARKET LIQUOR",
    "lat": 38.7448113,
    "long": -121.2671195,
    "gmapsCategory": "Liquor store"
  },
  {
    "type": "Liquor",
    "name": "Rocklin Bottle Shop",
    "lat": 38.7879101,
    "long": -121.2067137,
    "gmapsCategory": "Liquor store"
  },
  {
    "type": "Liquor",
    "name": "Towne Mart C Liquor Citrus Heights",
    "lat": 38.71578,
    "long": -121.290867,
    "gmapsCategory": "Liquor store"
  },
  {
    "type": "Liquor",
    "name": "Fine Wine Liquor",
    "lat": 38.74494,
    "long": -121.307818,
    "gmapsCategory": "Liquor store"
  },
  {
    "type": "Liquor",
    "name": "Norcal Bottle Shop",
    "lat": 38.7967858,
    "long": -121.291291,
    "gmapsCategory": "Liquor store"
  },
  {
    "type": "Liquor",
    "name": "Liquor locker",
    "lat": 38.736465,
    "long": -121.289668,
    "gmapsCategory": "Liquor store"
  },
  {
    "type": "Liquor",
    "name": "Total Wine More",
    "lat": 38.7816042,
    "long": -121.271665,
    "gmapsCategory": "Liquor store"
  },
  {
    "type": "Liquor",
    "name": "Bottles Up",
    "lat": 38.7017065,
    "long": -121.290811,
    "gmapsCategory": "Liquor store"
  },
  {
    "type": "Liquor",
    "name": "Speakezz Wine Spirits",
    "lat": 38.7852752,
    "long": -121.2407676,
    "gmapsCategory": "Liquor store"
  },
  {
    "type": "Liquor",
    "name": "Sunset Mart",
    "lat": 38.7920965,
    "long": -121.2617184,
    "gmapsCategory": "Liquor store"
  },
  {
    "type": "Liquor",
    "name": "Save Mart Liquor",
    "lat": 38.7084058,
    "long": -121.2727685,
    "gmapsCategory": "Liquor store"
  },
  {
    "type": "Liquor",
    "name": "Mariposa Market",
    "lat": 38.7069645,
    "long": -121.2810026,
    "gmapsCategory": "Liquor store"
  },
  {
    "type": "Liquor",
    "name": "STOP AND SHOP LIQUOR",
    "lat": 38.7298121,
    "long": -121.3001027,
    "gmapsCategory": "Liquor store"
  },
  {
    "type": "Liquor",
    "name": "BevMo ",
    "lat": 38.7429427,
    "long": -121.2505866,
    "gmapsCategory": "Wine store"
  },
  {
    "type": "Liquor",
    "name": "Sam s Liquor Food",
    "lat": 38.7210604,
    "long": -121.2896784,
    "gmapsCategory": "Liquor store"
  },
  {
    "type": "Liquor",
    "name": "Ez Mart Liquor",
    "lat": 38.7081447,
    "long": -121.2712332,
    "gmapsCategory": "Liquor store"
  },
  {
    "type": "Liquor",
    "name": " k Beers Liquor Store",
    "lat": 38.7030058,
    "long": -121.2947444,
    "gmapsCategory": "Liquor store"
  },
  {
    "type": "Liquor",
    "name": "Summer Hill Liquor Market",
    "lat": 38.7066455,
    "long": -121.3133049,
    "gmapsCategory": "Liquor store"
  },
  {
    "type": "Liquor",
    "name": "Rose Food Liquor",
    "lat": 38.7489003,
    "long": -121.2704769,
    "gmapsCategory": "Liquor store"
  },
  {
    "type": "Liquor",
    "name": "Roseville Market",
    "lat": 38.7289763,
    "long": -121.3128497,
    "gmapsCategory": "Liquor store"
  },
  {
    "type": "Liquor",
    "name": "Stop Go Liquor",
    "lat": 38.7888989,
    "long": -121.2245839,
    "gmapsCategory": "Liquor store"
  },
  {
    "type": "Liquor",
    "name": "Quick Mart Liquor",
    "lat": 38.730359,
    "long": -121.2733338,
    "gmapsCategory": "Liquor store"
  },
  {
    "type": "Liquor",
    "name": "BevMo ",
    "lat": 38.7886817,
    "long": -121.2837775,
    "gmapsCategory": "Wine store"
  },
  {
    "type": "Liquor",
    "name": "Final Gravity Taproom Bottleshop",
    "lat": 38.736331,
    "long": -121.225163,
    "gmapsCategory": "Bar"
  },
  {
    "type": "Liquor",
    "name": "Aery E s Gas Liquor",
    "lat": 38.7902135,
    "long": -121.2357331,
    "gmapsCategory": "Liquor store"
  },
  {
    "type": "Liquor",
    "name": "Beyond the Fig",
    "lat": 38.7895948,
    "long": -121.2327902,
    "gmapsCategory": "Wine store"
  },
  {
    "type": "Liquor",
    "name": "Urban Market More",
    "lat": 38.8065062,
    "long": -121.2739862,
    "gmapsCategory": "Liquor store"
  },
  {
    "type": "Liquor",
    "name": "Capitol Cellars",
    "lat": 38.7430763,
    "long": -121.197792,
    "gmapsCategory": "Wine store"
  },
  {
    "type": "Liquor",
    "name": "J B Liquor",
    "lat": 38.6939122,
    "long": -121.2895872,
    "gmapsCategory": "Liquor store"
  },
  {
    "type": "Liquor",
    "name": "Trader Joe s",
    "lat": 38.787622,
    "long": -121.2816807,
    "gmapsCategory": "Liquor store"
  },
  {
    "type": "Liquor",
    "name": "Oak Wine and Spirits",
    "lat": 38.6992107,
    "long": -121.1918804,
    "gmapsCategory": "Liquor store"
  },
  {
    "type": "Liquor",
    "name": "Stop One Liquor",
    "lat": 38.6950327,
    "long": -121.3605843,
    "gmapsCategory": "Liquor store"
  },
  {
    "type": "Liquor",
    "name": "Tony s Liquors Deli",
    "lat": 38.6924144,
    "long": -121.2698863,
    "gmapsCategory": "Liquor store"
  },
  {
    "type": "Liquor",
    "name": "Town Mart Liquor Gas",
    "lat": 38.6971811,
    "long": -121.3360033,
    "gmapsCategory": "Liquor store"
  },
  {
    "type": "Liquor",
    "name": "Porter s House of Draft",
    "lat": 38.7708816,
    "long": -121.3143463,
    "gmapsCategory": "\"50% off a bottle of wine and we rolled out of there happy!\""
  },
  {
    "type": "Liquor",
    "name": "Beyond The Fig Wine Merchants",
    "lat": 38.792686,
    "long": -121.2343224,
    "gmapsCategory": "Liquor store"
  },
  {
    "type": "Liquor",
    "name": "Antelope Liquors",
    "lat": 38.7148049,
    "long": -121.3941317,
    "gmapsCategory": "Liquor store"
  },
  {
    "type": "Liquor",
    "name": "Chevron",
    "lat": 38.7489672,
    "long": -121.2705396,
    "gmapsCategory": "Liquor store"
  },
  {
    "type": "Liquor",
    "name": "Safeway Liquor",
    "lat": 38.8031932,
    "long": -121.2744408,
    "gmapsCategory": "Liquor store"
  },
  {
    "type": "Liquor",
    "name": "Liquor Video Center",
    "lat": 38.6966965,
    "long": -121.3641207,
    "gmapsCategory": "Liquor store"
  },
  {
    "type": "Liquor",
    "name": "Loop Neighborhood Market",
    "lat": 38.7992119,
    "long": -121.2049114,
    "gmapsCategory": "Convenience store"
  },
  {
    "type": "Liquor",
    "name": "Rose Liquor Food Gas",
    "lat": 38.743546,
    "long": -121.2908067,
    "gmapsCategory": "Rose Liquor Food & Gas"
  },
  {
    "type": "Liquor",
    "name": "Discount Liquor",
    "lat": 38.6883146,
    "long": -121.3424742,
    "gmapsCategory": "Liquor store"
  },
  {
    "type": "Liquor",
    "name": " Eleven",
    "lat": 38.7504284,
    "long": -121.2642908,
    "gmapsCategory": "Convenience store"
  },
  {
    "type": "Liquor",
    "name": "Stonetree Liquor Food",
    "lat": 38.8155986,
    "long": -121.1992245,
    "gmapsCategory": "Liquor store"
  },
  {
    "type": "Liquor",
    "name": "Trader Joe s",
    "lat": 38.8028703,
    "long": -121.209243,
    "gmapsCategory": "Liquor store"
  },
  {
    "type": "Liquor",
    "name": " Eleven",
    "lat": 38.7077609,
    "long": -121.3150675,
    "gmapsCategory": "Convenience store"
  },
  {
    "type": "Liquor",
    "name": "Double Shot Liquor",
    "lat": 38.6803134,
    "long": -121.320336,
    "gmapsCategory": "Liquor store"
  },
  {
    "type": "Liquor",
    "name": "Citrus Heights Bottle Shop",
    "lat": 38.6777923,
    "long": -121.3196189,
    "gmapsCategory": "Liquor store"
  },
  {
    "type": "Liquor",
    "name": "Trader Joe s",
    "lat": 38.7462886,
    "long": -121.274886,
    "gmapsCategory": "Liquor store"
  },
  {
    "type": "Liquor",
    "name": "Safeway Liquor",
    "lat": 38.7901121,
    "long": -121.2218253,
    "gmapsCategory": "Liquor store"
  },
  {
    "type": "Liquor",
    "name": "BOSS LIQUOR",
    "lat": 38.6898329,
    "long": -121.3843034,
    "gmapsCategory": "Liquor store"
  },
  {
    "type": "Liquor",
    "name": "Safeway Liquor",
    "lat": 38.7310517,
    "long": -121.2716454,
    "gmapsCategory": "Liquor store"
  },
  {
    "type": "Liquor",
    "name": "Safeway Liquor",
    "lat": 38.7777022,
    "long": -121.2916536,
    "gmapsCategory": "Grocery store"
  },
  {
    "type": "Liquor",
    "name": "Safeway Liquor",
    "lat": 38.7420936,
    "long": -121.2285124,
    "gmapsCategory": "Liquor store"
  },
  {
    "type": "Liquor",
    "name": "Lou s Liquors Food",
    "lat": 38.677735,
    "long": -121.2092036,
    "gmapsCategory": "Liquor store"
  },
  {
    "type": "Liquor",
    "name": "Amazon Fresh",
    "lat": 38.7808473,
    "long": -121.2706047,
    "gmapsCategory": "Grocery store"
  },
  {
    "type": "Liquor",
    "name": " ",
    "lat": 38.78143,
    "long": -121.26518,
    "gmapsCategory": "Liquor store"
  },
  {
    "type": "Liquor",
    "name": "Folsom Wine and Spirits",
    "lat": 38.6855352,
    "long": -121.179186,
    "gmapsCategory": "Wine store"
  },
  {
    "type": "Liquor",
    "name": " Eleven",
    "lat": 38.7298761,
    "long": -121.271645,
    "gmapsCategory": "Convenience store"
  },
  {
    "type": "Liquor",
    "name": "Safeway Liquor",
    "lat": 38.7940236,
    "long": -121.330675,
    "gmapsCategory": "Liquor store"
  },
  {
    "type": "Liquor",
    "name": " Eleven",
    "lat": 38.7019045,
    "long": -121.3313459,
    "gmapsCategory": "Convenience store"
  },
  {
    "type": "Liquor",
    "name": " Eleven",
    "lat": 38.7358892,
    "long": -121.2911122,
    "gmapsCategory": "Convenience store"
  },
  {
    "type": "Liquor",
    "name": " Eleven",
    "lat": 38.7268612,
    "long": -121.2509339,
    "gmapsCategory": "Convenience store"
  },
  {
    "type": "Liquor",
    "name": "BevMo ",
    "lat": 38.6799098,
    "long": -121.2703259,
    "gmapsCategory": "Wine store"
  },
  {
    "type": "Liquor",
    "name": " Eleven",
    "lat": 38.7730251,
    "long": -121.2651772,
    "gmapsCategory": "Convenience store"
  },
  {
    "type": "Liquor",
    "name": "SR Food Liquor",
    "lat": 38.7037743,
    "long": -121.3835043,
    "gmapsCategory": "Liquor store"
  },
  {
    "type": "Liquor",
    "name": " Eleven",
    "lat": 38.7223803,
    "long": -121.2911864,
    "gmapsCategory": "Convenience store"
  },
  {
    "type": "Liquor",
    "name": " Stop Food Liquor",
    "lat": 38.6806366,
    "long": -121.2018639,
    "gmapsCategory": "Liquor store"
  },
  {
    "type": "Liquor",
    "name": " Eleven",
    "lat": 38.7289868,
    "long": -121.2927645,
    "gmapsCategory": "Convenience store"
  },
  {
    "type": "Liquor",
    "name": "Bennett s Kitchen Bar Market",
    "lat": 38.7489094,
    "long": -121.246665,
    "gmapsCategory": "Bennett's Kitchen Bar Market"
  },
  {
    "type": "Liquor",
    "name": " Eleven",
    "lat": 38.7516148,
    "long": -121.2879026,
    "gmapsCategory": "Convenience store"
  },
  {
    "type": "Liquor",
    "name": " Eleven",
    "lat": 38.7952684,
    "long": -121.2646591,
    "gmapsCategory": "Convenience store"
  },
  {
    "type": "Liquor",
    "name": "Joe s Liquor and Food",
    "lat": 38.6779697,
    "long": -121.2819021,
    "gmapsCategory": "Liquor store"
  },
  {
    "type": "Liquor",
    "name": "Orangevale Food and Liquor",
    "lat": 38.6780216,
    "long": -121.2238639,
    "gmapsCategory": "Liquor store"
  },
  {
    "type": "Liquor",
    "name": "Woody s Market Deli Liquor",
    "lat": 38.8254928,
    "long": -121.1932326,
    "gmapsCategory": "Liquor store"
  },
  {
    "type": "Liquor",
    "name": "Lakeside Beverages",
    "lat": 38.7427954,
    "long": -121.1680287,
    "gmapsCategory": "Liquor store"
  },
  {
    "type": "Liquor",
    "name": "Discount Liquor Mini Mart",
    "lat": 38.6804851,
    "long": -121.2919755,
    "gmapsCategory": "Liquor store"
  },
  {
    "type": "Liquor",
    "name": "CVS",
    "lat": 38.7656383,
    "long": -121.3576623,
    "gmapsCategory": "Liquor store"
  },
  {
    "type": "Liquor",
    "name": " Eleven",
    "lat": 38.7960048,
    "long": -121.2894039,
    "gmapsCategory": "Convenience store"
  },
  {
    "type": "Liquor",
    "name": " Eleven",
    "lat": 38.7809116,
    "long": -121.2420723,
    "gmapsCategory": "Convenience store"
  },
  {
    "type": "Liquor",
    "name": "Jersey s Food Liquor",
    "lat": 38.7013169,
    "long": -121.382416,
    "gmapsCategory": "Liquor store"
  },
  {
    "type": "Liquor",
    "name": "Liquor Food",
    "lat": 38.6801333,
    "long": -121.3181446,
    "gmapsCategory": "Liquor store"
  },
  {
    "type": "Liquor",
    "name": "Shell",
    "lat": 38.798502,
    "long": -121.204958,
    "gmapsCategory": "Liquor store"
  },
  {
    "type": "Liquor",
    "name": "OAK LIQUOR CRAFT",
    "lat": 38.6493573,
    "long": -121.3070748,
    "gmapsCategory": "Liquor store"
  },
  {
    "type": "Liquor",
    "name": "CVS",
    "lat": 38.7608623,
    "long": -121.3112667,
    "gmapsCategory": "Liquor store"
  },
  {
    "type": "Liquor",
    "name": " Liquors",
    "lat": 38.6693343,
    "long": -121.3832191,
    "gmapsCategory": "Liquor store"
  },
  {
    "type": "Liquor",
    "name": "Ernie s Liquor Wine",
    "lat": 38.6727395,
    "long": -121.3579381,
    "gmapsCategory": "Liquor store"
  },
  {
    "type": "Liquor",
    "name": "Steve s Liquor Food",
    "lat": 38.6807259,
    "long": -121.3645571,
    "gmapsCategory": "Liquor store"
  },
  {
    "type": "Liquor",
    "name": "Mr Liquor",
    "lat": 38.6641787,
    "long": -121.2748255,
    "gmapsCategory": "Liquor store"
  },
  {
    "type": "Liquor",
    "name": "Folsom Lake Wine Spirits",
    "lat": 38.7065183,
    "long": -121.1702071,
    "gmapsCategory": "Liquor store"
  },
  {
    "type": "Liquor",
    "name": "B s Wine Liquor",
    "lat": 38.6648398,
    "long": -121.2608037,
    "gmapsCategory": "Liquor store"
  },
  {
    "type": "Liquor",
    "name": "CVS",
    "lat": 38.79079,
    "long": -121.2213191,
    "gmapsCategory": "Liquor store"
  },
  {
    "type": "Liquor",
    "name": "CVS",
    "lat": 38.7298464,
    "long": -121.2274995,
    "gmapsCategory": "Liquor store"
  },
  {
    "type": "Liquor",
    "name": "Save More Liquor Foods",
    "lat": 38.6738854,
    "long": -121.2019212,
    "gmapsCategory": "Liquor store"
  },
  {
    "type": "Liquor",
    "name": "L M Liquors",
    "lat": 38.6782158,
    "long": -121.2287916,
    "gmapsCategory": "Liquor store"
  },
  {
    "type": "Liquor",
    "name": "Empire Food And Liquor",
    "lat": 38.6778094,
    "long": -121.2958144,
    "gmapsCategory": "Liquor store"
  },
  {
    "type": "Liquor",
    "name": "Curry Pizza House Roseville",
    "lat": 38.7430046,
    "long": -121.2283549,
    "gmapsCategory": ""
  },
  {
    "type": "Liquor",
    "name": "Save Mart Liquor Food",
    "lat": 38.6524411,
    "long": -121.2648573,
    "gmapsCategory": "Liquor store"
  },
  {
    "type": "Liquor",
    "name": "Art s Liquor",
    "lat": 38.6597609,
    "long": -121.327781,
    "gmapsCategory": "Liquor store"
  },
  {
    "type": "Liquor",
    "name": "OM DELI",
    "lat": 38.6572952,
    "long": -121.3513769,
    "gmapsCategory": "Liquor store"
  },
  {
    "type": "Liquor",
    "name": "Sunrise Food and Liquor",
    "lat": 38.6195301,
    "long": -121.2672216,
    "gmapsCategory": "Liquor store"
  },
  {
    "type": "Liquor",
    "name": "Five Star Liquor",
    "lat": 38.674289,
    "long": -121.1671,
    "gmapsCategory": "Liquor store"
  },
  {
    "type": "Liquor",
    "name": "SP Liquors Food",
    "lat": 38.6498561,
    "long": -121.3578016,
    "gmapsCategory": "Liquor store"
  },
  {
    "type": "Liquor",
    "name": "Village market",
    "lat": 38.6409332,
    "long": -121.2715466,
    "gmapsCategory": "Liquor store"
  },
  {
    "type": "Liquor",
    "name": "Farmers Country Market and Recycling center",
    "lat": 38.6780693,
    "long": -121.281615,
    "gmapsCategory": "Liquor store"
  },
  {
    "type": "Liquor",
    "name": "Sam s Club",
    "lat": 38.7866291,
    "long": -121.288305,
    "gmapsCategory": "Liquor store"
  },
  {
    "type": "Liquor",
    "name": "Saver Liquor Food",
    "lat": 38.6619081,
    "long": -121.3731131,
    "gmapsCategory": "Liquor store"
  },
  {
    "type": "Liquor",
    "name": "One Stop Food Liquor",
    "lat": 38.6781217,
    "long": -121.2344355,
    "gmapsCategory": "Liquor store"
  },
  {
    "type": "Liquor",
    "name": "Mike s Liquor",
    "lat": 38.6707105,
    "long": -121.3606713,
    "gmapsCategory": "Liquor store"
  },
  {
    "type": "Liquor",
    "name": "Stop and Shop",
    "lat": 38.661512,
    "long": -121.363018,
    "gmapsCategory": "Liquor store"
  },
  {
    "type": "Liquor",
    "name": "Santa Fe Liquor Market",
    "lat": 38.6734459,
    "long": -121.368737,
    "gmapsCategory": "Liquor store"
  },
  {
    "type": "Liquor",
    "name": "G G Food Liquor",
    "lat": 38.6389841,
    "long": -121.2783373,
    "gmapsCategory": "Liquor store"
  },
  {
    "type": "Liquor",
    "name": "M B Cordova Liquors",
    "lat": 38.5986855,
    "long": -121.2849662,
    "gmapsCategory": "Liquor store"
  },
  {
    "type": "Liquor",
    "name": "Raley s O N E Market",
    "lat": 38.7930405,
    "long": -121.3567757,
    "gmapsCategory": "Grocery store"
  },
  {
    "type": "Liquor",
    "name": "Sun City Market Spirits",
    "lat": 38.8708,
    "long": -121.274641,
    "gmapsCategory": "Convenience store"
  },
  {
    "type": "Liquor",
    "name": "Zebra Town Liquor Deli",
    "lat": 38.8863585,
    "long": -121.2930897,
    "gmapsCategory": "Liquor store"
  },
  {
    "type": "Liquor",
    "name": "Lincoln Food Mart",
    "lat": 38.890775,
    "long": -121.2847265,
    "gmapsCategory": "Convenience store"
  },
  {
    "type": "Liquor",
    "name": "Full Stop Market ",
    "lat": 38.891578,
    "long": -121.291048,
    "gmapsCategory": "Grocery store"
  },
  {
    "type": "Liquor",
    "name": "Safeway Liquor",
    "lat": 38.8791648,
    "long": -121.2950455,
    "gmapsCategory": "Liquor store"
  },
  {
    "type": "Liquor",
    "name": "Tobacco Shop",
    "lat": 38.8874308,
    "long": -121.312379,
    "gmapsCategory": ""
  },
  {
    "type": "Liquor",
    "name": " Eleven",
    "lat": 38.8895161,
    "long": -121.2932577,
    "gmapsCategory": "Convenience store"
  },
  {
    "type": "Liquor",
    "name": "Fast Pak Market",
    "lat": 38.8513638,
    "long": -121.1650687,
    "gmapsCategory": "Convenience store"
  },
  {
    "type": "Liquor",
    "name": "MV Bottle Store",
    "lat": 38.998101,
    "long": -121.0230726,
    "gmapsCategory": "Liquor store"
  },
  {
    "type": "Liquor",
    "name": "Auburn Liquor and Food",
    "lat": 38.921324,
    "long": -121.056465,
    "gmapsCategory": "Liquor store"
  },
  {
    "type": "Liquor",
    "name": "Dry Creek bottle Shop",
    "lat": 38.9578747,
    "long": -121.1007273,
    "gmapsCategory": "Liquor store"
  },
  {
    "type": "Liquor",
    "name": "Foothill Market",
    "lat": 38.9160212,
    "long": -121.0604114,
    "gmapsCategory": "Liquor store"
  },
  {
    "type": "Liquor",
    "name": "Super K Food Liquor",
    "lat": 38.9415174,
    "long": -121.0978025,
    "gmapsCategory": "Liquor store"
  },
  {
    "type": "Liquor",
    "name": "Atwood Liquor Deli",
    "lat": 38.9345618,
    "long": -121.0941182,
    "gmapsCategory": "Liquor store"
  },
  {
    "type": "Liquor",
    "name": "BevMo ",
    "lat": 38.9406218,
    "long": -121.0935496,
    "gmapsCategory": "Wine store"
  },
  {
    "type": "Liquor",
    "name": "Liquor Gas",
    "lat": 38.9568985,
    "long": -121.1009328,
    "gmapsCategory": "Liquor store"
  },
  {
    "type": "Liquor",
    "name": "Safeway Liquor",
    "lat": 38.9438959,
    "long": -121.0930042,
    "gmapsCategory": "Liquor store"
  },
  {
    "type": "Liquor",
    "name": "Penn Valley Market B Liquor",
    "lat": 39.1981981,
    "long": -121.1774795,
    "gmapsCategory": "Liquor store"
  },
  {
    "type": "Liquor",
    "name": "PV Smoke Vape",
    "lat": 39.1978799,
    "long": -121.1766364,
    "gmapsCategory": ""
  },
  {
    "type": "Liquor",
    "name": " Eleven",
    "lat": 39.2062307,
    "long": -121.2045895,
    "gmapsCategory": "Convenience store"
  },
  {
    "type": "Liquor",
    "name": "Bonanza Market",
    "lat": 39.2627404,
    "long": -121.0197986,
    "gmapsCategory": "Grocery store"
  },
  {
    "type": "Liquor",
    "name": "Carrington s Fine Wines",
    "lat": 39.2632724,
    "long": -121.0181103,
    "gmapsCategory": "Wine store"
  },
  {
    "type": "Liquor",
    "name": "Szabo Vineyards C Tasting Room",
    "lat": 39.2629367,
    "long": -121.0192931,
    "gmapsCategory": "Winery"
  },
  {
    "type": "Liquor",
    "name": "Holiday Market",
    "lat": 39.2235927,
    "long": -121.205052,
    "gmapsCategory": "Supermarket"
  },
  {
    "type": "Liquor",
    "name": "Alta Sierra Market",
    "lat": 39.1401938,
    "long": -121.0691675,
    "gmapsCategory": "Liquor store"
  },
  {
    "type": "Liquor",
    "name": "Alta Sierra Wine Shop",
    "lat": 39.1416808,
    "long": -121.0699899,
    "gmapsCategory": "Wine store"
  },
  {
    "type": "Liquor",
    "name": "Weimar Food Liquor",
    "lat": 39.0432538,
    "long": -120.9728967,
    "gmapsCategory": "Liquor store"
  },
  {
    "type": "Liquor",
    "name": "Colfax Market",
    "lat": 39.100633,
    "long": -120.953885,
    "gmapsCategory": "Liquor store"
  },
  {
    "type": "Liquor",
    "name": "Standlock Bottle Shop",
    "lat": 39.0962511,
    "long": -120.9483142,
    "gmapsCategory": "Liquor store"
  },
  {
    "type": "Liquor",
    "name": "Weimar Country Store",
    "lat": 39.0318548,
    "long": -120.9745267,
    "gmapsCategory": "Liquor store"
  },
  {
    "type": "Liquor",
    "name": "Applegate liquor store",
    "lat": 39.0015842,
    "long": -120.996053,
    "gmapsCategory": "Liquor store"
  },
  {
    "type": "Liquor",
    "name": "Fox Sparrow RV Resort and Campground",
    "lat": 38.936696,
    "long": -120.738895,
    "gmapsCategory": ""
  },
  {
    "type": "Liquor",
    "name": "Sips",
    "lat": 39.1722311,
    "long": -120.1402105,
    "gmapsCategory": "Liquor store"
  },
  {
    "type": "Liquor",
    "name": "Uncorked Tahoe City",
    "lat": 39.1707967,
    "long": -120.1422176,
    "gmapsCategory": "Wine bar"
  },
  {
    "type": "Liquor",
    "name": "Alice s Mountain Market",
    "lat": 39.1973339,
    "long": -120.2338704,
    "gmapsCategory": "Liquor store"
  },
  {
    "type": "Liquor",
    "name": " Eleven",
    "lat": 39.2063207,
    "long": -120.1994597,
    "gmapsCategory": "Convenience store"
  },
  {
    "type": "Liquor",
    "name": "Uncorked Olympic Valley",
    "lat": 39.1971929,
    "long": -120.2332313,
    "gmapsCategory": "Wine bar"
  },
  {
    "type": "Liquor",
    "name": "Kings Beach Liquor",
    "lat": 39.2356855,
    "long": -120.0208577,
    "gmapsCategory": "Liquor store"
  },
  {
    "type": "Liquor",
    "name": " Eleven",
    "lat": 39.2267941,
    "long": -120.0824435,
    "gmapsCategory": "Convenience store"
  },
  {
    "type": "Liquor",
    "name": "Copper Lane Cafe and Provisions",
    "lat": 39.2755967,
    "long": -120.121082,
    "gmapsCategory": "Grocery store"
  },
  {
    "type": "Liquor",
    "name": " Eleven",
    "lat": 39.2363414,
    "long": -120.0220573,
    "gmapsCategory": "Convenience store"
  },
  {
    "type": "Liquor",
    "name": "Safeway Liquor",
    "lat": 39.2393844,
    "long": -120.0339315,
    "gmapsCategory": "Liquor store"
  },
  {
    "type": "Liquor",
    "name": "North Lake Liquor",
    "lat": 39.2494352,
    "long": -119.9539896,
    "gmapsCategory": "Liquor store"
  },
  {
    "type": "Liquor",
    "name": "Incline Spirits Cigars",
    "lat": 39.2404245,
    "long": -119.9405713,
    "gmapsCategory": "Liquor store"
  },
  {
    "type": "Liquor",
    "name": "Cowboys Liquor",
    "lat": 39.1707117,
    "long": -119.76394,
    "gmapsCategory": "Liquor store"
  },
  {
    "type": "Liquor",
    "name": "Aloha Discount Wine Liquors",
    "lat": 39.1259148,
    "long": -119.7700367,
    "gmapsCategory": "Liquor store"
  },
  {
    "type": "Liquor",
    "name": "J M Discount Liquor",
    "lat": 39.1610401,
    "long": -119.7521253,
    "gmapsCategory": "Liquor store"
  },
  {
    "type": "Liquor",
    "name": "Fairview Food Mart",
    "lat": 39.1496806,
    "long": -119.7515793,
    "gmapsCategory": "Liquor store"
  },
  {
    "type": "Liquor",
    "name": "Carson Country Market",
    "lat": 39.0910303,
    "long": -119.7779096,
    "gmapsCategory": "Convenience store"
  },
  {
    "type": "Liquor",
    "name": "Rand Avenue Convenience Store",
    "lat": 39.1733067,
    "long": -119.749329,
    "gmapsCategory": "Convenience store"
  },
  {
    "type": "Liquor",
    "name": "HWY liquor Vape",
    "lat": 39.1487346,
    "long": -119.7655147,
    "gmapsCategory": "HWY 420 liquor & Vape"
  },
  {
    "type": "Liquor",
    "name": "Capital Beverages",
    "lat": 39.1496634,
    "long": -119.7420739,
    "gmapsCategory": ""
  },
  {
    "type": "Liquor",
    "name": "The Beer Studio",
    "lat": 39.1558659,
    "long": -119.7660143,
    "gmapsCategory": "Beer store"
  },
  {
    "type": "Liquor",
    "name": "Eagle Valley Market",
    "lat": 39.1687488,
    "long": -119.7245214,
    "gmapsCategory": "Grocery store"
  },
  {
    "type": "Liquor",
    "name": "Gas Liquor",
    "lat": 39.2375207,
    "long": -119.5896022,
    "gmapsCategory": "Liquor store"
  },
  {
    "type": "Liquor",
    "name": "Dayton Valley Corner Store",
    "lat": 39.2428818,
    "long": -119.5670006,
    "gmapsCategory": "General store"
  },
  {
    "type": "Liquor",
    "name": "V City Mart Gas Liquor Grocery",
    "lat": 39.3157201,
    "long": -119.6475275,
    "gmapsCategory": "V City Mart Gas Liquor & Grocery"
  },
  {
    "type": "Liquor",
    "name": "Friends Liquor Market",
    "lat": 39.40796,
    "long": -119.2260958,
    "gmapsCategory": "Liquor store"
  },
  {
    "type": "Liquor",
    "name": "Fifi Mini Market",
    "lat": 39.3498191,
    "long": -119.238449,
    "gmapsCategory": "Liquor store"
  },
  {
    "type": "Liquor",
    "name": "Sierra Discount Market",
    "lat": 39.5937424,
    "long": -119.2497766,
    "gmapsCategory": "Liquor store"
  },
  {
    "type": "Liquor",
    "name": "Fox Peak Station",
    "lat": 39.5976654,
    "long": -119.1962877,
    "gmapsCategory": "Convenience store"
  },
  {
    "type": "Liquor",
    "name": "Chevron",
    "lat": 39.5976767,
    "long": -119.1967294,
    "gmapsCategory": ""
  },
  {
    "type": "Liquor",
    "name": "Best Value Liquor Smoke",
    "lat": 39.6072233,
    "long": -119.2515033,
    "gmapsCategory": "Liquor store"
  },
  {
    "type": "Liquor",
    "name": "Fernley Liquor Smoke",
    "lat": 39.6076943,
    "long": -119.2431554,
    "gmapsCategory": "Liquor store"
  },
  {
    "type": "Liquor",
    "name": "The Canal Wine Lounge",
    "lat": 39.5997732,
    "long": -119.2149847,
    "gmapsCategory": "Wine bar"
  },
  {
    "type": "Liquor",
    "name": "Walmart Wine and Liquor",
    "lat": 39.6112522,
    "long": -119.2167979,
    "gmapsCategory": "Liquor store"
  },
  {
    "type": "Liquor",
    "name": " Eleven",
    "lat": 39.6043604,
    "long": -119.232869,
    "gmapsCategory": "Convenience store"
  },
  {
    "type": "Liquor",
    "name": "Comstock Distillers",
    "lat": 39.6702923,
    "long": -119.7068767,
    "gmapsCategory": "Store"
  },
  {
    "type": "Liquor",
    "name": "Breakthru Beverage Nevada Reno",
    "lat": 39.673546,
    "long": -119.7136445,
    "gmapsCategory": ""
  }
]