[
  {
    "type": "Bar",
    "name": "House Divided",
    "lat": 38.7512339,
    "long": -121.2850689,
    "gmapsCategory": "Bar"
  },
  {
    "type": "Bar",
    "name": "Phat Chad s",
    "lat": 38.7119167,
    "long": -121.2914338,
    "gmapsCategory": "Bar"
  },
  {
    "type": "Bar",
    "name": "West House Tavern Nightclub",
    "lat": 38.7494403,
    "long": -121.2843374,
    "gmapsCategory": "Bar"
  },
  {
    "type": "Bar",
    "name": "The Glass Turtle",
    "lat": 38.7320313,
    "long": -121.2714427,
    "gmapsCategory": "Bar"
  },
  {
    "type": "Bar",
    "name": "The Blue Parrot Lounge",
    "lat": 38.7771682,
    "long": -121.2636566,
    "gmapsCategory": ""
  },
  {
    "type": "Bar",
    "name": "Bar Eats Drinks",
    "lat": 38.7518389,
    "long": -121.2854778,
    "gmapsCategory": "Bar 101 Eats & Drinks"
  },
  {
    "type": "Bar",
    "name": "Almond Tree Grill Lounge",
    "lat": 38.7486111,
    "long": -121.2694472,
    "gmapsCategory": "Easygoing fixture for drinks & bar food"
  },
  {
    "type": "Bar",
    "name": "The Trocadero Club",
    "lat": 38.7513056,
    "long": -121.2855722,
    "gmapsCategory": "Bar"
  },
  {
    "type": "Bar",
    "name": "ONYX CLUB",
    "lat": 38.7521048,
    "long": -121.2858281,
    "gmapsCategory": "Bar"
  },
  {
    "type": "Bar",
    "name": "Loree s Little Shack by the Railroad Track",
    "lat": 38.7950424,
    "long": -121.2324412,
    "gmapsCategory": "\"It’s also a cool dive bar with hella tequila choices and pool and karaoke.\""
  },
  {
    "type": "Bar",
    "name": "Final Gravity Taproom Bottleshop",
    "lat": 38.736331,
    "long": -121.225163,
    "gmapsCategory": "Bar"
  },
  {
    "type": "Bar",
    "name": "Mandango s Sports Bar Grill",
    "lat": 38.7447903,
    "long": -121.2670154,
    "gmapsCategory": "Mandango's Sports Bar & Grill"
  },
  {
    "type": "Bar",
    "name": "Corner Pocket Sports Bar",
    "lat": 38.7061672,
    "long": -121.2731805,
    "gmapsCategory": "Sports bar"
  },
  {
    "type": "Bar",
    "name": "Sully s Bar Grill",
    "lat": 38.8004211,
    "long": -121.2244016,
    "gmapsCategory": "Sports pub with spirits, eats & pool"
  },
  {
    "type": "Bar",
    "name": "Owl Club",
    "lat": 38.751406,
    "long": -121.285411,
    "gmapsCategory": "Bar"
  },
  {
    "type": "Bar",
    "name": "The Trax Taproom and Kitchen",
    "lat": 38.7480428,
    "long": -121.2854742,
    "gmapsCategory": "Bar"
  },
  {
    "type": "Bar",
    "name": "The One Spot",
    "lat": 38.8034673,
    "long": -121.2950358,
    "gmapsCategory": "Bar"
  },
  {
    "type": "Bar",
    "name": "Rocky s Club",
    "lat": 38.700991,
    "long": -121.2900388,
    "gmapsCategory": "Bar"
  },
  {
    "type": "Bar",
    "name": "Porter s House of Draft",
    "lat": 38.7708816,
    "long": -121.3143463,
    "gmapsCategory": "\"Good selection of beer, friendly bartenders, good food, good vibes.\""
  },
  {
    "type": "Bar",
    "name": "The Brass Tap",
    "lat": 38.8009287,
    "long": -121.2089299,
    "gmapsCategory": "Bar"
  },
  {
    "type": "Bar",
    "name": "Score Board",
    "lat": 38.7057628,
    "long": -121.2908829,
    "gmapsCategory": "Bar"
  },
  {
    "type": "Bar",
    "name": "House of Oliver",
    "lat": 38.7432363,
    "long": -121.2272424,
    "gmapsCategory": "Chic wine bar featuring live music"
  },
  {
    "type": "Bar",
    "name": "The Boxing Donkey Irish Pub Restaurant",
    "lat": 38.751216,
    "long": -121.2843457,
    "gmapsCategory": "Laid-back spot for bar fare & beers"
  },
  {
    "type": "Bar",
    "name": "Corner Spot Karaoke LeCafe",
    "lat": 38.7056813,
    "long": -121.3138464,
    "gmapsCategory": "Karaoke bar"
  },
  {
    "type": "Bar",
    "name": "Root of Happiness Kava Bar C Roseville",
    "lat": 38.7495219,
    "long": -121.2837258,
    "gmapsCategory": "Root of Happiness Kava Bar | Roseville"
  },
  {
    "type": "Bar",
    "name": "Legends at Woodcreek Sports Bar Grill",
    "lat": 38.7771182,
    "long": -121.3314789,
    "gmapsCategory": "Legends at Woodcreek Sports Bar & Grill"
  },
  {
    "type": "Bar",
    "name": "University of Beer Roseville",
    "lat": 38.7487103,
    "long": -121.2485601,
    "gmapsCategory": ""
  },
  {
    "type": "Bar",
    "name": "Get Axed Roseville",
    "lat": 38.7891451,
    "long": -121.2802824,
    "gmapsCategory": "Sports bar"
  },
  {
    "type": "Bar",
    "name": "Liberal Bull",
    "lat": 38.8225312,
    "long": -121.1920111,
    "gmapsCategory": "Cocktail bar"
  },
  {
    "type": "Bar",
    "name": "Bennett s Kitchen Bar Market",
    "lat": 38.7489094,
    "long": -121.246665,
    "gmapsCategory": "Bar"
  },
  {
    "type": "Bar",
    "name": "Opera House Saloon",
    "lat": 38.752173,
    "long": -121.285482,
    "gmapsCategory": ""
  },
  {
    "type": "Bar",
    "name": "Yard House",
    "lat": 38.76887,
    "long": -121.270022,
    "gmapsCategory": "Bar"
  },
  {
    "type": "Bar",
    "name": "PainKillers Pub Grub",
    "lat": 38.8042577,
    "long": -121.2746274,
    "gmapsCategory": "PainKillers Pub & Grub"
  },
  {
    "type": "Bar",
    "name": "Short Stuff Cafe",
    "lat": 38.7517951,
    "long": -121.2502341,
    "gmapsCategory": ""
  },
  {
    "type": "Bar",
    "name": "Scotty s Hideaway",
    "lat": 38.6788418,
    "long": -121.2049518,
    "gmapsCategory": "Bar"
  },
  {
    "type": "Bar",
    "name": "Hooch s Sports Bar Grill Pizzeria",
    "lat": 38.7616539,
    "long": -121.3124771,
    "gmapsCategory": "Hooch's Sports Bar & Grill Pizzeria"
  },
  {
    "type": "Bar",
    "name": "Dave Buster s Roseville",
    "lat": 38.7681416,
    "long": -121.2702405,
    "gmapsCategory": "\"Great place to chill, Scuba Steve and the bartenders are awesome\""
  },
  {
    "type": "Bar",
    "name": "City Slickers",
    "lat": 38.6776838,
    "long": -121.1796934,
    "gmapsCategory": "Bar"
  },
  {
    "type": "Bar",
    "name": "Loree s Little Shack Greenback",
    "lat": 38.6786111,
    "long": -121.3030556,
    "gmapsCategory": "\"The patrons are friendly, fun, the bar tender is very sweet and kind.\""
  },
  {
    "type": "Bar",
    "name": "Jan s Lounge Orangevale, CA Entertainment Pub FSports Bar FNightclub",
    "lat": 38.6778325,
    "long": -121.2099587,
    "gmapsCategory": "Bar"
  },
  {
    "type": "Bar",
    "name": "Eureka ",
    "lat": 38.7751925,
    "long": -121.2747794,
    "gmapsCategory": ""
  },
  {
    "type": "Bar",
    "name": "Pete s Restaurant Brewhouse Rocklin",
    "lat": 38.8041282,
    "long": -121.2731255,
    "gmapsCategory": "Bar"
  },
  {
    "type": "Bar",
    "name": "CRP Rocklin Pizza Taphouse",
    "lat": 38.7937972,
    "long": -121.2692756,
    "gmapsCategory": "Bar"
  },
  {
    "type": "Bar",
    "name": "Shakers Bar",
    "lat": 38.6746574,
    "long": -121.293414,
    "gmapsCategory": "Bar"
  },
  {
    "type": "Bar",
    "name": "Chevys",
    "lat": 38.7446406,
    "long": -121.2561618,
    "gmapsCategory": "\"The bartender was very knowledgeable and made very good drinks.\""
  },
  {
    "type": "Bar",
    "name": "Silk Bar",
    "lat": 38.641375,
    "long": -121.1892702,
    "gmapsCategory": "Bar"
  },
  {
    "type": "Bar",
    "name": "The Cinder s Bar",
    "lat": 38.6667044,
    "long": -121.3392786,
    "gmapsCategory": "Bar"
  },
  {
    "type": "Bar",
    "name": "Jimboy s Tacos",
    "lat": 38.7441424,
    "long": -121.2998666,
    "gmapsCategory": ""
  },
  {
    "type": "Bar",
    "name": "Cedar Room",
    "lat": 38.66041,
    "long": -121.325709,
    "gmapsCategory": "Bar"
  },
  {
    "type": "Bar",
    "name": "Stockman Club",
    "lat": 38.6427488,
    "long": -121.270329,
    "gmapsCategory": "Bar"
  },
  {
    "type": "Bar",
    "name": "Shenanigans Kitchen Bar",
    "lat": 38.6646139,
    "long": -121.2915186,
    "gmapsCategory": "Bar"
  },
  {
    "type": "Bar",
    "name": "Halftime Bar Grill",
    "lat": 38.812342,
    "long": -121.2887071,
    "gmapsCategory": "Sports bar"
  },
  {
    "type": "Bar",
    "name": "Pho Vung Tau Bay",
    "lat": 38.7066363,
    "long": -121.3260436,
    "gmapsCategory": ""
  },
  {
    "type": "Bar",
    "name": "Powerhouse Pub",
    "lat": 38.6783271,
    "long": -121.1763976,
    "gmapsCategory": "Bar"
  },
  {
    "type": "Bar",
    "name": "Sutter Club Sports Bar",
    "lat": 38.677435,
    "long": -121.177387,
    "gmapsCategory": "Bar"
  },
  {
    "type": "Bar",
    "name": "Harry s Lounge",
    "lat": 38.6506869,
    "long": -121.3582474,
    "gmapsCategory": "Bar"
  },
  {
    "type": "Bar",
    "name": "Panchito Mexican Restaurant",
    "lat": 38.7055046,
    "long": -121.2908836,
    "gmapsCategory": ""
  },
  {
    "type": "Bar",
    "name": "The Wild Iris",
    "lat": 38.6907269,
    "long": -121.4565537,
    "gmapsCategory": "Bar"
  },
  {
    "type": "Bar",
    "name": "Dive Bar",
    "lat": 38.5787144,
    "long": -121.4933941,
    "gmapsCategory": "Bar"
  },
  {
    "type": "Bar",
    "name": "Time Out Tavern",
    "lat": 38.6363982,
    "long": -121.3241622,
    "gmapsCategory": "Pub"
  },
  {
    "type": "Bar",
    "name": "San Juan Club",
    "lat": 38.652323,
    "long": -121.291432,
    "gmapsCategory": "Bar"
  },
  {
    "type": "Bar",
    "name": "Chasers Bar",
    "lat": 38.660156,
    "long": -121.338775,
    "gmapsCategory": "Bar"
  },
  {
    "type": "Bar",
    "name": "The Rio Pub",
    "lat": 38.6904633,
    "long": -121.4484524,
    "gmapsCategory": "Bar"
  },
  {
    "type": "Bar",
    "name": "Pyramid Bar Grill",
    "lat": 38.825084,
    "long": -121.242333,
    "gmapsCategory": "· 2305 Clubhouse Dr"
  },
  {
    "type": "Bar",
    "name": "Pied Piper Lounge",
    "lat": 38.6107745,
    "long": -121.3846952,
    "gmapsCategory": "Cocktail bar"
  },
  {
    "type": "Bar",
    "name": "The Blind Pig",
    "lat": 38.6096965,
    "long": -121.3543019,
    "gmapsCategory": "Bar"
  },
  {
    "type": "Bar",
    "name": "Night Cap",
    "lat": 38.5771606,
    "long": -121.4828846,
    "gmapsCategory": "Bar"
  },
  {
    "type": "Bar",
    "name": "Suite Nine",
    "lat": 38.6168705,
    "long": -121.2742851,
    "gmapsCategory": "Cocktail bar"
  },
  {
    "type": "Bar",
    "name": "Pistol Pete s Brew Cue",
    "lat": 38.901692,
    "long": -121.066568,
    "gmapsCategory": "Bar"
  },
  {
    "type": "Bar",
    "name": "B Side",
    "lat": 38.568443,
    "long": -121.4911133,
    "gmapsCategory": "Bar"
  },
  {
    "type": "Bar",
    "name": "Lew s Club",
    "lat": 38.690695,
    "long": -121.456547,
    "gmapsCategory": "Bar"
  },
  {
    "type": "Bar",
    "name": "Last Stop Saloon",
    "lat": 38.5836475,
    "long": -121.5040051,
    "gmapsCategory": "Cocktail bar"
  },
  {
    "type": "Bar",
    "name": "R Spot Bar",
    "lat": 38.6122854,
    "long": -121.2919482,
    "gmapsCategory": "Bar"
  },
  {
    "type": "Bar",
    "name": "Infusion Taproom",
    "lat": 38.8501645,
    "long": -121.2853453,
    "gmapsCategory": "Pub"
  },
  {
    "type": "Bar",
    "name": "The Shady Lady Saloon",
    "lat": 38.5701031,
    "long": -121.4914456,
    "gmapsCategory": "Bar"
  },
  {
    "type": "Bar",
    "name": "Uncle Toms Cabin",
    "lat": 38.9293212,
    "long": -120.4850234,
    "gmapsCategory": "Bar"
  },
  {
    "type": "Bar",
    "name": "CJ s Pizza Bar Grill",
    "lat": 38.8153536,
    "long": -121.2571247,
    "gmapsCategory": "CJ's Pizza Bar & Grill"
  },
  {
    "type": "Bar",
    "name": "Players Sports Pub Grill",
    "lat": 38.6394929,
    "long": -121.2709002,
    "gmapsCategory": "Sports bar"
  },
  {
    "type": "Bar",
    "name": "Players Pub",
    "lat": 38.6397819,
    "long": -121.2764739,
    "gmapsCategory": "Pub"
  },
  {
    "type": "Bar",
    "name": "Lincoln Speakeasy Taproom",
    "lat": 38.8911779,
    "long": -121.2929679,
    "gmapsCategory": ""
  },
  {
    "type": "Bar",
    "name": "Lost Shaker Bar Grill",
    "lat": 38.8933926,
    "long": -121.2925526,
    "gmapsCategory": "Lost Shaker Bar & Grill"
  },
  {
    "type": "Bar",
    "name": "Interlude Cocktail Lounge",
    "lat": 38.6182334,
    "long": -121.3641164,
    "gmapsCategory": "Bar"
  },
  {
    "type": "Bar",
    "name": "Tom s Watch Bar",
    "lat": 38.5808011,
    "long": -121.5006331,
    "gmapsCategory": "Sports bar"
  },
  {
    "type": "Bar",
    "name": "Socal s Tavern",
    "lat": 38.5600653,
    "long": -121.4427531,
    "gmapsCategory": "Bar"
  },
  {
    "type": "Bar",
    "name": "The California Club",
    "lat": 38.8959357,
    "long": -121.0781128,
    "gmapsCategory": "Bar"
  },
  {
    "type": "Bar",
    "name": "Pine Cove Tavern",
    "lat": 38.5788129,
    "long": -121.4657692,
    "gmapsCategory": "Cocktail bar"
  },
  {
    "type": "Bar",
    "name": "Round Corner",
    "lat": 38.565596,
    "long": -121.4790481,
    "gmapsCategory": "Bar"
  },
  {
    "type": "Bar",
    "name": "Torch Club",
    "lat": 38.5793498,
    "long": -121.4864504,
    "gmapsCategory": "Cocktail bar"
  },
  {
    "type": "Bar",
    "name": "Chargin s Bar Grill",
    "lat": 38.5666125,
    "long": -121.442847,
    "gmapsCategory": "Pub"
  },
  {
    "type": "Bar",
    "name": "The Jungle Bird",
    "lat": 38.5744937,
    "long": -121.4725992,
    "gmapsCategory": "Tiki bar"
  },
  {
    "type": "Bar",
    "name": "Louie E s Cocktail Lounge",
    "lat": 38.5813598,
    "long": -121.3107147,
    "gmapsCategory": "Bar"
  },
  {
    "type": "Bar",
    "name": "Old Ironsides",
    "lat": 38.570258,
    "long": -121.4976836,
    "gmapsCategory": "Bar"
  },
  {
    "type": "Bar",
    "name": "Firefly Lounge",
    "lat": 38.5920453,
    "long": -121.4020981,
    "gmapsCategory": "Bar"
  },
  {
    "type": "Bar",
    "name": "Tahoe Blue Ridge Bar",
    "lat": 38.581166,
    "long": -121.5000709,
    "gmapsCategory": "Bar"
  },
  {
    "type": "Bar",
    "name": "Frank",
    "lat": 38.5687099,
    "long": -121.4886383,
    "gmapsCategory": "Cocktail bar"
  },
  {
    "type": "Bar",
    "name": "The Snug",
    "lat": 38.5693796,
    "long": -121.4910672,
    "gmapsCategory": "Bar"
  },
  {
    "type": "Bar",
    "name": "Nicolaus Tavern",
    "lat": 38.9037147,
    "long": -121.5786375,
    "gmapsCategory": "Bar"
  },
  {
    "type": "Bar",
    "name": "Maple Room Lounge",
    "lat": 38.595624,
    "long": -121.39866,
    "gmapsCategory": "Bar"
  },
  {
    "type": "Bar",
    "name": "Flame Club",
    "lat": 38.5651089,
    "long": -121.4910843,
    "gmapsCategory": "Bar"
  },
  {
    "type": "Bar",
    "name": "Tomato Alley Free House",
    "lat": 38.5664468,
    "long": -121.490546,
    "gmapsCategory": "Bar"
  },
  {
    "type": "Bar",
    "name": "Mother Lode Bar Deli",
    "lat": 38.6084346,
    "long": -121.4339378,
    "gmapsCategory": "Bar"
  },
  {
    "type": "Bar",
    "name": "Bonn Lair",
    "lat": 38.5709703,
    "long": -121.4574464,
    "gmapsCategory": "Bar"
  },
  {
    "type": "Bar",
    "name": "Coin Op Game Room",
    "lat": 38.5792397,
    "long": -121.4948205,
    "gmapsCategory": "Bar"
  },
  {
    "type": "Bar",
    "name": "Ten Ten Room",
    "lat": 38.5799451,
    "long": -121.4937997,
    "gmapsCategory": "Cocktail bar"
  },
  {
    "type": "Bar",
    "name": "Dew Drop Inn",
    "lat": 39.0875091,
    "long": -121.0852522,
    "gmapsCategory": "Bar"
  },
  {
    "type": "Bar",
    "name": "Henry s Lounge",
    "lat": 38.5711402,
    "long": -121.4813766,
    "gmapsCategory": "\"Cheap drinks, friendly bartender.\""
  },
  {
    "type": "Bar",
    "name": "Root of Happiness Kava Bar C Rancho Cordova",
    "lat": 38.6140394,
    "long": -121.2703349,
    "gmapsCategory": "Root of Happiness Kava Bar | Rancho Cordova"
  },
  {
    "type": "Bar",
    "name": "The Zebra Club",
    "lat": 38.5702147,
    "long": -121.4839752,
    "gmapsCategory": "The Zebra Club"
  },
  {
    "type": "Bar",
    "name": "Mecca Club",
    "lat": 38.5936791,
    "long": -121.5452224,
    "gmapsCategory": "Bar"
  },
  {
    "type": "Bar",
    "name": "Cheaters Sports Bar",
    "lat": 38.568174,
    "long": -121.4646892,
    "gmapsCategory": "Sports bar"
  },
  {
    "type": "Bar",
    "name": "The Trap",
    "lat": 38.5154474,
    "long": -121.5263239,
    "gmapsCategory": "Bar"
  },
  {
    "type": "Bar",
    "name": "The Mercantile Saloon",
    "lat": 38.5743352,
    "long": -121.481263,
    "gmapsCategory": "Gay bar"
  },
  {
    "type": "Bar",
    "name": "Old Tavern Bar Grill",
    "lat": 38.5709065,
    "long": -121.4827106,
    "gmapsCategory": "Dive bar with arcade games & a patio"
  },
  {
    "type": "Bar",
    "name": "Lobby Bar",
    "lat": 38.8402012,
    "long": -121.3150253,
    "gmapsCategory": "Bar"
  },
  {
    "type": "Bar",
    "name": "Stoney s Rockin Rodeo",
    "lat": 38.6046575,
    "long": -121.4616605,
    "gmapsCategory": "Raucous bar with frequent entertainment"
  },
  {
    "type": "Bar",
    "name": "Club Raven",
    "lat": 38.5720086,
    "long": -121.4630052,
    "gmapsCategory": "Bar"
  },
  {
    "type": "Bar",
    "name": "The Press Club",
    "lat": 38.5744896,
    "long": -121.4791139,
    "gmapsCategory": "Night club"
  },
  {
    "type": "Bar",
    "name": "Hilltop Tavern Bar",
    "lat": 38.561794,
    "long": -121.4461852,
    "gmapsCategory": "Bar"
  },
  {
    "type": "Bar",
    "name": "Streets Pub and Grub",
    "lat": 38.5770242,
    "long": -121.4823491,
    "gmapsCategory": "Pub"
  },
  {
    "type": "Bar",
    "name": "Pitch and Fiddle",
    "lat": 38.5630257,
    "long": -121.3801042,
    "gmapsCategory": "Irish pub"
  },
  {
    "type": "Bar",
    "name": "CLOUD BAR",
    "lat": 38.7097458,
    "long": -121.0865671,
    "gmapsCategory": "Wine bar"
  },
  {
    "type": "Bar",
    "name": " Handles Public House",
    "lat": 38.6467802,
    "long": -121.0668096,
    "gmapsCategory": "Bar"
  },
  {
    "type": "Bar",
    "name": "Brickyard Counter Bar",
    "lat": 38.6506105,
    "long": -121.0655072,
    "gmapsCategory": "Bar"
  },
  {
    "type": "Bar",
    "name": "El Dorado Saloon Grill",
    "lat": 38.7092869,
    "long": -121.085055,
    "gmapsCategory": "· 879 Embarcadero Dr"
  },
  {
    "type": "Bar",
    "name": "Folsom Tap House Sports Bar Grill",
    "lat": 38.6886136,
    "long": -121.123657,
    "gmapsCategory": "Sports bar"
  },
  {
    "type": "Bar",
    "name": "Milestone Restaurant Cocktail Bar",
    "lat": 38.651152,
    "long": -121.0656724,
    "gmapsCategory": "Milestone Restaurant & Cocktail Bar"
  },
  {
    "type": "Bar",
    "name": "The Fat Rabbit Public House",
    "lat": 38.676282,
    "long": -121.178793,
    "gmapsCategory": "Pub"
  },
  {
    "type": "Bar",
    "name": "Samuel Horne s Tavern",
    "lat": 38.6772424,
    "long": -121.1771126,
    "gmapsCategory": "Bar"
  },
  {
    "type": "Bar",
    "name": "Folsom Hotel",
    "lat": 38.6774769,
    "long": -121.176475,
    "gmapsCategory": "Bar"
  },
  {
    "type": "Bar",
    "name": "Gaslight Co ",
    "lat": 38.6776619,
    "long": -121.1772355,
    "gmapsCategory": "Upbeat bar with pub fare & a patio"
  },
  {
    "type": "Bar",
    "name": "Out of Bounds Craft Kitchen and Biergarten",
    "lat": 38.6585245,
    "long": -121.1836011,
    "gmapsCategory": "Bar"
  },
  {
    "type": "Bar",
    "name": "Tonno s Bar Grill",
    "lat": 38.6744529,
    "long": -121.1678845,
    "gmapsCategory": "Tonno's Bar & Grill"
  },
  {
    "type": "Bar",
    "name": "Poppy s Bar Que",
    "lat": 38.6798271,
    "long": -121.1657404,
    "gmapsCategory": "Sports bar"
  },
  {
    "type": "Bar",
    "name": "Churchill Arms Pub",
    "lat": 38.6721802,
    "long": -121.1627502,
    "gmapsCategory": "Churchill Arms Pub"
  },
  {
    "type": "Bar",
    "name": "University of Beer Folsom",
    "lat": 38.6693728,
    "long": -121.1548824,
    "gmapsCategory": ""
  },
  {
    "type": "Bar",
    "name": "The Vine Folsom",
    "lat": 38.678016,
    "long": -121.1756698,
    "gmapsCategory": "Wine bar"
  },
  {
    "type": "Bar",
    "name": "Iron Horse Tavern Folsom",
    "lat": 38.6520487,
    "long": -121.1205792,
    "gmapsCategory": "Stylish gastropub with creative eats"
  },
  {
    "type": "Bar",
    "name": "Tonno s Sports Bar Grill",
    "lat": 38.6785722,
    "long": -121.208125,
    "gmapsCategory": "Sports bar"
  },
  {
    "type": "Bar",
    "name": "FLB Sports Bar",
    "lat": 38.6728892,
    "long": -121.1653555,
    "gmapsCategory": "Sports bar"
  },
  {
    "type": "Bar",
    "name": "The Oak T Sports Bar Grill",
    "lat": 38.6985063,
    "long": -121.1917359,
    "gmapsCategory": "The Oak T Sports Bar & Grill"
  },
  {
    "type": "Bar",
    "name": "La Calle Bar Grill",
    "lat": 38.6859314,
    "long": -121.1792633,
    "gmapsCategory": "Bar"
  },
  {
    "type": "Bar",
    "name": "Champs Tavern",
    "lat": 38.8775234,
    "long": -121.1312484,
    "gmapsCategory": "Bar"
  },
  {
    "type": "Bar",
    "name": "Gander Taphouse",
    "lat": 38.8231739,
    "long": -121.1926308,
    "gmapsCategory": "Bar"
  },
  {
    "type": "Bar",
    "name": "Das Flipperhaus",
    "lat": 38.7894382,
    "long": -121.2230749,
    "gmapsCategory": ""
  },
  {
    "type": "Bar",
    "name": "Valencia Club VC ",
    "lat": 38.8518154,
    "long": -121.1644173,
    "gmapsCategory": "Bar"
  },
  {
    "type": "Bar",
    "name": "HopCity Taproom",
    "lat": 38.7879101,
    "long": -121.2067137,
    "gmapsCategory": "Bar"
  },
  {
    "type": "Bar",
    "name": "BROTHERS TAPHOUSE",
    "lat": 38.8978973,
    "long": -121.3215618,
    "gmapsCategory": "Bar"
  },
  {
    "type": "Bar",
    "name": "Brick Barrel Kitchen B Bar",
    "lat": 38.8876511,
    "long": -121.3124788,
    "gmapsCategory": "Brick & Barrel Kitchen + Bar"
  },
  {
    "type": "Bar",
    "name": "Citizen Vine",
    "lat": 38.8501587,
    "long": -121.2858646,
    "gmapsCategory": ""
  },
  {
    "type": "Bar",
    "name": "The Wine Bar Kitchen",
    "lat": 38.8502577,
    "long": -121.287195,
    "gmapsCategory": "The 12 Wine Bar & Kitchen"
  },
  {
    "type": "Bar",
    "name": "Meridians Restaurant",
    "lat": 38.8685589,
    "long": -121.2758373,
    "gmapsCategory": "Bar"
  },
  {
    "type": "Bar",
    "name": "Red Frog",
    "lat": 39.1098292,
    "long": -120.9497524,
    "gmapsCategory": ""
  },
  {
    "type": "Bar",
    "name": "Parks Bar Quarry",
    "lat": 39.2211495,
    "long": -121.3316345,
    "gmapsCategory": "Parks Bar Quarry"
  },
  {
    "type": "Bar",
    "name": "Tack Room Restaurant Bar",
    "lat": 39.1982435,
    "long": -121.1759381,
    "gmapsCategory": "Tack Room Restaurant & Bar"
  },
  {
    "type": "Bar",
    "name": "Mountain Club",
    "lat": 39.0202203,
    "long": -120.8157947,
    "gmapsCategory": "Bar"
  },
  {
    "type": "Bar",
    "name": "Red Dirt Saloon",
    "lat": 39.0206698,
    "long": -120.8161461,
    "gmapsCategory": ""
  },
  {
    "type": "Bar",
    "name": "Stumps Bar",
    "lat": 39.0093444,
    "long": -120.7424293,
    "gmapsCategory": "Stumps Bar"
  },
  {
    "type": "Bar",
    "name": "Oxbow Bar",
    "lat": 39.0040666,
    "long": -120.7454847,
    "gmapsCategory": "Oxbow Bar"
  },
  {
    "type": "Bar",
    "name": "Horseshoe Bar",
    "lat": 39.0026775,
    "long": -120.759652,
    "gmapsCategory": "Horseshoe Bar"
  },
  {
    "type": "Bar",
    "name": "Mine Shaft",
    "lat": 39.262614,
    "long": -121.018251,
    "gmapsCategory": "Cocktail bar"
  },
  {
    "type": "Bar",
    "name": "Gary s Place",
    "lat": 39.2174313,
    "long": -121.0632913,
    "gmapsCategory": "Cocktail bar"
  },
  {
    "type": "Bar",
    "name": "Uncle Sonny s",
    "lat": 39.1968809,
    "long": -121.0111905,
    "gmapsCategory": "Bar"
  },
  {
    "type": "Bar",
    "name": "Crazy Horse Saloon Grill",
    "lat": 39.263221,
    "long": -121.017825,
    "gmapsCategory": "Cozy choice for pub grub, music & sports"
  },
  {
    "type": "Bar",
    "name": "Nevada Club",
    "lat": 39.2192576,
    "long": -121.0624435,
    "gmapsCategory": "Bar"
  },
  {
    "type": "Bar",
    "name": "The Fern",
    "lat": 39.2629691,
    "long": -121.0180893,
    "gmapsCategory": "Bar"
  },
  {
    "type": "Bar",
    "name": "Golden Era Cocktail Bar and Lounge",
    "lat": 39.2625606,
    "long": -121.0192076,
    "gmapsCategory": "Cocktail bar"
  },
  {
    "type": "Bar",
    "name": "Iron Door Saloon",
    "lat": 39.2192375,
    "long": -121.0636015,
    "gmapsCategory": "Cocktail bar"
  },
  {
    "type": "Bar",
    "name": "Cirinos Bloody Mary Mix",
    "lat": 39.2189648,
    "long": -121.0634506,
    "gmapsCategory": "Bar"
  },
  {
    "type": "Bar",
    "name": "Wild Eye Pub",
    "lat": 39.2105641,
    "long": -121.0689017,
    "gmapsCategory": "Bar"
  },
  {
    "type": "Bar",
    "name": "Golden Gate Saloon",
    "lat": 39.219338,
    "long": -121.0636119,
    "gmapsCategory": "Bar"
  },
  {
    "type": "Bar",
    "name": "The Union",
    "lat": 39.2175954,
    "long": -121.0626675,
    "gmapsCategory": "Bar"
  },
  {
    "type": "Bar",
    "name": "Thirsty Barrel Taphouse Grille",
    "lat": 39.217009,
    "long": -121.0624604,
    "gmapsCategory": "Thirsty Barrel Taphouse & Grille"
  },
  {
    "type": "Bar",
    "name": "National Bar",
    "lat": 39.2623053,
    "long": -121.017811,
    "gmapsCategory": "Bar"
  },
  {
    "type": "Bar",
    "name": "Jernigan s Tap House Grill",
    "lat": 39.2523773,
    "long": -121.0247013,
    "gmapsCategory": ""
  },
  {
    "type": "Bar",
    "name": "Cork ",
    "lat": 39.2179278,
    "long": -121.0632473,
    "gmapsCategory": "Wine bar"
  },
  {
    "type": "Bar",
    "name": "The Owl Tavern",
    "lat": 39.2181203,
    "long": -121.0631655,
    "gmapsCategory": ""
  },
  {
    "type": "Bar",
    "name": "Enrique E s Lounge",
    "lat": 39.2195885,
    "long": -121.0614919,
    "gmapsCategory": "Bar"
  },
  {
    "type": "Bar",
    "name": "Gary s place",
    "lat": 39.2625961,
    "long": -121.0190003,
    "gmapsCategory": "Bar"
  },
  {
    "type": "Bar",
    "name": "Bill s Place Bar Grill",
    "lat": 39.0108256,
    "long": -121.4236026,
    "gmapsCategory": "Bill's Place Bar & Grill"
  },
  {
    "type": "Bar",
    "name": "The Yeti Tavern",
    "lat": 38.8991479,
    "long": -121.0699451,
    "gmapsCategory": ""
  },
  {
    "type": "Bar",
    "name": "The Station Public House",
    "lat": 38.9012314,
    "long": -121.0672129,
    "gmapsCategory": "Brewpub"
  },
  {
    "type": "Bar",
    "name": "Auburn Alehouse",
    "lat": 38.895323,
    "long": -121.078516,
    "gmapsCategory": "Brewpub"
  },
  {
    "type": "Bar",
    "name": "Out of Order Arcade",
    "lat": 38.9214056,
    "long": -121.0566954,
    "gmapsCategory": ""
  },
  {
    "type": "Bar",
    "name": "Oregon Bar",
    "lat": 38.8627674,
    "long": -121.0595651,
    "gmapsCategory": "Oregon Bar"
  },
  {
    "type": "Bar",
    "name": "The Lounge",
    "lat": 38.8973269,
    "long": -121.0767063,
    "gmapsCategory": "Bar"
  },
  {
    "type": "Bar",
    "name": "The Ridge Bar Grill",
    "lat": 38.9476723,
    "long": -121.0774842,
    "gmapsCategory": "The Ridge Bar & Grill"
  },
  {
    "type": "Bar",
    "name": "McGuire s Sports Bar Grill",
    "lat": 38.9287456,
    "long": -121.0550809,
    "gmapsCategory": "Sports bar"
  },
  {
    "type": "Bar",
    "name": "The Club Car",
    "lat": 38.9005222,
    "long": -121.0684278,
    "gmapsCategory": "The Club Car"
  },
  {
    "type": "Bar",
    "name": "The Annex Tap Room Provisions",
    "lat": 38.8956123,
    "long": -121.0780343,
    "gmapsCategory": "\"Lovely folks behind the bar, a great space, and the pizza is dynamite!\""
  },
  {
    "type": "Bar",
    "name": "Diggins Irish Pub",
    "lat": 38.9424824,
    "long": -121.0978844,
    "gmapsCategory": "Bar"
  }
]