[
  {
    "type": "Liquor",
    "name": "Black Tie Liquor Beer Wine Cigars Spirit",
    "lat": 33.1906058,
    "long": -96.7525728,
    "gmapsCategory": "Liquor store"
  },
  {
    "type": "Liquor",
    "name": "Reggis Liquor",
    "lat": 33.2048797,
    "long": -96.767049,
    "gmapsCategory": "Liquor store"
  },
  {
    "type": "Liquor",
    "name": "Beverage World",
    "lat": 33.1497727,
    "long": -96.8215023,
    "gmapsCategory": "Beer store"
  },
  {
    "type": "Liquor",
    "name": "Liquor King",
    "lat": 33.1094107,
    "long": -96.7675928,
    "gmapsCategory": "Liquor store"
  },
  {
    "type": "Liquor",
    "name": "Total Wine More",
    "lat": 33.0971367,
    "long": -96.8014446,
    "gmapsCategory": "Liquor store"
  },
  {
    "type": "Liquor",
    "name": "Liquor King",
    "lat": 33.1625032,
    "long": -96.8901316,
    "gmapsCategory": "Liquor store"
  },
  {
    "type": "Liquor",
    "name": "Lucky E s Liquor",
    "lat": 33.1689584,
    "long": -96.907219,
    "gmapsCategory": "Liquor store"
  },
  {
    "type": "Liquor",
    "name": "Goody Goody Liquor",
    "lat": 33.169774,
    "long": -96.8878996,
    "gmapsCategory": "Liquor store"
  },
  {
    "type": "Liquor",
    "name": "LIQUOR MART",
    "lat": 33.1907789,
    "long": -96.8876395,
    "gmapsCategory": "Liquor store"
  },
  {
    "type": "Liquor",
    "name": " Eleven",
    "lat": 33.2041862,
    "long": -96.7669287,
    "gmapsCategory": "Convenience store"
  },
  {
    "type": "Liquor",
    "name": "Fossil Creek Liquor Custer",
    "lat": 33.1236966,
    "long": -96.7337479,
    "gmapsCategory": "Liquor store"
  },
  {
    "type": "Liquor",
    "name": "The Hy Life Fine Wine Spirits",
    "lat": 33.1629611,
    "long": -96.7327157,
    "gmapsCategory": "Liquor store"
  },
  {
    "type": "Liquor",
    "name": "QT",
    "lat": 33.1757503,
    "long": -96.8383401,
    "gmapsCategory": "Liquor store"
  },
  {
    "type": "Liquor",
    "name": "My Liquor Zones",
    "lat": 33.2139361,
    "long": -96.7347931,
    "gmapsCategory": "Liquor store"
  },
  {
    "type": "Liquor",
    "name": "The Hy Life Fine Wine Spirits",
    "lat": 33.2170197,
    "long": -96.7208365,
    "gmapsCategory": "Liquor store"
  },
  {
    "type": "Liquor",
    "name": " Eleven",
    "lat": 33.2030865,
    "long": -96.7337977,
    "gmapsCategory": "Convenience store"
  },
  {
    "type": "Liquor",
    "name": "Top Shelf Liquor and Fine Wine",
    "lat": 33.2195376,
    "long": -96.7873806,
    "gmapsCategory": "Liquor store"
  },
  {
    "type": "Liquor",
    "name": "Spec s Wines, Spirits Finer Foods",
    "lat": 33.0942215,
    "long": -96.809318,
    "gmapsCategory": "Liquor store"
  },
  {
    "type": "Liquor",
    "name": " Eleven",
    "lat": 33.173628,
    "long": -96.7513236,
    "gmapsCategory": "Convenience store"
  },
  {
    "type": "Liquor",
    "name": "Oasis Liquors",
    "lat": 33.1001814,
    "long": -96.8920956,
    "gmapsCategory": "Liquor store"
  },
  {
    "type": "Liquor",
    "name": "Royal Kings Liquor Spirits, Fine Wine, Beer more",
    "lat": 33.2192878,
    "long": -96.7294008,
    "gmapsCategory": "Liquor store"
  },
  {
    "type": "Liquor",
    "name": "Jerry s Liquor and Fine Wine",
    "lat": 33.1419248,
    "long": -96.7327483,
    "gmapsCategory": "Liquor store"
  },
  {
    "type": "Liquor",
    "name": "RaceTrac",
    "lat": 33.1199872,
    "long": -96.751706,
    "gmapsCategory": ""
  },
  {
    "type": "Liquor",
    "name": " Eleven",
    "lat": 33.203413,
    "long": -96.803327,
    "gmapsCategory": "Convenience store"
  },
  {
    "type": "Liquor",
    "name": "VARIETY LIQUORS",
    "lat": 33.0982396,
    "long": -96.8929808,
    "gmapsCategory": "Liquor store"
  },
  {
    "type": "Liquor",
    "name": "RaceTrac",
    "lat": 33.153851,
    "long": -96.8470754,
    "gmapsCategory": ""
  },
  {
    "type": "Liquor",
    "name": "Sam s liquor warehouse Beer, Wine Cigar",
    "lat": 33.1231596,
    "long": -96.7325905,
    "gmapsCategory": "Liquor store"
  },
  {
    "type": "Liquor",
    "name": "Spec s Wines, Spirits Finer Foods",
    "lat": 33.2269057,
    "long": -96.8001088,
    "gmapsCategory": "Liquor store"
  },
  {
    "type": "Liquor",
    "name": "Sahay Market Sierra Market ",
    "lat": 33.106346,
    "long": -96.8184357,
    "gmapsCategory": "Convenience store"
  },
  {
    "type": "Liquor",
    "name": "Tilt Liquor Prosper",
    "lat": 33.2199566,
    "long": -96.7691375,
    "gmapsCategory": "Liquor store"
  },
  {
    "type": "Liquor",
    "name": " Eleven",
    "lat": 33.1751805,
    "long": -96.7863563,
    "gmapsCategory": "Convenience store"
  },
  {
    "type": "Liquor",
    "name": "Walmart Wine and Liquor",
    "lat": 33.2162,
    "long": -96.8775781,
    "gmapsCategory": "Liquor store"
  },
  {
    "type": "Liquor",
    "name": "Panther Creek Racetrac",
    "lat": 33.18931,
    "long": -96.839934,
    "gmapsCategory": "\"Huge selection of items inside the store and always plenty of fuel.\""
  },
  {
    "type": "Liquor",
    "name": " Eleven",
    "lat": 33.1740028,
    "long": -96.8039325,
    "gmapsCategory": "Convenience store"
  },
  {
    "type": "Liquor",
    "name": "RaceTrac",
    "lat": 33.1790534,
    "long": -96.8666459,
    "gmapsCategory": ""
  },
  {
    "type": "Liquor",
    "name": " Eleven",
    "lat": 33.1523917,
    "long": -96.7835429,
    "gmapsCategory": "Convenience store"
  },
  {
    "type": "Liquor",
    "name": "Sips Fine Wine Spirits",
    "lat": 33.1974343,
    "long": -96.6987986,
    "gmapsCategory": "Liquor store"
  },
  {
    "type": "Liquor",
    "name": "RaceTrac",
    "lat": 33.1369659,
    "long": -96.7342695,
    "gmapsCategory": ""
  },
  {
    "type": "Liquor",
    "name": "RaceTrac",
    "lat": 33.1072889,
    "long": -96.8424475,
    "gmapsCategory": ""
  },
  {
    "type": "Liquor",
    "name": " Eleven",
    "lat": 33.1742415,
    "long": -96.8327256,
    "gmapsCategory": "Convenience store"
  },
  {
    "type": "Liquor",
    "name": "LiquorVille Prosper",
    "lat": 33.247325,
    "long": -96.7667465,
    "gmapsCategory": "Liquor store"
  },
  {
    "type": "Liquor",
    "name": "QuikTrip",
    "lat": 33.1104743,
    "long": -96.7688382,
    "gmapsCategory": "\"Friendly professional employees, clean stores, consistent quality\""
  },
  {
    "type": "Liquor",
    "name": "Empire Liquor McKinney",
    "lat": 33.1696642,
    "long": -96.6720398,
    "gmapsCategory": "Liquor store"
  },
  {
    "type": "Liquor",
    "name": "RaceTrac",
    "lat": 33.1243906,
    "long": -96.8155129,
    "gmapsCategory": ""
  },
  {
    "type": "Liquor",
    "name": " Eleven",
    "lat": 33.1304208,
    "long": -96.7873815,
    "gmapsCategory": "Convenience store"
  },
  {
    "type": "Liquor",
    "name": " Eleven",
    "lat": 33.1371672,
    "long": -96.7513438,
    "gmapsCategory": "Convenience store"
  },
  {
    "type": "Liquor",
    "name": " Eleven",
    "lat": 33.1385375,
    "long": -96.8049475,
    "gmapsCategory": "Convenience store"
  },
  {
    "type": "Liquor",
    "name": "Craft Brews Liquor, Craft Beer, Wine, Cigars, Vape",
    "lat": 33.1527296,
    "long": -96.7165694,
    "gmapsCategory": "Liquor store"
  },
  {
    "type": "Liquor",
    "name": " Eleven",
    "lat": 33.1022579,
    "long": -96.8153804,
    "gmapsCategory": "Convenience store"
  },
  {
    "type": "Liquor",
    "name": "Fossil Creek Liquor, Prosper Trail",
    "lat": 33.2475019,
    "long": -96.7862821,
    "gmapsCategory": "Liquor store"
  },
  {
    "type": "Liquor",
    "name": "QuikTrip",
    "lat": 33.1757863,
    "long": -96.8384566,
    "gmapsCategory": ""
  },
  {
    "type": "Liquor",
    "name": "Choice Beverage Liquor, Craft Beer Fine Wines",
    "lat": 33.1732741,
    "long": -96.6778273,
    "gmapsCategory": "Liquor store"
  },
  {
    "type": "Liquor",
    "name": "RaceTrac",
    "lat": 33.1016866,
    "long": -96.7707335,
    "gmapsCategory": "\"The staff is always friendly here and the store is usually clean\""
  },
  {
    "type": "Liquor",
    "name": "Freddy s Liqour",
    "lat": 33.0850274,
    "long": -96.7924828,
    "gmapsCategory": "Liquor store"
  },
  {
    "type": "Liquor",
    "name": " Eleven",
    "lat": 33.1164309,
    "long": -96.7688237,
    "gmapsCategory": "Convenience store"
  },
  {
    "type": "Liquor",
    "name": "QuikTrip",
    "lat": 33.1675938,
    "long": -96.8897933,
    "gmapsCategory": ""
  },
  {
    "type": "Liquor",
    "name": "Cheers Liquor Beer Wine",
    "lat": 33.086646,
    "long": -96.7710785,
    "gmapsCategory": "Liquor store"
  },
  {
    "type": "Liquor",
    "name": "Spec s Wines, Spirits Finer Foods",
    "lat": 33.2189993,
    "long": -96.9030843,
    "gmapsCategory": "Liquor store"
  },
  {
    "type": "Liquor",
    "name": "Fossil Creek Liquor Frontier",
    "lat": 33.2600213,
    "long": -96.7850082,
    "gmapsCategory": "Liquor store"
  },
  {
    "type": "Liquor",
    "name": " Eleven",
    "lat": 33.1463849,
    "long": -96.8382101,
    "gmapsCategory": "Convenience store"
  },
  {
    "type": "Liquor",
    "name": "RaceTrac",
    "lat": 33.1666841,
    "long": -96.8917434,
    "gmapsCategory": ""
  },
  {
    "type": "Liquor",
    "name": "On The Run Liquor",
    "lat": 33.1515935,
    "long": -96.7170722,
    "gmapsCategory": "Liquor store"
  },
  {
    "type": "Liquor",
    "name": "Firewater Liquor",
    "lat": 33.1735488,
    "long": -96.6994863,
    "gmapsCategory": "Liquor store"
  },
  {
    "type": "Liquor",
    "name": "Spec s Wines, Spirits Finer Foods",
    "lat": 33.2175057,
    "long": -96.6523917,
    "gmapsCategory": "Liquor store"
  },
  {
    "type": "Liquor",
    "name": " Eleven",
    "lat": 33.1203544,
    "long": -96.8048618,
    "gmapsCategory": "Convenience store"
  },
  {
    "type": "Liquor",
    "name": "QuikTrip",
    "lat": 33.1522423,
    "long": -96.848647,
    "gmapsCategory": ""
  },
  {
    "type": "Liquor",
    "name": " Eleven",
    "lat": 33.124151,
    "long": -96.8237875,
    "gmapsCategory": "Convenience store"
  },
  {
    "type": "Liquor",
    "name": "CVS",
    "lat": 33.1384097,
    "long": -96.8036604,
    "gmapsCategory": "Drug store"
  },
  {
    "type": "Liquor",
    "name": " Eleven",
    "lat": 33.1095104,
    "long": -96.8051253,
    "gmapsCategory": "Convenience store"
  },
  {
    "type": "Liquor",
    "name": " Eleven",
    "lat": 33.1161917,
    "long": -96.8392329,
    "gmapsCategory": "Convenience store"
  },
  {
    "type": "Liquor",
    "name": "Spec s Wines, Spirits Finer Foods",
    "lat": 33.0692065,
    "long": -96.8839454,
    "gmapsCategory": "Liquor store"
  },
  {
    "type": "Liquor",
    "name": "Liquor King",
    "lat": 33.1433921,
    "long": -96.679551,
    "gmapsCategory": "Liquor store"
  },
  {
    "type": "Liquor",
    "name": "The Liquor Yard",
    "lat": 33.1583664,
    "long": -96.6949,
    "gmapsCategory": "Liquor store"
  },
  {
    "type": "Liquor",
    "name": " Eleven",
    "lat": 33.1531816,
    "long": -96.8914485,
    "gmapsCategory": "Convenience store"
  },
  {
    "type": "Liquor",
    "name": "The Hy Life Fine Wine Spirits",
    "lat": 33.08558,
    "long": -96.7372256,
    "gmapsCategory": "Liquor store"
  },
  {
    "type": "Liquor",
    "name": " Eleven",
    "lat": 33.1013333,
    "long": -96.7495665,
    "gmapsCategory": "Convenience store"
  },
  {
    "type": "Liquor",
    "name": "Total Wine More",
    "lat": 33.1262451,
    "long": -96.6598142,
    "gmapsCategory": "Liquor store"
  },
  {
    "type": "Liquor",
    "name": "FIZZ WINE LIQUOR",
    "lat": 33.2184743,
    "long": -96.674425,
    "gmapsCategory": "Liquor store"
  },
  {
    "type": "Liquor",
    "name": "LIQUOR MART",
    "lat": 33.0738311,
    "long": -96.7711512,
    "gmapsCategory": "Liquor store"
  },
  {
    "type": "Liquor",
    "name": "Empire Liquor Allen",
    "lat": 33.1002974,
    "long": -96.6958678,
    "gmapsCategory": "Liquor store"
  },
  {
    "type": "Liquor",
    "name": "McDermott Beer Wine and Liquor",
    "lat": 33.0990254,
    "long": -96.7321146,
    "gmapsCategory": "Beer store"
  },
  {
    "type": "Liquor",
    "name": " Eleven",
    "lat": 33.1062962,
    "long": -96.8410672,
    "gmapsCategory": "Convenience store"
  },
  {
    "type": "Liquor",
    "name": "Spec s Wines, Spirits Finer Foods",
    "lat": 33.125431,
    "long": -96.6654891,
    "gmapsCategory": "Liquor store"
  },
  {
    "type": "Liquor",
    "name": "Jerry s Liquor Fine Wine",
    "lat": 33.0788626,
    "long": -96.8625585,
    "gmapsCategory": "Liquor store"
  },
  {
    "type": "Liquor",
    "name": "Fossil Creek Liquor McKinney ",
    "lat": 33.2160761,
    "long": -96.6399358,
    "gmapsCategory": "Liquor store"
  },
  {
    "type": "Liquor",
    "name": "Goody Goody Liquor",
    "lat": 33.0715024,
    "long": -96.8790157,
    "gmapsCategory": "Liquor store"
  },
  {
    "type": "Liquor",
    "name": "QuikTrip",
    "lat": 33.1306396,
    "long": -96.7322476,
    "gmapsCategory": "\"The store has a larger than normal selection of candy, drinks and products.\""
  },
  {
    "type": "Liquor",
    "name": "CVS",
    "lat": 33.1751649,
    "long": -96.7671918,
    "gmapsCategory": "Drug store"
  },
  {
    "type": "Liquor",
    "name": "Goody Goody Liquor",
    "lat": 33.1615214,
    "long": -96.6801685,
    "gmapsCategory": "Liquor store"
  },
  {
    "type": "Liquor",
    "name": "CVS",
    "lat": 33.20293,
    "long": -96.7320888,
    "gmapsCategory": "Drug store"
  },
  {
    "type": "Liquor",
    "name": "RaceTrac",
    "lat": 33.0919991,
    "long": -96.8148448,
    "gmapsCategory": "\"The store was clean and the staff was friendly\""
  },
  {
    "type": "Liquor",
    "name": "LIQUOR MART",
    "lat": 33.1559059,
    "long": -96.9435585,
    "gmapsCategory": "Liquor store"
  },
  {
    "type": "Liquor",
    "name": "Skips",
    "lat": 33.2249912,
    "long": -96.6545234,
    "gmapsCategory": "Liquor store"
  },
  {
    "type": "Liquor",
    "name": "The Liquor Outpost",
    "lat": 33.1303521,
    "long": -96.6757559,
    "gmapsCategory": "Liquor store"
  },
  {
    "type": "Liquor",
    "name": "Arctic Beer Wine",
    "lat": 33.0663895,
    "long": -96.8901514,
    "gmapsCategory": "Beer store"
  },
  {
    "type": "Liquor",
    "name": "Shax s Liquor At Little Elm",
    "lat": 33.2203278,
    "long": -96.9364585,
    "gmapsCategory": "Liquor store"
  },
  {
    "type": "Liquor",
    "name": "Fossil Creek Liquor Mckinney Eldorado",
    "lat": 33.1706313,
    "long": -96.6374622,
    "gmapsCategory": "Liquor store"
  },
  {
    "type": "Liquor",
    "name": "The Thirsty Growler",
    "lat": 33.0783421,
    "long": -96.8637897,
    "gmapsCategory": "Beer store"
  },
  {
    "type": "Liquor",
    "name": "Jerry s Liquor and Fine Wine",
    "lat": 33.1001532,
    "long": -96.7062236,
    "gmapsCategory": "Liquor store"
  },
  {
    "type": "Liquor",
    "name": "H E B",
    "lat": 33.1552069,
    "long": -96.8461843,
    "gmapsCategory": "Grocery store"
  },
  {
    "type": "Liquor",
    "name": "A Liquor Plano, Tx ",
    "lat": 33.0685476,
    "long": -96.6992505,
    "gmapsCategory": "Liquor store"
  },
  {
    "type": "Liquor",
    "name": "CVS",
    "lat": 33.1778236,
    "long": -96.8866667,
    "gmapsCategory": "Drug store"
  },
  {
    "type": "Liquor",
    "name": "A Liquor Store DRIVE THRU ",
    "lat": 33.1858854,
    "long": -96.6134031,
    "gmapsCategory": "Liquor store"
  },
  {
    "type": "Liquor",
    "name": "JMG Liquor",
    "lat": 33.1683989,
    "long": -96.6706336,
    "gmapsCategory": "Liquor store"
  },
  {
    "type": "Liquor",
    "name": " Eleven",
    "lat": 33.0947602,
    "long": -96.7974586,
    "gmapsCategory": "Convenience store"
  },
  {
    "type": "Liquor",
    "name": "McKinney Wine Merchant Fine Spirits",
    "lat": 33.1964623,
    "long": -96.6372755,
    "gmapsCategory": "Liquor store"
  },
  {
    "type": "Liquor",
    "name": "Spec s Wines, Spirits Finer Foods",
    "lat": 33.0450406,
    "long": -96.863126,
    "gmapsCategory": "Liquor store"
  },
  {
    "type": "Liquor",
    "name": "Freespirit Liquor",
    "lat": 33.1983237,
    "long": -96.6527458,
    "gmapsCategory": "Liquor store"
  },
  {
    "type": "Liquor",
    "name": "Luxe Liquor",
    "lat": 33.1707108,
    "long": -96.6427506,
    "gmapsCategory": "Liquor store"
  },
  {
    "type": "Liquor",
    "name": "Empire Liquor Plano",
    "lat": 33.0571995,
    "long": -96.7105125,
    "gmapsCategory": "Liquor store"
  },
  {
    "type": "Liquor",
    "name": "CVS",
    "lat": 33.17417,
    "long": -96.8314521,
    "gmapsCategory": "Drug store"
  },
  {
    "type": "Liquor",
    "name": "Pelican Liquor",
    "lat": 33.223166,
    "long": -96.633713,
    "gmapsCategory": "Liquor store"
  },
  {
    "type": "Liquor",
    "name": "Creek Beverage",
    "lat": 33.0559955,
    "long": -96.710638,
    "gmapsCategory": "Beer store"
  },
  {
    "type": "Liquor",
    "name": "Local Spirits TX",
    "lat": 33.3104943,
    "long": -96.782224,
    "gmapsCategory": "Liquor store"
  },
  {
    "type": "Liquor",
    "name": "Quick Treat Liquor",
    "lat": 33.059782,
    "long": -96.732794,
    "gmapsCategory": "Liquor store"
  },
  {
    "type": "Liquor",
    "name": "SR GROCERY Beer, Wine, Vapes, ATM, Lottery, Snacks, Sodas All",
    "lat": 33.210477,
    "long": -96.6153889,
    "gmapsCategory": "Convenience store"
  },
  {
    "type": "Liquor",
    "name": "Sigel s Fine Wines Great Spirits",
    "lat": 33.0705546,
    "long": -96.7508251,
    "gmapsCategory": "Liquor store"
  },
  {
    "type": "Liquor",
    "name": "Worth The Pour",
    "lat": 33.0581283,
    "long": -96.9011764,
    "gmapsCategory": "Liquor store"
  },
  {
    "type": "Liquor",
    "name": "Liquor King",
    "lat": 33.1012881,
    "long": -96.6625185,
    "gmapsCategory": "Liquor store"
  },
  {
    "type": "Liquor",
    "name": "TX liquor",
    "lat": 33.1001285,
    "long": -96.6775743,
    "gmapsCategory": "Liquor store"
  },
  {
    "type": "Liquor",
    "name": "Black Tie Liquor",
    "lat": 33.224519,
    "long": -96.975396,
    "gmapsCategory": "Liquor store"
  },
  {
    "type": "Liquor",
    "name": "Cross Roads Liquor Beer Wine More",
    "lat": 33.2267889,
    "long": -96.9899312,
    "gmapsCategory": "Liquor store"
  },
  {
    "type": "Liquor",
    "name": "Fossil Creek Liquor Aubrey",
    "lat": 33.2500653,
    "long": -96.8949275,
    "gmapsCategory": "Liquor store"
  },
  {
    "type": "Liquor",
    "name": "Up In Smoke",
    "lat": 33.1764783,
    "long": -96.8860664,
    "gmapsCategory": "Sports bar"
  },
  {
    "type": "Liquor",
    "name": "Royal Kings Liquor, Spirits, Bourbon, Wine, Tequila",
    "lat": 33.2213285,
    "long": -96.932426,
    "gmapsCategory": "Liquor store"
  },
  {
    "type": "Liquor",
    "name": "Coyote Den",
    "lat": 33.344552,
    "long": -96.5512556,
    "gmapsCategory": "Convenience store"
  },
  {
    "type": "Liquor",
    "name": "Goody Goody Liquor",
    "lat": 33.3430972,
    "long": -96.5886708,
    "gmapsCategory": "Liquor store"
  },
  {
    "type": "Liquor",
    "name": "Twin Liquor",
    "lat": 33.3431237,
    "long": -96.5915288,
    "gmapsCategory": "Liquor store"
  },
  {
    "type": "Liquor",
    "name": "Grand Liquor",
    "lat": 33.3448251,
    "long": -96.5573989,
    "gmapsCategory": "Liquor store"
  },
  {
    "type": "Liquor",
    "name": "Forney Anna Liquor Mart",
    "lat": 33.344551,
    "long": -96.5512397,
    "gmapsCategory": "Liquor store"
  },
  {
    "type": "Liquor",
    "name": "TXB",
    "lat": 33.4210125,
    "long": -96.5899522,
    "gmapsCategory": "Convenience store"
  },
  {
    "type": "Liquor",
    "name": "QuikTrip",
    "lat": 33.3460318,
    "long": -96.5881738,
    "gmapsCategory": ""
  },
  {
    "type": "Liquor",
    "name": "QuikTrip",
    "lat": 33.4211504,
    "long": -96.5872311,
    "gmapsCategory": ""
  },
  {
    "type": "Liquor",
    "name": "Quick Check Delicatessen Convenience Store",
    "lat": 33.4240375,
    "long": -96.5778975,
    "gmapsCategory": "Convenience store"
  },
  {
    "type": "Liquor",
    "name": "Dowling Distilling",
    "lat": 33.4219919,
    "long": -96.5753093,
    "gmapsCategory": ""
  },
  {
    "type": "Liquor",
    "name": "Liberty Liquor",
    "lat": 33.3936216,
    "long": -96.9486151,
    "gmapsCategory": "Liquor store"
  },
  {
    "type": "Liquor",
    "name": " Liquor",
    "lat": 33.384969,
    "long": -96.956353,
    "gmapsCategory": "Liquor store"
  },
  {
    "type": "Liquor",
    "name": "Hooch Handlebars",
    "lat": 33.4078492,
    "long": -96.9414082,
    "gmapsCategory": "Store"
  },
  {
    "type": "Liquor",
    "name": "LIQUOR VILLA SANGER",
    "lat": 33.3585336,
    "long": -97.2457118,
    "gmapsCategory": "Liquor store"
  },
  {
    "type": "Liquor",
    "name": "Sportsman Liquor",
    "lat": 33.3672848,
    "long": -97.1735122,
    "gmapsCategory": "Liquor store"
  },
  {
    "type": "Liquor",
    "name": "IMPERIAL ALE SPIRITS",
    "lat": 33.365358,
    "long": -97.178535,
    "gmapsCategory": "Liquor store"
  },
  {
    "type": "Liquor",
    "name": "Sanger Sportsman Liquor",
    "lat": 33.3920991,
    "long": -97.1756167,
    "gmapsCategory": "Liquor store"
  },
  {
    "type": "Liquor",
    "name": "Jacob s Liquors",
    "lat": 33.234712,
    "long": -97.0169189,
    "gmapsCategory": "Liquor store"
  },
  {
    "type": "Liquor",
    "name": "Cruz s Cooler Liquor , Vape , Hookah , CBD , Delta ",
    "lat": 33.158115,
    "long": -96.9429744,
    "gmapsCategory": "Liquor store"
  },
  {
    "type": "Liquor",
    "name": "Urban Value Corner Store",
    "lat": 33.1516583,
    "long": -96.834999,
    "gmapsCategory": "Convenience store"
  },
  {
    "type": "Liquor",
    "name": "DFW Beer and Wine",
    "lat": 33.144107,
    "long": -97.0548548,
    "gmapsCategory": "Convenience store"
  },
  {
    "type": "Liquor",
    "name": "Cheers Liquor Beer Wine",
    "lat": 33.1605422,
    "long": -97.1082016,
    "gmapsCategory": "Liquor store"
  },
  {
    "type": "Liquor",
    "name": "NEIGHBORHOOD LIQUOR SMOKE",
    "lat": 33.0718165,
    "long": -97.0370587,
    "gmapsCategory": "Liquor store"
  },
  {
    "type": "Liquor",
    "name": "Denton liquor store",
    "lat": 33.1735432,
    "long": -97.0873286,
    "gmapsCategory": "Denton liquor store"
  },
  {
    "type": "Liquor",
    "name": "Shax s Liquor At Lake Dallas",
    "lat": 33.1229745,
    "long": -97.0339451,
    "gmapsCategory": "Liquor store"
  },
  {
    "type": "Liquor",
    "name": "J E s Liquor Fine Cigars",
    "lat": 33.1303921,
    "long": -97.037862,
    "gmapsCategory": "Liquor store"
  },
  {
    "type": "Liquor",
    "name": "The Liquor Outpost",
    "lat": 33.159357,
    "long": -97.104692,
    "gmapsCategory": "Liquor store"
  },
  {
    "type": "Liquor",
    "name": "Storm Liquor License",
    "lat": 33.0678121,
    "long": -97.0800635,
    "gmapsCategory": "Storm Liquor License"
  },
  {
    "type": "Liquor",
    "name": "Goody Goody Liquor",
    "lat": 33.0723056,
    "long": -97.047937,
    "gmapsCategory": "Liquor store"
  },
  {
    "type": "Liquor",
    "name": "Spec s Wines, Spirits Finer Foods",
    "lat": 33.0717529,
    "long": -97.0223818,
    "gmapsCategory": "Liquor store"
  },
  {
    "type": "Liquor",
    "name": "Valley Ridge Liquor",
    "lat": 33.0573894,
    "long": -97.0228896,
    "gmapsCategory": "Liquor store"
  },
  {
    "type": "Liquor",
    "name": "Goody Goody Liquor",
    "lat": 33.1233686,
    "long": -97.0339169,
    "gmapsCategory": "Liquor store"
  },
  {
    "type": "Liquor",
    "name": "Holiday Depot Fine Wines Spirits",
    "lat": 33.0764593,
    "long": -97.1283322,
    "gmapsCategory": "Liquor store"
  },
  {
    "type": "Liquor",
    "name": "HIGHLAND LIQUOR",
    "lat": 33.0716937,
    "long": -97.0300078,
    "gmapsCategory": "Liquor store"
  },
  {
    "type": "Liquor",
    "name": "LiquorLand",
    "lat": 33.0742962,
    "long": -97.0707542,
    "gmapsCategory": "Liquor store"
  },
  {
    "type": "Liquor",
    "name": "Liquor King",
    "lat": 33.0723212,
    "long": -97.0593524,
    "gmapsCategory": "Liquor store"
  },
  {
    "type": "Liquor",
    "name": "American Liquor",
    "lat": 33.0721805,
    "long": -97.0161086,
    "gmapsCategory": "Liquor store"
  },
  {
    "type": "Liquor",
    "name": "Beer Barn",
    "lat": 33.1229111,
    "long": -97.0338077,
    "gmapsCategory": "Beer store"
  },
  {
    "type": "Liquor",
    "name": "Lakeside Liquor",
    "lat": 33.1153414,
    "long": -97.0273469,
    "gmapsCategory": "Liquor store"
  },
  {
    "type": "Liquor",
    "name": "Fort Liquor ",
    "lat": 33.0743754,
    "long": -97.1291142,
    "gmapsCategory": "Liquor store"
  },
  {
    "type": "Liquor",
    "name": "QuikTrip",
    "lat": 33.0720866,
    "long": -97.0242504,
    "gmapsCategory": ""
  },
  {
    "type": "Liquor",
    "name": "Cold s Beverage",
    "lat": 33.071869,
    "long": -97.0167799,
    "gmapsCategory": "Convenience store"
  },
  {
    "type": "Liquor",
    "name": "YOURWAY BEER BARN",
    "lat": 33.2106312,
    "long": -97.1612366,
    "gmapsCategory": "Convenience store"
  },
  {
    "type": "Liquor",
    "name": "Mark s Beer Barn",
    "lat": 33.210628,
    "long": -97.161235,
    "gmapsCategory": "Convenience store"
  },
  {
    "type": "Liquor",
    "name": "LoveMyLiquor",
    "lat": 33.2285396,
    "long": -97.1622072,
    "gmapsCategory": "Liquor store"
  },
  {
    "type": "Liquor",
    "name": "Ben E Keith Beverages",
    "lat": 33.2134271,
    "long": -97.1691412,
    "gmapsCategory": ""
  },
  {
    "type": "Liquor",
    "name": "Eagle Stop Convenience Store",
    "lat": 33.2110058,
    "long": -97.1554825,
    "gmapsCategory": "Convenience store"
  },
  {
    "type": "Liquor",
    "name": "Mr Porky s",
    "lat": 33.2319313,
    "long": -97.2148349,
    "gmapsCategory": "Convenience store"
  },
  {
    "type": "Liquor",
    "name": "QuikTrip",
    "lat": 33.2292708,
    "long": -97.1761661,
    "gmapsCategory": ""
  },
  {
    "type": "Liquor",
    "name": "RaceTrac",
    "lat": 33.2307145,
    "long": -97.1699134,
    "gmapsCategory": ""
  },
  {
    "type": "Liquor",
    "name": " Eleven",
    "lat": 33.2290705,
    "long": -97.1603538,
    "gmapsCategory": "Convenience store"
  },
  {
    "type": "Liquor",
    "name": "Kusin s Liquor",
    "lat": 33.1009488,
    "long": -97.4700649,
    "gmapsCategory": "Liquor store"
  },
  {
    "type": "Liquor",
    "name": "Wise Spirits",
    "lat": 33.0475676,
    "long": -97.4715365,
    "gmapsCategory": "Liquor store"
  },
  {
    "type": "Liquor",
    "name": "Take a Break Liquor",
    "lat": 33.0979471,
    "long": -97.4109436,
    "gmapsCategory": "Liquor store"
  },
  {
    "type": "Liquor",
    "name": "Last Stop Liquor",
    "lat": 32.9938722,
    "long": -97.5432344,
    "gmapsCategory": "Liquor store"
  },
  {
    "type": "Liquor",
    "name": "Briar Beer Tobacco",
    "lat": 32.9935865,
    "long": -97.5431556,
    "gmapsCategory": ""
  },
  {
    "type": "Liquor",
    "name": "Boyd Liquor",
    "lat": 33.0782475,
    "long": -97.568252,
    "gmapsCategory": "Liquor store"
  },
  {
    "type": "Liquor",
    "name": "Allsup s Convenience Store",
    "lat": 33.0758042,
    "long": -97.5735068,
    "gmapsCategory": "Convenience store"
  },
  {
    "type": "Liquor",
    "name": "Boyd Kwik Stop",
    "lat": 33.0790111,
    "long": -97.5632628,
    "gmapsCategory": "Convenience store"
  },
  {
    "type": "Liquor",
    "name": "Smart Liquor",
    "lat": 32.9755901,
    "long": -97.7316132,
    "gmapsCategory": "Liquor store"
  },
  {
    "type": "Liquor",
    "name": "Beer More",
    "lat": 32.9616235,
    "long": -97.6783108,
    "gmapsCategory": "Convenience store"
  },
  {
    "type": "Liquor",
    "name": "Tiger Mart",
    "lat": 32.9626641,
    "long": -97.6838893,
    "gmapsCategory": "Convenience store"
  },
  {
    "type": "Liquor",
    "name": "Allsup s Convenience Store",
    "lat": 32.9655401,
    "long": -97.6941752,
    "gmapsCategory": "Convenience store"
  },
  {
    "type": "Liquor",
    "name": "Tobacco Alley More",
    "lat": 32.9615975,
    "long": -97.6783672,
    "gmapsCategory": ""
  },
  {
    "type": "Liquor",
    "name": "Valero Redi Go Springtown",
    "lat": 32.9621978,
    "long": -97.6802224,
    "gmapsCategory": ""
  },
  {
    "type": "Liquor",
    "name": "COWBOYS LIQUOR SMOKE",
    "lat": 32.9743133,
    "long": -97.858003,
    "gmapsCategory": "Liquor store"
  },
  {
    "type": "Liquor",
    "name": "Pirate E s One Stop",
    "lat": 33.0353416,
    "long": -98.0697802,
    "gmapsCategory": ""
  },
  {
    "type": "Liquor",
    "name": "TJ s Liquor",
    "lat": 32.8237329,
    "long": -97.5135402,
    "gmapsCategory": "Liquor store"
  },
  {
    "type": "Liquor",
    "name": "Liquor Villa Lakeside FLake Worth FFort Worth",
    "lat": 32.8226821,
    "long": -97.5095896,
    "gmapsCategory": "Liquor store"
  },
  {
    "type": "Liquor",
    "name": "Longhorn Liquor ",
    "lat": 32.868063,
    "long": -97.5229898,
    "gmapsCategory": "Liquor store"
  },
  {
    "type": "Liquor",
    "name": "Liquor Galore",
    "lat": 32.7288474,
    "long": -97.7985176,
    "gmapsCategory": "Liquor store"
  },
  {
    "type": "Liquor",
    "name": "Liquor Mart With drive thru ",
    "lat": 32.7709204,
    "long": -97.7975195,
    "gmapsCategory": "Liquor store"
  },
  {
    "type": "Liquor",
    "name": "Schrick s Liquors Too",
    "lat": 32.7577841,
    "long": -97.7130473,
    "gmapsCategory": "Liquor store"
  },
  {
    "type": "Liquor",
    "name": "Triple D Liquor",
    "lat": 32.7733927,
    "long": -97.8029804,
    "gmapsCategory": "Liquor store"
  },
  {
    "type": "Liquor",
    "name": "Hwy Liquor",
    "lat": 32.7564022,
    "long": -97.7575226,
    "gmapsCategory": "Liquor store"
  },
  {
    "type": "Liquor",
    "name": "Weatherford Food Liquor",
    "lat": 32.7302898,
    "long": -97.7907154,
    "gmapsCategory": "Liquor store"
  },
  {
    "type": "Liquor",
    "name": "Twisted Snifter",
    "lat": 32.7600479,
    "long": -97.7976242,
    "gmapsCategory": "Wine store"
  },
  {
    "type": "Liquor",
    "name": "Spec s Wines, Spirits Finer Foods",
    "lat": 32.7360061,
    "long": -97.7974921,
    "gmapsCategory": "Liquor store"
  },
  {
    "type": "Liquor",
    "name": "Twin Liquors",
    "lat": 32.7580739,
    "long": -97.6987358,
    "gmapsCategory": "Liquor store"
  },
  {
    "type": "Liquor",
    "name": "E Cigs and more",
    "lat": 32.7590797,
    "long": -97.8089948,
    "gmapsCategory": ""
  },
  {
    "type": "Liquor",
    "name": "Gina s Liquor Store",
    "lat": 32.6190665,
    "long": -97.5335574,
    "gmapsCategory": "Liquor store"
  },
  {
    "type": "Liquor",
    "name": "VinoCo",
    "lat": 32.7011558,
    "long": -97.6033507,
    "gmapsCategory": "Wine store"
  },
  {
    "type": "Liquor",
    "name": "Tin Top Wine, Spirits, Tobacco More",
    "lat": 32.6161792,
    "long": -97.8022166,
    "gmapsCategory": "Liquor store"
  },
  {
    "type": "Liquor",
    "name": "Pemberton Cellars Winery",
    "lat": 32.470261,
    "long": -97.845032,
    "gmapsCategory": "Winery"
  },
  {
    "type": "Liquor",
    "name": "Fast Run Beer Wine",
    "lat": 32.7351408,
    "long": -97.6310322,
    "gmapsCategory": "Convenience store"
  },
  {
    "type": "Liquor",
    "name": "McCart Liquor Drive Through ",
    "lat": 32.6522517,
    "long": -97.3656744,
    "gmapsCategory": "Liquor store"
  },
  {
    "type": "Liquor",
    "name": " S Liquor",
    "lat": 32.6337042,
    "long": -97.3710273,
    "gmapsCategory": "Liquor store"
  },
  {
    "type": "Liquor",
    "name": "Liquor hub",
    "lat": 32.6456907,
    "long": -97.4102424,
    "gmapsCategory": "Liquor store"
  },
  {
    "type": "Liquor",
    "name": "Let s go liquor",
    "lat": 32.6343479,
    "long": -97.3720618,
    "gmapsCategory": "Liquor store"
  },
  {
    "type": "Liquor",
    "name": "AJ s Liquor Buz Chisholm Trail ",
    "lat": 32.6059342,
    "long": -97.4053402,
    "gmapsCategory": "Liquor store"
  },
  {
    "type": "Liquor",
    "name": "Creek Liquor Cigar Wine Vape Smoke",
    "lat": 32.6453782,
    "long": -97.426105,
    "gmapsCategory": "Liquor store"
  },
  {
    "type": "Liquor",
    "name": "Fort liquor ",
    "lat": 32.6504894,
    "long": -97.367989,
    "gmapsCategory": "Liquor store"
  },
  {
    "type": "Liquor",
    "name": "Reggis liquor",
    "lat": 32.6323598,
    "long": -97.4073121,
    "gmapsCategory": "Liquor store"
  },
  {
    "type": "Liquor",
    "name": "Liquor Point",
    "lat": 32.6208322,
    "long": -97.3481251,
    "gmapsCategory": "Liquor store"
  },
  {
    "type": "Liquor",
    "name": " APPLES LIQUOR ",
    "lat": 32.6325199,
    "long": -97.4083565,
    "gmapsCategory": "Liquor store"
  },
  {
    "type": "Liquor",
    "name": "Horizon Liquor",
    "lat": 32.6161107,
    "long": -97.3877328,
    "gmapsCategory": "Liquor store"
  },
  {
    "type": "Liquor",
    "name": "TOMS E Z N",
    "lat": 32.620752,
    "long": -97.3481542,
    "gmapsCategory": ""
  },
  {
    "type": "Liquor",
    "name": "TEXAS WINE LIQUOR",
    "lat": 32.6349759,
    "long": -97.3812651,
    "gmapsCategory": "Liquor store"
  },
  {
    "type": "Liquor",
    "name": "Wine Snazzies",
    "lat": 32.6335939,
    "long": -97.3723368,
    "gmapsCategory": "Liquor store"
  },
  {
    "type": "Liquor",
    "name": "La La Liquor",
    "lat": 32.6852342,
    "long": -97.2811767,
    "gmapsCategory": "Liquor store"
  },
  {
    "type": "Liquor",
    "name": "Forest Hill Liquor Store",
    "lat": 32.6851659,
    "long": -97.285271,
    "gmapsCategory": "Liquor store"
  },
  {
    "type": "Liquor",
    "name": "Cowboy Beer",
    "lat": 32.7088264,
    "long": -97.2328652,
    "gmapsCategory": "Beer store"
  },
  {
    "type": "Liquor",
    "name": "Zoom In Liquor Store",
    "lat": 32.7061824,
    "long": -97.3074807,
    "gmapsCategory": "Liquor store"
  },
  {
    "type": "Liquor",
    "name": "GRAND AFFAIR LIQUOR",
    "lat": 32.7136334,
    "long": -97.2781826,
    "gmapsCategory": "Liquor store"
  },
  {
    "type": "Liquor",
    "name": "Let E s Go Liquor Berry St",
    "lat": 32.713857,
    "long": -97.2584687,
    "gmapsCategory": "Liquor store"
  },
  {
    "type": "Liquor",
    "name": "Sigel s F Twin Liquors Wholesale",
    "lat": 32.7027787,
    "long": -97.2325981,
    "gmapsCategory": "Sigel's/ Twin Liquors Wholesale"
  },
  {
    "type": "Liquor",
    "name": "Paradise Liquors",
    "lat": 32.7293158,
    "long": -97.2233697,
    "gmapsCategory": "Liquor store"
  },
  {
    "type": "Liquor",
    "name": "Liquor Selects",
    "lat": 32.6250204,
    "long": -97.2964336,
    "gmapsCategory": "Liquor store"
  },
  {
    "type": "Liquor",
    "name": "Nancy s Liquor",
    "lat": 32.6651656,
    "long": -97.2403808,
    "gmapsCategory": "Liquor store"
  },
  {
    "type": "Liquor",
    "name": "Mann Liquor",
    "lat": 32.6246818,
    "long": -97.1971737,
    "gmapsCategory": "Liquor store"
  },
  {
    "type": "Liquor",
    "name": "Kennedale liquor",
    "lat": 32.6495972,
    "long": -97.2250594,
    "gmapsCategory": "Liquor store"
  },
  {
    "type": "Liquor",
    "name": "White Horse Liquor",
    "lat": 32.7403611,
    "long": -97.2533758,
    "gmapsCategory": "Liquor store"
  },
  {
    "type": "Liquor",
    "name": "Prime Valley Beverage",
    "lat": 32.6782872,
    "long": -97.2396074,
    "gmapsCategory": "Liquor store"
  },
  {
    "type": "Liquor",
    "name": "FunkyTown Throw d Stones",
    "lat": 32.7419518,
    "long": -97.282973,
    "gmapsCategory": ""
  },
  {
    "type": "Liquor",
    "name": "Addox Liquor",
    "lat": 32.7314246,
    "long": -97.258029,
    "gmapsCategory": "Liquor store"
  },
  {
    "type": "Liquor",
    "name": "Everman Liquor",
    "lat": 32.6311839,
    "long": -97.2698385,
    "gmapsCategory": "Liquor store"
  },
  {
    "type": "Liquor",
    "name": "Romeo Liquor",
    "lat": 32.7294749,
    "long": -97.2224116,
    "gmapsCategory": "Liquor store"
  },
  {
    "type": "Liquor",
    "name": "STAR LIQUOR",
    "lat": 32.6586308,
    "long": -97.2695716,
    "gmapsCategory": "Liquor store"
  },
  {
    "type": "Liquor",
    "name": "Good Times Liquor",
    "lat": 32.6848852,
    "long": -97.3143193,
    "gmapsCategory": "Liquor store"
  },
  {
    "type": "Liquor",
    "name": "Liquor Empire Beer, Wine, Spirits More",
    "lat": 32.6272517,
    "long": -97.1184067,
    "gmapsCategory": "Liquor store"
  },
  {
    "type": "Liquor",
    "name": "All Liquor",
    "lat": 32.655728,
    "long": -97.133124,
    "gmapsCategory": "Liquor store"
  },
  {
    "type": "Liquor",
    "name": "The Liquor Outpost",
    "lat": 32.6078202,
    "long": -97.0794098,
    "gmapsCategory": "Liquor store"
  },
  {
    "type": "Liquor",
    "name": "Raymond s Liquor Stop",
    "lat": 32.6148634,
    "long": -97.1605552,
    "gmapsCategory": "Liquor store"
  },
  {
    "type": "Liquor",
    "name": "JUNO S LIQUOR STORE SOUTH COOPER ST",
    "lat": 32.6193653,
    "long": -97.1374449,
    "gmapsCategory": "Liquor store"
  },
  {
    "type": "Liquor",
    "name": "Beer Wine World",
    "lat": 32.5935784,
    "long": -97.1411009,
    "gmapsCategory": "Liquor store"
  },
  {
    "type": "Liquor",
    "name": "Taphouse at Market Street",
    "lat": 32.5759597,
    "long": -97.0878971,
    "gmapsCategory": "Liquor store"
  },
  {
    "type": "Liquor",
    "name": " Eleven",
    "lat": 32.5905746,
    "long": -97.1613445,
    "gmapsCategory": "Convenience store"
  },
  {
    "type": "Liquor",
    "name": "Liquor Depot ",
    "lat": 32.6459806,
    "long": -97.060882,
    "gmapsCategory": "Liquor store"
  },
  {
    "type": "Liquor",
    "name": "Geekay s Liquor",
    "lat": 32.6486473,
    "long": -97.0417327,
    "gmapsCategory": "Liquor store"
  },
  {
    "type": "Liquor",
    "name": "Lakeside Liquor",
    "lat": 32.5945087,
    "long": -97.0354876,
    "gmapsCategory": "Liquor store"
  },
  {
    "type": "Liquor",
    "name": "Spec s Wines, Spirits Finer Foods",
    "lat": 32.6108141,
    "long": -97.0734579,
    "gmapsCategory": "Liquor store"
  },
  {
    "type": "Liquor",
    "name": "Liquor Depot Grand Prairie",
    "lat": 32.6502055,
    "long": -97.0441731,
    "gmapsCategory": "Liquor store"
  },
  {
    "type": "Liquor",
    "name": "Smart Stops of Texas ",
    "lat": 32.4617147,
    "long": -96.9431504,
    "gmapsCategory": "Convenience store"
  },
  {
    "type": "Liquor",
    "name": "Oasis Food Store",
    "lat": 32.4663478,
    "long": -96.9937926,
    "gmapsCategory": "Convenience store"
  },
  {
    "type": "Liquor",
    "name": "QuikTrip",
    "lat": 32.4618378,
    "long": -96.9946864,
    "gmapsCategory": "\"Very clean store fast checkout well stocked and very well taken care of.\""
  },
  {
    "type": "Liquor",
    "name": "Rda Pro Mart",
    "lat": 32.4849144,
    "long": -96.9912503,
    "gmapsCategory": "Convenience store"
  },
  {
    "type": "Liquor",
    "name": " Eleven",
    "lat": 32.4746406,
    "long": -96.9765006,
    "gmapsCategory": "Convenience store"
  },
  {
    "type": "Liquor",
    "name": "Brookshire s",
    "lat": 32.4730446,
    "long": -96.9776616,
    "gmapsCategory": "Grocery store"
  },
  {
    "type": "Liquor",
    "name": "CVS",
    "lat": 32.4814603,
    "long": -96.9926925,
    "gmapsCategory": "Drug store"
  },
  {
    "type": "Liquor",
    "name": " Eleven",
    "lat": 32.4568363,
    "long": -96.9960171,
    "gmapsCategory": "Convenience store"
  },
  {
    "type": "Liquor",
    "name": "Sandflat Country Store",
    "lat": 32.32288,
    "long": -97.2880908,
    "gmapsCategory": "Convenience store"
  },
  {
    "type": "Liquor",
    "name": "EZ IN N OUT",
    "lat": 32.3609825,
    "long": -97.391576,
    "gmapsCategory": "Convenience store"
  },
  {
    "type": "Liquor",
    "name": "EZ IN N OUT SUNOCO ",
    "lat": 32.3461694,
    "long": -97.3926193,
    "gmapsCategory": "Convenience store"
  },
  {
    "type": "Liquor",
    "name": "Trovato Street",
    "lat": 32.347611,
    "long": -97.3852972,
    "gmapsCategory": ""
  },
  {
    "type": "Liquor",
    "name": "RaceTrac",
    "lat": 32.3847243,
    "long": -97.3906211,
    "gmapsCategory": ""
  },
  {
    "type": "Liquor",
    "name": "QUIK SHOP",
    "lat": 32.3640558,
    "long": -97.3927363,
    "gmapsCategory": "Convenience store"
  },
  {
    "type": "Liquor",
    "name": "The Branded Ph C A nix Bar Grill",
    "lat": 32.4629544,
    "long": -97.3889006,
    "gmapsCategory": "The Branded Ph√©nix Bar & Grill"
  },
  {
    "type": "Liquor",
    "name": " Eleven",
    "lat": 32.3755455,
    "long": -97.4174361,
    "gmapsCategory": "Convenience store"
  },
  {
    "type": "Liquor",
    "name": "CVS",
    "lat": 32.346362,
    "long": -97.3945864,
    "gmapsCategory": "Drug store"
  },
  {
    "type": "Liquor",
    "name": "FM Liquor, Beer Wine",
    "lat": 32.3137313,
    "long": -97.0120295,
    "gmapsCategory": "Liquor store"
  },
  {
    "type": "Liquor",
    "name": "Maypearl s Top Shelf",
    "lat": 32.3104044,
    "long": -97.0131851,
    "gmapsCategory": "Liquor store"
  },
  {
    "type": "Liquor",
    "name": "Exxon",
    "lat": 32.3136477,
    "long": -97.0119879,
    "gmapsCategory": ""
  },
  {
    "type": "Liquor",
    "name": "Smashley Mart",
    "lat": 32.3136619,
    "long": -97.0119825,
    "gmapsCategory": "Convenience store"
  },
  {
    "type": "Liquor",
    "name": "Spring Market",
    "lat": 32.2773284,
    "long": -97.1795272,
    "gmapsCategory": "Grocery store"
  }
]