[
  {
    "type": "Liquor",
    "name": "Liquor Paradise",
    "lat": 34.1062676,
    "long": -117.5808442,
    "gmapsCategory": "Liquor store"
  },
  {
    "type": "Liquor",
    "name": "Ontario Liquor",
    "lat": 34.0778353,
    "long": -117.6263261,
    "gmapsCategory": "Liquor store"
  },
  {
    "type": "Liquor",
    "name": "Milliken Liquor",
    "lat": 34.078758,
    "long": -117.5579213,
    "gmapsCategory": "Liquor store"
  },
  {
    "type": "Liquor",
    "name": "Liquorama",
    "lat": 34.1083394,
    "long": -117.6630546,
    "gmapsCategory": "Liquor store"
  },
  {
    "type": "Liquor",
    "name": "Lucky Liquor",
    "lat": 34.0891612,
    "long": -117.6723535,
    "gmapsCategory": "Liquor store"
  },
  {
    "type": "Liquor",
    "name": "Bourbon Street Liquor",
    "lat": 34.123447,
    "long": -117.6718478,
    "gmapsCategory": "Liquor store"
  },
  {
    "type": "Liquor",
    "name": "Sami s Xi market liquor",
    "lat": 34.0810522,
    "long": -117.6116114,
    "gmapsCategory": "Liquor store"
  },
  {
    "type": "Liquor",
    "name": "Village liquor and mart",
    "lat": 34.1216179,
    "long": -117.5303164,
    "gmapsCategory": "Liquor store"
  },
  {
    "type": "Liquor",
    "name": "GK Market Liquor",
    "lat": 34.1062574,
    "long": -117.6290219,
    "gmapsCategory": "Liquor store"
  },
  {
    "type": "Liquor",
    "name": "S E Liquor",
    "lat": 34.071859,
    "long": -117.592931,
    "gmapsCategory": "Liquor store"
  },
  {
    "type": "Liquor",
    "name": "Red Carpet Wine Spirits",
    "lat": 34.1329301,
    "long": -117.6168085,
    "gmapsCategory": "Liquor store"
  },
  {
    "type": "Liquor",
    "name": "Ramona Liquor",
    "lat": 34.1072056,
    "long": -117.5887704,
    "gmapsCategory": "Liquor store"
  },
  {
    "type": "Liquor",
    "name": "NGM LIQUOR",
    "lat": 34.1208974,
    "long": -117.602767,
    "gmapsCategory": "Liquor store"
  },
  {
    "type": "Liquor",
    "name": "Total Wine More",
    "lat": 34.1044772,
    "long": -117.5363682,
    "gmapsCategory": "Liquor store"
  },
  {
    "type": "Liquor",
    "name": "Sunrise Liquor and Market",
    "lat": 34.1203562,
    "long": -117.6166891,
    "gmapsCategory": "Liquor store"
  },
  {
    "type": "Liquor",
    "name": "A J Liquor Mart",
    "lat": 34.1057968,
    "long": -117.5069402,
    "gmapsCategory": "Liquor store"
  },
  {
    "type": "Liquor",
    "name": "Corks Cans liquor",
    "lat": 34.0781809,
    "long": -117.6690298,
    "gmapsCategory": "Liquor store"
  },
  {
    "type": "Liquor",
    "name": "Cesar E s market",
    "lat": 34.0776521,
    "long": -117.6459843,
    "gmapsCategory": "Liquor store"
  },
  {
    "type": "Liquor",
    "name": "Al s Liquor Deli",
    "lat": 34.1061597,
    "long": -117.6101821,
    "gmapsCategory": "Liquor store"
  },
  {
    "type": "Liquor",
    "name": "Samis Market Liquor",
    "lat": 34.0998757,
    "long": -117.6500974,
    "gmapsCategory": "Liquor store"
  },
  {
    "type": "Liquor",
    "name": "The Brothers Liquor",
    "lat": 34.0995687,
    "long": -117.5849765,
    "gmapsCategory": "Liquor store"
  },
  {
    "type": "Liquor",
    "name": "Archibald Liquor and Wine",
    "lat": 34.0922225,
    "long": -117.5937952,
    "gmapsCategory": "Liquor store"
  },
  {
    "type": "Liquor",
    "name": "Wine Liquor Cabinet",
    "lat": 34.1225047,
    "long": -117.6717074,
    "gmapsCategory": "Liquor store"
  },
  {
    "type": "Liquor",
    "name": "Chaffey Liquor",
    "lat": 34.1389304,
    "long": -117.5762335,
    "gmapsCategory": "Liquor store"
  },
  {
    "type": "Liquor",
    "name": "Gordy s Liquor",
    "lat": 34.1068448,
    "long": -117.6437823,
    "gmapsCategory": "Liquor store"
  },
  {
    "type": "Liquor",
    "name": "Beverage House Liquor ",
    "lat": 34.0877012,
    "long": -117.6409586,
    "gmapsCategory": "Liquor store"
  },
  {
    "type": "Liquor",
    "name": "J R s Market Liquor",
    "lat": 34.0917242,
    "long": -117.6116471,
    "gmapsCategory": "Liquor store"
  },
  {
    "type": "Liquor",
    "name": "Castle Liquor",
    "lat": 34.132428,
    "long": -117.617215,
    "gmapsCategory": "Liquor store"
  },
  {
    "type": "Liquor",
    "name": "Beverage House Liquor ",
    "lat": 34.1330646,
    "long": -117.5916343,
    "gmapsCategory": "Liquor store"
  },
  {
    "type": "Liquor",
    "name": "Raw Class Wine Spirits",
    "lat": 34.1067217,
    "long": -117.5252377,
    "gmapsCategory": "Liquor store"
  },
  {
    "type": "Liquor",
    "name": "Carl s Liquor Store",
    "lat": 34.1063571,
    "long": -117.5939317,
    "gmapsCategory": "Liquor store"
  },
  {
    "type": "Liquor",
    "name": "BevMo ",
    "lat": 34.1076317,
    "long": -117.5392106,
    "gmapsCategory": "Wine store"
  },
  {
    "type": "Liquor",
    "name": "Liquor Plus Mart",
    "lat": 34.1203642,
    "long": -117.5118148,
    "gmapsCategory": "Liquor store"
  },
  {
    "type": "Liquor",
    "name": "Prestige Liquor Deli",
    "lat": 34.1228898,
    "long": -117.6156749,
    "gmapsCategory": "Liquor store"
  },
  {
    "type": "Liquor",
    "name": "Upland Liquor Market",
    "lat": 34.0964815,
    "long": -117.6365326,
    "gmapsCategory": "Liquor store"
  },
  {
    "type": "Liquor",
    "name": "Town Market Liquor",
    "lat": 34.0557028,
    "long": -117.6667476,
    "gmapsCategory": "Liquor store"
  },
  {
    "type": "Liquor",
    "name": "Sam s Liquor Store",
    "lat": 34.0634827,
    "long": -117.6529498,
    "gmapsCategory": "Liquor store"
  },
  {
    "type": "Liquor",
    "name": "Stop N Shop",
    "lat": 34.0642717,
    "long": -117.6804613,
    "gmapsCategory": "Liquor store"
  },
  {
    "type": "Liquor",
    "name": "Party Time Liquor",
    "lat": 34.0685636,
    "long": -117.6693835,
    "gmapsCategory": "Liquor store"
  },
  {
    "type": "Liquor",
    "name": "Mission Mountain Liquor",
    "lat": 34.0549466,
    "long": -117.6703147,
    "gmapsCategory": "Liquor store"
  },
  {
    "type": "Liquor",
    "name": "Jay s Liquor Market",
    "lat": 34.0918578,
    "long": -117.6203236,
    "gmapsCategory": "Liquor store"
  },
  {
    "type": "Liquor",
    "name": "Liquor Market",
    "lat": 34.1208715,
    "long": -117.6027643,
    "gmapsCategory": "Liquor store"
  },
  {
    "type": "Liquor",
    "name": "Mike s Liquor",
    "lat": 34.095835,
    "long": -117.6291136,
    "gmapsCategory": "Liquor store"
  },
  {
    "type": "Liquor",
    "name": "Town Country Liquors",
    "lat": 34.1067242,
    "long": -117.5252417,
    "gmapsCategory": "Liquor store"
  },
  {
    "type": "Liquor",
    "name": "Haven Mart Liquor",
    "lat": 34.1102031,
    "long": -117.5764572,
    "gmapsCategory": "Liquor store"
  },
  {
    "type": "Liquor",
    "name": "Mountain Liquor",
    "lat": 34.1000011,
    "long": -117.6720705,
    "gmapsCategory": "Liquor store"
  },
  {
    "type": "Liquor",
    "name": "BevMo ",
    "lat": 34.1321338,
    "long": -117.6359127,
    "gmapsCategory": "Wine store"
  },
  {
    "type": "Liquor",
    "name": "Andy s Market",
    "lat": 34.08141,
    "long": -117.6290565,
    "gmapsCategory": "Liquor store"
  },
  {
    "type": "Liquor",
    "name": "Haven Mini Mart",
    "lat": 34.070519,
    "long": -117.576368,
    "gmapsCategory": "Liquor store"
  },
  {
    "type": "Liquor",
    "name": "Samis Market Liquor",
    "lat": 34.0976849,
    "long": -117.6516829,
    "gmapsCategory": "Liquor store"
  },
  {
    "type": "Liquor",
    "name": "BevMo ",
    "lat": 34.0899855,
    "long": -117.6683554,
    "gmapsCategory": "Wine store"
  },
  {
    "type": "Liquor",
    "name": "H K Food Store",
    "lat": 34.0847627,
    "long": -117.6295021,
    "gmapsCategory": "Liquor store"
  },
  {
    "type": "Liquor",
    "name": "Rancho Liquor Market",
    "lat": 34.0944544,
    "long": -117.5841924,
    "gmapsCategory": "Supermarket"
  },
  {
    "type": "Liquor",
    "name": "Happy Liquor",
    "lat": 34.0635177,
    "long": -117.680094,
    "gmapsCategory": "Liquor store"
  },
  {
    "type": "Liquor",
    "name": "Pacific Wine Merchants",
    "lat": 34.0945863,
    "long": -117.6481055,
    "gmapsCategory": "Wine store"
  },
  {
    "type": "Liquor",
    "name": "Marine Beer Wine Market",
    "lat": 34.0668334,
    "long": -117.641544,
    "gmapsCategory": "Liquor store"
  },
  {
    "type": "Liquor",
    "name": "Arrow Grove Market",
    "lat": 34.099654,
    "long": -117.6283852,
    "gmapsCategory": "Liquor store"
  },
  {
    "type": "Liquor",
    "name": " ",
    "lat": 34.13179,
    "long": -117.61664,
    "gmapsCategory": "Liquor store"
  },
  {
    "type": "Liquor",
    "name": "Fine Wine House",
    "lat": 34.1084064,
    "long": -117.662997,
    "gmapsCategory": "Wine store"
  },
  {
    "type": "Liquor",
    "name": "Craft Beer Cave",
    "lat": 34.1075223,
    "long": -117.6423965,
    "gmapsCategory": "Liquor store"
  },
  {
    "type": "Liquor",
    "name": "REBEL Convenience Stores",
    "lat": 34.09212,
    "long": -117.6698165,
    "gmapsCategory": "Convenience store"
  },
  {
    "type": "Liquor",
    "name": "LIQ",
    "lat": 34.1118955,
    "long": -117.5317445,
    "gmapsCategory": "Shoe store"
  },
  {
    "type": "Liquor",
    "name": " Eleven",
    "lat": 34.0787105,
    "long": -117.5587107,
    "gmapsCategory": "Convenience store"
  },
  {
    "type": "Liquor",
    "name": "Amigos Speedo Liquor",
    "lat": 34.0631805,
    "long": -117.6620981,
    "gmapsCategory": "Liquor store"
  },
  {
    "type": "Liquor",
    "name": "Omo Mercado",
    "lat": 34.0999493,
    "long": -117.6474708,
    "gmapsCategory": "Wine bar"
  },
  {
    "type": "Liquor",
    "name": "Wine Me Up Social",
    "lat": 34.1218418,
    "long": -117.6353684,
    "gmapsCategory": "Wine club"
  },
  {
    "type": "Liquor",
    "name": "Buzz N E Roll",
    "lat": 34.088325,
    "long": -117.6282884,
    "gmapsCategory": "Convenience store"
  },
  {
    "type": "Liquor",
    "name": " s Market",
    "lat": 34.0668768,
    "long": -117.6415491,
    "gmapsCategory": "Beer store"
  },
  {
    "type": "Liquor",
    "name": " ",
    "lat": 34.077118,
    "long": -117.611534,
    "gmapsCategory": "Liquor store"
  },
  {
    "type": "Liquor",
    "name": " Eleven",
    "lat": 34.1219643,
    "long": -117.5989442,
    "gmapsCategory": "Convenience store"
  },
  {
    "type": "Liquor",
    "name": " ",
    "lat": 34.12192,
    "long": -117.59305,
    "gmapsCategory": "Liquor store"
  },
  {
    "type": "Liquor",
    "name": "Trader Joe s",
    "lat": 34.1377362,
    "long": -117.5741371,
    "gmapsCategory": "Liquor store"
  },
  {
    "type": "Liquor",
    "name": "Walmart Wine and Liquor",
    "lat": 34.1068929,
    "long": -117.6300144,
    "gmapsCategory": "Liquor store"
  },
  {
    "type": "Liquor",
    "name": "Sunny E s market",
    "lat": 34.0999097,
    "long": -117.6822594,
    "gmapsCategory": "Liquor store"
  },
  {
    "type": "Liquor",
    "name": " Eleven",
    "lat": 34.1375425,
    "long": -117.5763326,
    "gmapsCategory": "Convenience store"
  },
  {
    "type": "Liquor",
    "name": "One Stop Liquor Mart",
    "lat": 34.0927989,
    "long": -117.6862113,
    "gmapsCategory": "Liquor store"
  },
  {
    "type": "Liquor",
    "name": "IITEQINFO COM",
    "lat": 34.1062279,
    "long": -117.6536761,
    "gmapsCategory": "Liquor store"
  },
  {
    "type": "Liquor",
    "name": "Claro s Italian Markets",
    "lat": 34.1231769,
    "long": -117.6719394,
    "gmapsCategory": ""
  },
  {
    "type": "Liquor",
    "name": " Eleven",
    "lat": 34.0965399,
    "long": -117.6504604,
    "gmapsCategory": "Convenience store"
  },
  {
    "type": "Liquor",
    "name": " Eleven",
    "lat": 34.106021,
    "long": -117.5493949,
    "gmapsCategory": "Convenience store"
  },
  {
    "type": "Liquor",
    "name": " Eleven",
    "lat": 34.0957362,
    "long": -117.6613233,
    "gmapsCategory": "Convenience store"
  },
  {
    "type": "Liquor",
    "name": " Eleven",
    "lat": 34.1065305,
    "long": -117.6411828,
    "gmapsCategory": "Convenience store"
  },
  {
    "type": "Liquor",
    "name": " Eleven",
    "lat": 34.1072269,
    "long": -117.5609807,
    "gmapsCategory": "Convenience store"
  },
  {
    "type": "Liquor",
    "name": " Eleven",
    "lat": 34.1210791,
    "long": -117.559261,
    "gmapsCategory": "Convenience store"
  },
  {
    "type": "Liquor",
    "name": "Ralphs",
    "lat": 34.1350264,
    "long": -117.539366,
    "gmapsCategory": "Liquor store"
  },
  {
    "type": "Liquor",
    "name": "Amazon Fresh",
    "lat": 34.1082782,
    "long": -117.6473806,
    "gmapsCategory": "Grocery store"
  },
  {
    "type": "Liquor",
    "name": "Liquorland",
    "lat": 34.1062162,
    "long": -117.6899429,
    "gmapsCategory": "Liquor store"
  },
  {
    "type": "Liquor",
    "name": " Eleven",
    "lat": 34.0768635,
    "long": -117.5507139,
    "gmapsCategory": "Convenience store"
  },
  {
    "type": "Liquor",
    "name": " Eleven",
    "lat": 34.0768716,
    "long": -117.5736785,
    "gmapsCategory": "Convenience store"
  },
  {
    "type": "Liquor",
    "name": "Ralphs",
    "lat": 34.1225854,
    "long": -117.5733672,
    "gmapsCategory": "Liquor store"
  },
  {
    "type": "Liquor",
    "name": " Eleven",
    "lat": 34.077614,
    "long": -117.6706873,
    "gmapsCategory": "Convenience store"
  },
  {
    "type": "Liquor",
    "name": " Eleven",
    "lat": 34.0883335,
    "long": -117.6806015,
    "gmapsCategory": "Convenience store"
  },
  {
    "type": "Liquor",
    "name": " Eleven",
    "lat": 34.0702352,
    "long": -117.6554579,
    "gmapsCategory": "Convenience store"
  },
  {
    "type": "Liquor",
    "name": "Sam s Market Liquor",
    "lat": 34.1051012,
    "long": -117.689393,
    "gmapsCategory": "Liquor store"
  },
  {
    "type": "Liquor",
    "name": " Eleven",
    "lat": 34.1014161,
    "long": -117.6705498,
    "gmapsCategory": "Convenience store"
  },
  {
    "type": "Liquor",
    "name": "Food Less",
    "lat": 34.1048756,
    "long": -117.5245821,
    "gmapsCategory": "Liquor store"
  },
  {
    "type": "Liquor",
    "name": "CVS",
    "lat": 34.1054883,
    "long": -117.6527434,
    "gmapsCategory": "Liquor store"
  },
  {
    "type": "Liquor",
    "name": " Eleven",
    "lat": 34.0561115,
    "long": -117.6504217,
    "gmapsCategory": "Convenience store"
  },
  {
    "type": "Liquor",
    "name": "Lou s Liquor Montclair",
    "lat": 34.0784777,
    "long": -117.6898789,
    "gmapsCategory": "Liquor store"
  },
  {
    "type": "Liquor",
    "name": " Eleven",
    "lat": 34.0772243,
    "long": -117.6211599,
    "gmapsCategory": "Convenience store"
  },
  {
    "type": "Liquor",
    "name": "Ralphs",
    "lat": 34.119888,
    "long": -117.5569637,
    "gmapsCategory": "Liquor store"
  },
  {
    "type": "Liquor",
    "name": "Lisa s Market F Sandwiches Shop",
    "lat": 34.066881,
    "long": -117.6435559,
    "gmapsCategory": "\"Never been to a sandwich shop inside a liquor store.\""
  },
  {
    "type": "Liquor",
    "name": "LIQUOR WORLD",
    "lat": 34.0471176,
    "long": -117.6516169,
    "gmapsCategory": "Liquor store"
  },
  {
    "type": "Liquor",
    "name": "Cherry Liquors",
    "lat": 34.0996018,
    "long": -117.4882705,
    "gmapsCategory": "Liquor store"
  },
  {
    "type": "Liquor",
    "name": "CVS",
    "lat": 34.1100257,
    "long": -117.5750357,
    "gmapsCategory": "Liquor store"
  },
  {
    "type": "Liquor",
    "name": "Kwik Stop Liquor",
    "lat": 34.0670233,
    "long": -117.6904396,
    "gmapsCategory": "Liquor store"
  },
  {
    "type": "Liquor",
    "name": "Wine Barrel Liquor",
    "lat": 34.0335562,
    "long": -117.6502683,
    "gmapsCategory": "Liquor store"
  },
  {
    "type": "Liquor",
    "name": "Party House Liquor",
    "lat": 33.9836153,
    "long": -117.715883,
    "gmapsCategory": "Liquor store"
  },
  {
    "type": "Liquor",
    "name": "Easy Day Liquor",
    "lat": 34.074287,
    "long": -117.719656,
    "gmapsCategory": "Liquor store"
  },
  {
    "type": "Liquor",
    "name": "Royal Liquor",
    "lat": 34.0336051,
    "long": -117.7159755,
    "gmapsCategory": "Liquor store"
  },
  {
    "type": "Liquor",
    "name": "Shop Rite Liquor",
    "lat": 34.0183723,
    "long": -117.7012911,
    "gmapsCategory": "Liquor store"
  },
  {
    "type": "Liquor",
    "name": "Village Liquor",
    "lat": 34.0180266,
    "long": -117.715197,
    "gmapsCategory": "Liquor store"
  },
  {
    "type": "Liquor",
    "name": "Di Carlo Liquor",
    "lat": 34.0701256,
    "long": -117.759555,
    "gmapsCategory": "Liquor store"
  },
  {
    "type": "Liquor",
    "name": "Pomona Wine Cellar",
    "lat": 34.0624432,
    "long": -117.7421675,
    "gmapsCategory": "Liquor store"
  },
  {
    "type": "Liquor",
    "name": "E R Liquor",
    "lat": 34.0753637,
    "long": -117.7524888,
    "gmapsCategory": "Liquor store"
  },
  {
    "type": "Liquor",
    "name": "East End Liquor Shoppe",
    "lat": 34.0626529,
    "long": -117.7308762,
    "gmapsCategory": "Liquor store"
  },
  {
    "type": "Liquor",
    "name": "Top Hat Liquor",
    "lat": 34.062466,
    "long": -117.777017,
    "gmapsCategory": "Liquor store"
  },
  {
    "type": "Liquor",
    "name": "Towne Shoppe Liquor",
    "lat": 34.0486671,
    "long": -117.7501808,
    "gmapsCategory": "Liquor store"
  },
  {
    "type": "Liquor",
    "name": "V S Mini Mart",
    "lat": 34.0191509,
    "long": -117.7249338,
    "gmapsCategory": "Liquor store"
  },
  {
    "type": "Liquor",
    "name": "Jay s Liquor Store",
    "lat": 34.057925,
    "long": -117.7368163,
    "gmapsCategory": "Liquor store"
  },
  {
    "type": "Liquor",
    "name": "Ramona Village Market Liquor",
    "lat": 34.0332412,
    "long": -117.7078399,
    "gmapsCategory": "Liquor store"
  },
  {
    "type": "Liquor",
    "name": "COUNTRY STORE",
    "lat": 33.9718474,
    "long": -117.6951519,
    "gmapsCategory": "Liquor store"
  },
  {
    "type": "Liquor",
    "name": "Mountain Market Liquor",
    "lat": 34.0329683,
    "long": -117.6688776,
    "gmapsCategory": "Liquor store"
  },
  {
    "type": "Liquor",
    "name": "Phil s Liquor",
    "lat": 34.0271835,
    "long": -117.6909854,
    "gmapsCategory": "Liquor store"
  },
  {
    "type": "Liquor",
    "name": "A J Liquor",
    "lat": 34.0550387,
    "long": -117.7600144,
    "gmapsCategory": "Liquor store"
  },
  {
    "type": "Liquor",
    "name": "Liquor Store",
    "lat": 33.9717906,
    "long": -117.6951183,
    "gmapsCategory": "Liquor store"
  },
  {
    "type": "Liquor",
    "name": "Mels Liquor Mart",
    "lat": 34.0337667,
    "long": -117.6912222,
    "gmapsCategory": "Liquor store"
  },
  {
    "type": "Liquor",
    "name": "Sunny Liquor",
    "lat": 34.055852,
    "long": -117.7350495,
    "gmapsCategory": "Liquor store"
  },
  {
    "type": "Liquor",
    "name": "Jim s Liquors",
    "lat": 34.0551244,
    "long": -117.7441192,
    "gmapsCategory": "Liquor store"
  },
  {
    "type": "Liquor",
    "name": "Mike s Liquor",
    "lat": 34.0750715,
    "long": -117.7196679,
    "gmapsCategory": "Liquor store"
  },
  {
    "type": "Liquor",
    "name": "Los Serranos Market",
    "lat": 33.9695656,
    "long": -117.7109194,
    "gmapsCategory": "Liquor store"
  },
  {
    "type": "Liquor",
    "name": "Pipeline Wine Spirits",
    "lat": 33.9881662,
    "long": -117.7154831,
    "gmapsCategory": "Beer store"
  },
  {
    "type": "Liquor",
    "name": "Express Liquor",
    "lat": 34.0187017,
    "long": -117.7070394,
    "gmapsCategory": "Liquor store"
  },
  {
    "type": "Liquor",
    "name": "Jakes Market Inc",
    "lat": 34.034104,
    "long": -117.732535,
    "gmapsCategory": "Liquor store"
  },
  {
    "type": "Liquor",
    "name": "Gullien s Central Liquor",
    "lat": 34.0151267,
    "long": -117.6889924,
    "gmapsCategory": "Liquor store"
  },
  {
    "type": "Liquor",
    "name": "Jack s Liquor",
    "lat": 34.0559401,
    "long": -117.7231265,
    "gmapsCategory": "Liquor store"
  },
  {
    "type": "Liquor",
    "name": "Bernard s Liquor Deli",
    "lat": 34.0195825,
    "long": -117.6779281,
    "gmapsCategory": "Liquor store"
  },
  {
    "type": "Liquor",
    "name": "Benson Liquor Market",
    "lat": 34.0184051,
    "long": -117.6808007,
    "gmapsCategory": "Liquor store"
  },
  {
    "type": "Liquor",
    "name": "Cst liquor and market",
    "lat": 34.0152974,
    "long": -117.695824,
    "gmapsCategory": "Liquor store"
  },
  {
    "type": "Liquor",
    "name": "Liquor Plus",
    "lat": 34.0399571,
    "long": -117.6900311,
    "gmapsCategory": "Liquor store"
  },
  {
    "type": "Liquor",
    "name": "Mel s Liquor",
    "lat": 34.0187427,
    "long": -117.7029216,
    "gmapsCategory": "Liquor store"
  },
  {
    "type": "Liquor",
    "name": "BevMo ",
    "lat": 33.9962398,
    "long": -117.7165161,
    "gmapsCategory": "Wine store"
  },
  {
    "type": "Liquor",
    "name": "M M Market and Liquor",
    "lat": 34.0409089,
    "long": -117.7071802,
    "gmapsCategory": "Liquor store"
  },
  {
    "type": "Liquor",
    "name": "Pomona wine cellar ",
    "lat": 34.061843,
    "long": -117.7648263,
    "gmapsCategory": "Liquor store"
  },
  {
    "type": "Liquor",
    "name": "Ted s Liquor",
    "lat": 34.0545866,
    "long": -117.7642778,
    "gmapsCategory": "Liquor store"
  },
  {
    "type": "Liquor",
    "name": "POMONA WINE CELLAR ",
    "lat": 34.054481,
    "long": -117.7642695,
    "gmapsCategory": "Liquor store"
  },
  {
    "type": "Liquor",
    "name": " Eleven",
    "lat": 34.0772795,
    "long": -117.6889916,
    "gmapsCategory": "Convenience store"
  },
  {
    "type": "Liquor",
    "name": "Sami s II market",
    "lat": 34.0480091,
    "long": -117.6504851,
    "gmapsCategory": "Convenience store"
  },
  {
    "type": "Liquor",
    "name": "Steven Liquor",
    "lat": 34.0653921,
    "long": -117.7199512,
    "gmapsCategory": "Liquor store"
  },
  {
    "type": "Liquor",
    "name": " Eleven",
    "lat": 34.0267712,
    "long": -117.6498328,
    "gmapsCategory": "Convenience store"
  },
  {
    "type": "Liquor",
    "name": "H S Energy Extra Mile",
    "lat": 34.0619149,
    "long": -117.7835768,
    "gmapsCategory": "Liquor store"
  },
  {
    "type": "Liquor",
    "name": "Best Market",
    "lat": 34.0647692,
    "long": -117.7073911,
    "gmapsCategory": "Grocery store"
  },
  {
    "type": "Liquor",
    "name": " Eleven",
    "lat": 34.0555827,
    "long": -117.6989968,
    "gmapsCategory": "Convenience store"
  },
  {
    "type": "Liquor",
    "name": " Eleven",
    "lat": 34.0635836,
    "long": -117.7067278,
    "gmapsCategory": "Convenience store"
  },
  {
    "type": "Liquor",
    "name": " Eleven",
    "lat": 33.9717999,
    "long": -117.6883316,
    "gmapsCategory": "Convenience store"
  },
  {
    "type": "Liquor",
    "name": " Eleven",
    "lat": 34.0708558,
    "long": -117.7782228,
    "gmapsCategory": "Convenience store"
  },
  {
    "type": "Liquor",
    "name": " Eleven",
    "lat": 34.0761309,
    "long": -117.7197634,
    "gmapsCategory": "Convenience store"
  },
  {
    "type": "Liquor",
    "name": "My Market",
    "lat": 34.0194632,
    "long": -117.6702513,
    "gmapsCategory": "Liquor store"
  },
  {
    "type": "Liquor",
    "name": "La Caridad Market Liquor F Propane Tank Refill",
    "lat": 34.0487814,
    "long": -117.7157432,
    "gmapsCategory": "La Caridad Market Liquor / Propane Tank Refill"
  },
  {
    "type": "Liquor",
    "name": "La Fiesta Market",
    "lat": 34.030001,
    "long": -117.7484578,
    "gmapsCategory": "Grocery store"
  },
  {
    "type": "Liquor",
    "name": " Eleven",
    "lat": 34.0412027,
    "long": -117.6899355,
    "gmapsCategory": "Convenience store"
  },
  {
    "type": "Liquor",
    "name": " Eleven",
    "lat": 34.0540596,
    "long": -117.7730467,
    "gmapsCategory": "Convenience store"
  },
  {
    "type": "Liquor",
    "name": "River s liquor",
    "lat": 33.9961012,
    "long": -117.4044447,
    "gmapsCategory": "Liquor store"
  },
  {
    "type": "Liquor",
    "name": "Super Liquor",
    "lat": 34.0725893,
    "long": -117.3958446,
    "gmapsCategory": "Liquor store"
  },
  {
    "type": "Liquor",
    "name": "Campus Liquor",
    "lat": 33.9813412,
    "long": -117.3401443,
    "gmapsCategory": "Liquor store"
  },
  {
    "type": "Liquor",
    "name": "Canyon Crest Liquor",
    "lat": 33.98635,
    "long": -117.341195,
    "gmapsCategory": "Liquor store"
  },
  {
    "type": "Liquor",
    "name": "Jurupa Liquor",
    "lat": 33.9621894,
    "long": -117.4149341,
    "gmapsCategory": "Liquor store"
  },
  {
    "type": "Liquor",
    "name": "Quicker Liquor",
    "lat": 34.0766644,
    "long": -117.435507,
    "gmapsCategory": "Liquor store"
  },
  {
    "type": "Liquor",
    "name": "Chantry s Wine Liquor",
    "lat": 33.9773416,
    "long": -117.4540788,
    "gmapsCategory": "Liquor store"
  },
  {
    "type": "Liquor",
    "name": "Garden Grove liquor",
    "lat": 34.0148053,
    "long": -117.3401168,
    "gmapsCategory": "Liquor store"
  },
  {
    "type": "Liquor",
    "name": "Friendly Liquor Store",
    "lat": 33.9829406,
    "long": -117.3780755,
    "gmapsCategory": "Liquor store"
  },
  {
    "type": "Liquor",
    "name": "R R Liquor",
    "lat": 34.074614,
    "long": -117.3354786,
    "gmapsCategory": "Liquor store"
  },
  {
    "type": "Liquor",
    "name": "E J Market Liquor",
    "lat": 33.9763121,
    "long": -117.3630114,
    "gmapsCategory": "Liquor store"
  },
  {
    "type": "Liquor",
    "name": "Shop N Go",
    "lat": 34.0427459,
    "long": -117.3968519,
    "gmapsCategory": "Liquor store"
  },
  {
    "type": "Liquor",
    "name": "Citrus Liquor Market",
    "lat": 34.0705366,
    "long": -117.4546692,
    "gmapsCategory": "Liquor store"
  },
  {
    "type": "Liquor",
    "name": "Howard s Liquor",
    "lat": 33.9825894,
    "long": -117.3576338,
    "gmapsCategory": "Liquor store"
  },
  {
    "type": "Liquor",
    "name": "Quick Pick Liquor",
    "lat": 33.976646,
    "long": -117.378946,
    "gmapsCategory": "Liquor store"
  },
  {
    "type": "Liquor",
    "name": "Olympic Market",
    "lat": 33.9679875,
    "long": -117.3740144,
    "gmapsCategory": "Convenience store"
  },
  {
    "type": "Liquor",
    "name": "Lowrs Market Liquor",
    "lat": 34.0115435,
    "long": -117.4447461,
    "gmapsCategory": "Liquor store"
  },
  {
    "type": "Liquor",
    "name": "Belltown Market Inc",
    "lat": 34.0128098,
    "long": -117.3861209,
    "gmapsCategory": "Liquor store"
  },
  {
    "type": "Liquor",
    "name": "Pine Center Liquor",
    "lat": 33.97665,
    "long": -117.3890431,
    "gmapsCategory": "Liquor store"
  },
  {
    "type": "Liquor",
    "name": "Mega Liquor",
    "lat": 34.0128769,
    "long": -117.4314399,
    "gmapsCategory": "Liquor store"
  },
  {
    "type": "Liquor",
    "name": "John s Liquor Market",
    "lat": 34.0706016,
    "long": -117.4397795,
    "gmapsCategory": "Liquor store"
  },
  {
    "type": "Liquor",
    "name": "Valley Market Liquor",
    "lat": 34.0700666,
    "long": -117.4179883,
    "gmapsCategory": "Liquor store"
  },
  {
    "type": "Liquor",
    "name": "Alder Liquor Deli",
    "lat": 34.0780266,
    "long": -117.4189138,
    "gmapsCategory": "Liquor store"
  },
  {
    "type": "Liquor",
    "name": "Express Liquor",
    "lat": 34.0706348,
    "long": -117.4077626,
    "gmapsCategory": "Liquor store"
  },
  {
    "type": "Liquor",
    "name": "Liquor Specials",
    "lat": 34.076702,
    "long": -117.4354526,
    "gmapsCategory": "Liquor store"
  },
  {
    "type": "Liquor",
    "name": "Liquor Store",
    "lat": 33.967995,
    "long": -117.3740068,
    "gmapsCategory": "Liquor store"
  },
  {
    "type": "Liquor",
    "name": "A Liquor Mart",
    "lat": 34.0701883,
    "long": -117.3887457,
    "gmapsCategory": "Liquor store"
  },
  {
    "type": "Liquor",
    "name": " Liquor",
    "lat": 34.003769,
    "long": -117.4988161,
    "gmapsCategory": "Liquor store"
  },
  {
    "type": "Liquor",
    "name": "Plaza Liquor",
    "lat": 33.9984496,
    "long": -117.4824355,
    "gmapsCategory": "Liquor store"
  },
  {
    "type": "Liquor",
    "name": "Glen Avon Liquor",
    "lat": 34.0119303,
    "long": -117.480009,
    "gmapsCategory": "Liquor store"
  },
  {
    "type": "Liquor",
    "name": "Norco Market Liquor",
    "lat": 33.9381189,
    "long": -117.5394386,
    "gmapsCategory": "Liquor store"
  },
  {
    "type": "Liquor",
    "name": "Sky Country Liquor",
    "lat": 33.9890584,
    "long": -117.5229993,
    "gmapsCategory": "Liquor store"
  },
  {
    "type": "Liquor",
    "name": "Paddock Liquor",
    "lat": 33.975044,
    "long": -117.5248743,
    "gmapsCategory": "Liquor store"
  },
  {
    "type": "Liquor",
    "name": "Mike s Liquor Market",
    "lat": 33.97526,
    "long": -117.4793116,
    "gmapsCategory": "Liquor store"
  },
  {
    "type": "Liquor",
    "name": "Miraloma market liQuor",
    "lat": 33.9928932,
    "long": -117.5196934,
    "gmapsCategory": "Grocery store"
  },
  {
    "type": "Liquor",
    "name": "BevMo ",
    "lat": 33.9729747,
    "long": -117.5447859,
    "gmapsCategory": "Wine store"
  },
  {
    "type": "Liquor",
    "name": "Liquor Del Valle ",
    "lat": 33.9452104,
    "long": -117.4774467,
    "gmapsCategory": "Liquor store"
  },
  {
    "type": "Liquor",
    "name": "Tyler Market Liquor",
    "lat": 33.9283416,
    "long": -117.4735056,
    "gmapsCategory": "Liquor store"
  },
  {
    "type": "Liquor",
    "name": "Liquor JR Market",
    "lat": 33.9280887,
    "long": -117.4738705,
    "gmapsCategory": "Liquor store"
  },
  {
    "type": "Liquor",
    "name": "Samis Market Liquor",
    "lat": 33.9466922,
    "long": -117.4625616,
    "gmapsCategory": "Liquor store"
  },
  {
    "type": "Liquor",
    "name": "Pine Liquor",
    "lat": 33.9412247,
    "long": -117.4531181,
    "gmapsCategory": "Liquor store"
  },
  {
    "type": "Liquor",
    "name": "World Liquor",
    "lat": 33.9462601,
    "long": -117.4439731,
    "gmapsCategory": "Liquor store"
  },
  {
    "type": "Liquor",
    "name": "Stewart s Liquor",
    "lat": 33.9387705,
    "long": -117.4531376,
    "gmapsCategory": "Liquor store"
  },
  {
    "type": "Liquor",
    "name": "ExtraMile",
    "lat": 33.9748402,
    "long": -117.5546106,
    "gmapsCategory": "Convenience store"
  },
  {
    "type": "Liquor",
    "name": "Village Liquor",
    "lat": 33.9465371,
    "long": -117.4811179,
    "gmapsCategory": "Liquor store"
  },
  {
    "type": "Liquor",
    "name": "Ace Liquor",
    "lat": 33.9452511,
    "long": -117.4774465,
    "gmapsCategory": "Liquor store"
  },
  {
    "type": "Liquor",
    "name": "Bi Rite Market Liquor",
    "lat": 33.9280512,
    "long": -117.4747763,
    "gmapsCategory": "Liquor store"
  },
  {
    "type": "Liquor",
    "name": "Sunny Liquor Market",
    "lat": 33.9280489,
    "long": -117.4747776,
    "gmapsCategory": "Liquor store"
  },
  {
    "type": "Liquor",
    "name": "Palm Liquors Delicatessen",
    "lat": 33.9228471,
    "long": -117.441691,
    "gmapsCategory": "Liquor store"
  },
  {
    "type": "Liquor",
    "name": "Liquor Beer Wine",
    "lat": 34.0114852,
    "long": -117.4751613,
    "gmapsCategory": "Liquor store"
  },
  {
    "type": "Liquor",
    "name": "Royale Market",
    "lat": 34.012383,
    "long": -117.4905757,
    "gmapsCategory": "Grocery store"
  },
  {
    "type": "Liquor",
    "name": " Eleven",
    "lat": 34.0142251,
    "long": -117.5238439,
    "gmapsCategory": "Convenience store"
  },
  {
    "type": "Liquor",
    "name": "CAMPBELL S MARKET",
    "lat": 33.9355771,
    "long": -117.4866789,
    "gmapsCategory": "Store"
  },
  {
    "type": "Liquor",
    "name": " Eleven",
    "lat": 33.9466709,
    "long": -117.4607305,
    "gmapsCategory": "Convenience store"
  },
  {
    "type": "Liquor",
    "name": "Fence Post Liquor",
    "lat": 33.9381614,
    "long": -117.5500854,
    "gmapsCategory": "Liquor store"
  },
  {
    "type": "Liquor",
    "name": "Lake Mart",
    "lat": 33.981543,
    "long": -117.5557729,
    "gmapsCategory": "Convenience store"
  },
  {
    "type": "Liquor",
    "name": " Gas station",
    "lat": 34.017136,
    "long": -117.50559,
    "gmapsCategory": "Liquor store"
  },
  {
    "type": "Liquor",
    "name": "Cornerstone Distributing",
    "lat": 34.0258896,
    "long": -117.5312671,
    "gmapsCategory": "Store"
  },
  {
    "type": "Liquor",
    "name": " ",
    "lat": 33.9757301,
    "long": -117.522849,
    "gmapsCategory": "Liquor store"
  },
  {
    "type": "Liquor",
    "name": "Craft Beer Tasting Room",
    "lat": 33.9541158,
    "long": -117.4395911,
    "gmapsCategory": "Liquor store"
  },
  {
    "type": "Liquor",
    "name": "Fastrip",
    "lat": 33.9461717,
    "long": -117.478171,
    "gmapsCategory": "Convenience store"
  },
  {
    "type": "Liquor",
    "name": "Lucky Food Store",
    "lat": 33.9365187,
    "long": -117.4795333,
    "gmapsCategory": "Convenience store"
  },
  {
    "type": "Liquor",
    "name": " Eleven",
    "lat": 33.9388371,
    "long": -117.5451573,
    "gmapsCategory": "Convenience store"
  },
  {
    "type": "Liquor",
    "name": "Mira Loma Market F Propane Tank Refill",
    "lat": 33.9930427,
    "long": -117.5196593,
    "gmapsCategory": ""
  },
  {
    "type": "Liquor",
    "name": "Lucky Food Store",
    "lat": 34.0114379,
    "long": -117.4834185,
    "gmapsCategory": "Convenience store"
  },
  {
    "type": "Liquor",
    "name": "Riverside Beverage Co ",
    "lat": 33.9638079,
    "long": -117.4363429,
    "gmapsCategory": "Liquor store"
  },
  {
    "type": "Liquor",
    "name": "Galleano Winery",
    "lat": 34.011299,
    "long": -117.5422268,
    "gmapsCategory": "Winery"
  },
  {
    "type": "Liquor",
    "name": " Eleven",
    "lat": 33.9339461,
    "long": -117.4548347,
    "gmapsCategory": "Convenience store"
  },
  {
    "type": "Liquor",
    "name": "Goodys Food Store",
    "lat": 33.9272589,
    "long": -117.4513137,
    "gmapsCategory": "Grocery store"
  },
  {
    "type": "Liquor",
    "name": "ampm",
    "lat": 33.9781498,
    "long": -117.4547471,
    "gmapsCategory": "Convenience store"
  },
  {
    "type": "Liquor",
    "name": " Eleven",
    "lat": 34.034373,
    "long": -117.558269,
    "gmapsCategory": "Convenience store"
  },
  {
    "type": "Liquor",
    "name": " Eleven",
    "lat": 33.9575861,
    "long": -117.5576804,
    "gmapsCategory": "Convenience store"
  },
  {
    "type": "Liquor",
    "name": "Country Village Market Deli",
    "lat": 34.0238216,
    "long": -117.5086072,
    "gmapsCategory": "Grocery store"
  },
  {
    "type": "Liquor",
    "name": " Eleven",
    "lat": 33.978195,
    "long": -117.4508736,
    "gmapsCategory": "Convenience store"
  },
  {
    "type": "Liquor",
    "name": "Chuys Market",
    "lat": 34.0118052,
    "long": -117.4978859,
    "gmapsCategory": "Grocery store"
  },
  {
    "type": "Liquor",
    "name": " Eleven",
    "lat": 33.9612105,
    "long": -117.5588712,
    "gmapsCategory": "Convenience store"
  },
  {
    "type": "Liquor",
    "name": "San Antonio Winery Ontario Wine Tasting, Gift Shop Event Center",
    "lat": 34.022213,
    "long": -117.558986,
    "gmapsCategory": "Winery"
  },
  {
    "type": "Liquor",
    "name": " Eleven",
    "lat": 33.9232662,
    "long": -117.4918143,
    "gmapsCategory": "Convenience store"
  },
  {
    "type": "Liquor",
    "name": "La Bodega Wine Spirits",
    "lat": 33.9532571,
    "long": -117.3886383,
    "gmapsCategory": "Liquor store"
  },
  {
    "type": "Liquor",
    "name": "J J s Liquor",
    "lat": 33.9451106,
    "long": -117.2794631,
    "gmapsCategory": "Liquor store"
  },
  {
    "type": "Liquor",
    "name": "Crown Liquor",
    "lat": 33.8868942,
    "long": -117.3319778,
    "gmapsCategory": "Liquor store"
  },
  {
    "type": "Liquor",
    "name": "Woodcrest Liquor",
    "lat": 33.8833149,
    "long": -117.3654623,
    "gmapsCategory": "Liquor store"
  },
  {
    "type": "Liquor",
    "name": "Roy s Liquor",
    "lat": 33.9177923,
    "long": -117.268912,
    "gmapsCategory": "Liquor store"
  },
  {
    "type": "Liquor",
    "name": "Carlos Liquors",
    "lat": 33.971885,
    "long": -117.369716,
    "gmapsCategory": "Liquor store"
  },
  {
    "type": "Liquor",
    "name": "Charlebois Liquors",
    "lat": 33.917086,
    "long": -117.2814445,
    "gmapsCategory": "Liquor store"
  },
  {
    "type": "Liquor",
    "name": "Todos Market Liquor",
    "lat": 33.9322134,
    "long": -117.4016916,
    "gmapsCategory": "Liquor store"
  },
  {
    "type": "Liquor",
    "name": "A Market Liquor",
    "lat": 33.9375872,
    "long": -117.4048877,
    "gmapsCategory": "Liquor store"
  },
  {
    "type": "Liquor",
    "name": "BevMo ",
    "lat": 33.9138963,
    "long": -117.323965,
    "gmapsCategory": "Wine store"
  },
  {
    "type": "Liquor",
    "name": "Lucky Liquor",
    "lat": 33.9462579,
    "long": -117.4327816,
    "gmapsCategory": "Liquor store"
  },
  {
    "type": "Liquor",
    "name": "Lucky Liquors",
    "lat": 33.9462427,
    "long": -117.4327857,
    "gmapsCategory": "Liquor store"
  },
  {
    "type": "Liquor",
    "name": "Fine Wine",
    "lat": 34.0129526,
    "long": -117.4314752,
    "gmapsCategory": "Liquor store"
  },
  {
    "type": "Liquor",
    "name": " Eleven",
    "lat": 34.0552906,
    "long": -117.4361256,
    "gmapsCategory": "Convenience store"
  },
  {
    "type": "Liquor",
    "name": "Tuxedo Liquors",
    "lat": 33.9462321,
    "long": -117.4196402,
    "gmapsCategory": "Liquor store"
  },
  {
    "type": "Liquor",
    "name": "Madison Market",
    "lat": 33.9451195,
    "long": -117.4127659,
    "gmapsCategory": "Liquor store"
  },
  {
    "type": "Liquor",
    "name": "Ironwood Liquor",
    "lat": 33.9469704,
    "long": -117.2446623,
    "gmapsCategory": "Liquor store"
  },
  {
    "type": "Liquor",
    "name": "Sundance Liquor",
    "lat": 33.9387593,
    "long": -117.2366911,
    "gmapsCategory": "Liquor store"
  },
  {
    "type": "Liquor",
    "name": "Liquor Market",
    "lat": 33.9181019,
    "long": -117.2422269,
    "gmapsCategory": "Liquor store"
  },
  {
    "type": "Liquor",
    "name": "Sunnymead Liquor",
    "lat": 33.9388589,
    "long": -117.2417606,
    "gmapsCategory": "Liquor store"
  },
  {
    "type": "Liquor",
    "name": "ABC Food Store",
    "lat": 33.9168322,
    "long": -117.2354367,
    "gmapsCategory": "Liquor store"
  },
  {
    "type": "Liquor",
    "name": "University Village Market Liquor",
    "lat": 33.9759507,
    "long": -117.3163003,
    "gmapsCategory": "Liquor store"
  },
  {
    "type": "Liquor",
    "name": "Mel s Liquor Check Cashing",
    "lat": 33.915738,
    "long": -117.2354373,
    "gmapsCategory": "Liquor store"
  },
  {
    "type": "Liquor",
    "name": "Tony s Market",
    "lat": 33.9744795,
    "long": -117.3663399,
    "gmapsCategory": "Liquor store"
  },
  {
    "type": "Liquor",
    "name": "Circle One Mart",
    "lat": 33.9760386,
    "long": -117.3605841,
    "gmapsCategory": "Convenience store"
  },
  {
    "type": "Liquor",
    "name": "BevMo ",
    "lat": 33.9365845,
    "long": -117.2635597,
    "gmapsCategory": "Wine store"
  },
  {
    "type": "Liquor",
    "name": "Qwick Pick",
    "lat": 33.9180949,
    "long": -117.2422549,
    "gmapsCategory": "Liquor store"
  },
  {
    "type": "Liquor",
    "name": "Moreno Liquor Market",
    "lat": 33.9393487,
    "long": -117.2461614,
    "gmapsCategory": "Liquor store"
  },
  {
    "type": "Liquor",
    "name": "Fastrip",
    "lat": 33.9387269,
    "long": -117.2442154,
    "gmapsCategory": "Convenience store"
  },
  {
    "type": "Liquor",
    "name": "Liquor Market",
    "lat": 33.9424253,
    "long": -117.2441683,
    "gmapsCategory": "Liquor store"
  },
  {
    "type": "Liquor",
    "name": "Pigeon Pass Liquor Market",
    "lat": 33.9434543,
    "long": -117.2603303,
    "gmapsCategory": "Liquor store"
  },
  {
    "type": "Liquor",
    "name": "Rz liquor market",
    "lat": 33.9188118,
    "long": -117.2603517,
    "gmapsCategory": "Liquor store"
  },
  {
    "type": "Liquor",
    "name": "Country Liquor Co",
    "lat": 33.9173573,
    "long": -117.2637489,
    "gmapsCategory": "Liquor store"
  },
  {
    "type": "Liquor",
    "name": "Big Market",
    "lat": 33.924546,
    "long": -117.2837434,
    "gmapsCategory": "Convenience store"
  },
  {
    "type": "Liquor",
    "name": "Canyon Crest Winery",
    "lat": 33.9142888,
    "long": -117.3285833,
    "gmapsCategory": "Winery"
  },
  {
    "type": "Liquor",
    "name": " Eleven",
    "lat": 33.9391466,
    "long": -117.2609326,
    "gmapsCategory": "Convenience store"
  },
  {
    "type": "Liquor",
    "name": "Indiana Liquor",
    "lat": 33.9341104,
    "long": -117.4055976,
    "gmapsCategory": "Liquor store"
  },
  {
    "type": "Liquor",
    "name": " th Street Liquor",
    "lat": 33.8769959,
    "long": -117.5790198,
    "gmapsCategory": "Liquor store"
  },
  {
    "type": "Liquor",
    "name": "Del Lago Liquor",
    "lat": 33.8694039,
    "long": -117.5936417,
    "gmapsCategory": "Liquor store"
  },
  {
    "type": "Liquor",
    "name": "Cheers Liquor Wine Spirits",
    "lat": 33.9220133,
    "long": -117.5587107,
    "gmapsCategory": "Liquor store"
  },
  {
    "type": "Liquor",
    "name": "Kings Liquor",
    "lat": 33.8799293,
    "long": -117.5723761,
    "gmapsCategory": "Liquor store"
  },
  {
    "type": "Liquor",
    "name": "House of Booze II",
    "lat": 33.946777,
    "long": -117.678731,
    "gmapsCategory": "Liquor store"
  },
  {
    "type": "Liquor",
    "name": "One Stop Liquor",
    "lat": 33.8778093,
    "long": -117.6490962,
    "gmapsCategory": "Liquor store"
  },
  {
    "type": "Liquor",
    "name": "The Red Barn Liquor",
    "lat": 33.8780209,
    "long": -117.6010228,
    "gmapsCategory": "Liquor store"
  },
  {
    "type": "Liquor",
    "name": "The Liquor Cabinet",
    "lat": 33.8768771,
    "long": -117.5835166,
    "gmapsCategory": "Liquor store"
  },
  {
    "type": "Liquor",
    "name": "JM Liquor",
    "lat": 33.8916667,
    "long": -117.5686111,
    "gmapsCategory": "Liquor store"
  },
  {
    "type": "Liquor",
    "name": "Koppur Lantern Liquor",
    "lat": 33.8786982,
    "long": -117.5940686,
    "gmapsCategory": "Liquor store"
  },
  {
    "type": "Liquor",
    "name": "Circle City Liquor",
    "lat": 33.8701466,
    "long": -117.5674422,
    "gmapsCategory": "Liquor store"
  },
  {
    "type": "Liquor",
    "name": "T H Liquor Deli Market",
    "lat": 33.8774059,
    "long": -117.5944164,
    "gmapsCategory": "Liquor store"
  },
  {
    "type": "Liquor",
    "name": "JASHUA LIQUOR",
    "lat": 33.886791,
    "long": -117.5637897,
    "gmapsCategory": "Liquor store"
  },
  {
    "type": "Liquor",
    "name": "Liquor store",
    "lat": 33.8781089,
    "long": -117.5882887,
    "gmapsCategory": "Liquor store"
  },
  {
    "type": "Liquor",
    "name": "CORONA LIQUOR MARKET",
    "lat": 33.8762802,
    "long": -117.5734653,
    "gmapsCategory": "Liquor store"
  },
  {
    "type": "Liquor",
    "name": "Jerry s Liquor",
    "lat": 33.8745116,
    "long": -117.5604546,
    "gmapsCategory": "State liquor store"
  },
  {
    "type": "Liquor",
    "name": "Mr G s Liquor Market FTaco Kitchen",
    "lat": 33.8661398,
    "long": -117.5456289,
    "gmapsCategory": "Liquor store"
  },
  {
    "type": "Liquor",
    "name": "One Stop Mini Mart",
    "lat": 33.8779478,
    "long": -117.6497333,
    "gmapsCategory": "Liquor store"
  },
  {
    "type": "Liquor",
    "name": "C N Liquor",
    "lat": 33.9161828,
    "long": -117.5593435,
    "gmapsCategory": "Liquor store"
  },
  {
    "type": "Liquor",
    "name": "Jay s Marketp ",
    "lat": 33.87804,
    "long": -117.5883168,
    "gmapsCategory": "Grocery store"
  },
  {
    "type": "Liquor",
    "name": "Art s Liquors",
    "lat": 33.8748781,
    "long": -117.5593309,
    "gmapsCategory": "Liquor store"
  },
  {
    "type": "Liquor",
    "name": "American Liquor Tobacco",
    "lat": 33.9207587,
    "long": -117.5597672,
    "gmapsCategory": "Liquor store"
  },
  {
    "type": "Liquor",
    "name": "McGrueder s Liquor",
    "lat": 33.9086003,
    "long": -117.5812426,
    "gmapsCategory": "Liquor store"
  },
  {
    "type": "Liquor",
    "name": "Joya Sangria",
    "lat": 33.8622168,
    "long": -117.5441706,
    "gmapsCategory": "Liquor store"
  },
  {
    "type": "Liquor",
    "name": "Street Corner",
    "lat": 33.8851495,
    "long": -117.5653755,
    "gmapsCategory": "Convenience store"
  },
  {
    "type": "Liquor",
    "name": "Loop Neighborhood Market",
    "lat": 33.9163397,
    "long": -117.5909558,
    "gmapsCategory": "Convenience store"
  },
  {
    "type": "Liquor",
    "name": " Eleven",
    "lat": 33.9084575,
    "long": -117.5821659,
    "gmapsCategory": "Convenience store"
  },
  {
    "type": "Liquor",
    "name": "Feng Fine Wine Spirits",
    "lat": 34.0023679,
    "long": -117.8115409,
    "gmapsCategory": "Liquor store"
  },
  {
    "type": "Liquor",
    "name": "DB Wine Spirits",
    "lat": 34.0290935,
    "long": -117.8095642,
    "gmapsCategory": "Liquor store"
  },
  {
    "type": "Liquor",
    "name": "Diamond Liquor Vape Mini Mart",
    "lat": 34.0350704,
    "long": -117.8062596,
    "gmapsCategory": "Liquor store"
  },
  {
    "type": "Liquor",
    "name": "Mountain View Market Liquor",
    "lat": 34.08842,
    "long": -117.697781,
    "gmapsCategory": "Liquor store"
  },
  {
    "type": "Liquor",
    "name": "La West Liquor Market",
    "lat": 34.0920382,
    "long": -117.7097608,
    "gmapsCategory": "Liquor store"
  },
  {
    "type": "Liquor",
    "name": "Wine Liquor Market",
    "lat": 34.0824716,
    "long": -117.7185307,
    "gmapsCategory": "Liquor store"
  },
  {
    "type": "Liquor",
    "name": "Pomona Liquor",
    "lat": 34.0802744,
    "long": -117.7414987,
    "gmapsCategory": "Liquor store"
  },
  {
    "type": "Liquor",
    "name": "The Liquor Montclair",
    "lat": 34.0868238,
    "long": -117.6938112,
    "gmapsCategory": "Clothing store"
  },
  {
    "type": "Liquor",
    "name": "ShopSK",
    "lat": 34.079855,
    "long": -117.721393,
    "gmapsCategory": ""
  },
  {
    "type": "Liquor",
    "name": "Linden Market",
    "lat": 34.1497508,
    "long": -117.40136,
    "gmapsCategory": "Liquor store"
  },
  {
    "type": "Liquor",
    "name": "Abc Liquor Mart",
    "lat": 34.146687,
    "long": -117.335907,
    "gmapsCategory": "Liquor store"
  },
  {
    "type": "Liquor",
    "name": "Norm s Liquor",
    "lat": 34.1649314,
    "long": -117.3439504,
    "gmapsCategory": "Grocery store"
  },
  {
    "type": "Liquor",
    "name": "Rosa s Market Liquor",
    "lat": 34.1429726,
    "long": -117.4012584,
    "gmapsCategory": "Liquor store"
  },
  {
    "type": "Liquor",
    "name": "Mikes Market and Liquor",
    "lat": 34.1365237,
    "long": -117.3351229,
    "gmapsCategory": "Liquor store"
  },
  {
    "type": "Liquor",
    "name": " Grand Liquor Gas and Food",
    "lat": 34.1858136,
    "long": -117.4396209,
    "gmapsCategory": "Liquor store"
  },
  {
    "type": "Liquor",
    "name": "Bleu Wine And Spirits",
    "lat": 34.1370716,
    "long": -117.3936265,
    "gmapsCategory": "Liquor store"
  },
  {
    "type": "Liquor",
    "name": "Macys Mini Mart",
    "lat": 34.1417178,
    "long": -117.3400449,
    "gmapsCategory": "Store"
  },
  {
    "type": "Liquor",
    "name": " Liquor",
    "lat": 34.1572687,
    "long": -117.335724,
    "gmapsCategory": "777 Liquor"
  },
  {
    "type": "Liquor",
    "name": "Victoria Market",
    "lat": 34.1581431,
    "long": -117.3527646,
    "gmapsCategory": "Grocery store"
  },
  {
    "type": "Liquor",
    "name": "M J s Market",
    "lat": 34.1466093,
    "long": -117.3394297,
    "gmapsCategory": "Convenience store"
  },
  {
    "type": "Liquor",
    "name": "Eddie s Market",
    "lat": 34.1595191,
    "long": -117.3526244,
    "gmapsCategory": "Liquor store"
  },
  {
    "type": "Liquor",
    "name": "REBEL Convenience Stores",
    "lat": 34.1897733,
    "long": -117.3616017,
    "gmapsCategory": "Convenience store"
  },
  {
    "type": "Liquor",
    "name": "J J Liquor",
    "lat": 34.1064044,
    "long": -117.6976202,
    "gmapsCategory": "Liquor store"
  },
  {
    "type": "Liquor",
    "name": "Liquor Box",
    "lat": 34.0297599,
    "long": -117.6091537,
    "gmapsCategory": "Liquor store"
  },
  {
    "type": "Liquor",
    "name": "BEST LIQUOR PLUS",
    "lat": 34.020471,
    "long": -117.6100225,
    "gmapsCategory": "Liquor store"
  },
  {
    "type": "Liquor",
    "name": "Rocky Liquor",
    "lat": 34.1078463,
    "long": -117.7350858,
    "gmapsCategory": "Liquor store"
  },
  {
    "type": "Liquor",
    "name": "J W Liquor Market",
    "lat": 34.1074528,
    "long": -117.7390444,
    "gmapsCategory": "Liquor store"
  },
  {
    "type": "Liquor",
    "name": "Louie s Liquor",
    "lat": 34.1330852,
    "long": -117.9002493,
    "gmapsCategory": "Store"
  },
  {
    "type": "Liquor",
    "name": "Ranch Town Liquor",
    "lat": 34.1219078,
    "long": -117.8069246,
    "gmapsCategory": "Liquor store"
  },
  {
    "type": "Liquor",
    "name": "H H Liquor",
    "lat": 34.1284421,
    "long": -117.8604187,
    "gmapsCategory": "Liquor store"
  },
  {
    "type": "Liquor",
    "name": "Arrow Liquor Mart",
    "lat": 34.1016164,
    "long": -117.7934009,
    "gmapsCategory": "Liquor store"
  },
  {
    "type": "Liquor",
    "name": "Rima s Liquor",
    "lat": 34.105812,
    "long": -117.847188,
    "gmapsCategory": "Wine store"
  },
  {
    "type": "Liquor",
    "name": "Charter Oak Liquor",
    "lat": 34.1062851,
    "long": -117.8625304,
    "gmapsCategory": "Liquor store"
  },
  {
    "type": "Liquor",
    "name": "FAIRPLEX LIQUOR",
    "lat": 34.0966764,
    "long": -117.7693234,
    "gmapsCategory": "Liquor store"
  },
  {
    "type": "Liquor",
    "name": "Glendora Liquor",
    "lat": 34.1364444,
    "long": -117.8674676,
    "gmapsCategory": "Liquor store"
  },
  {
    "type": "Liquor",
    "name": "Super Liquor",
    "lat": 34.1262602,
    "long": -117.8899071,
    "gmapsCategory": "Liquor store"
  },
  {
    "type": "Liquor",
    "name": "Pickwick Wines Spirits",
    "lat": 34.078553,
    "long": -117.8821449,
    "gmapsCategory": "Wine store"
  },
  {
    "type": "Liquor",
    "name": "Top Hat Liquor",
    "lat": 34.1217359,
    "long": -117.8716815,
    "gmapsCategory": "Liquor store"
  },
  {
    "type": "Liquor",
    "name": "STILL HOUSE WINES SPIRITS",
    "lat": 34.09103,
    "long": -117.8818421,
    "gmapsCategory": "Liquor store"
  },
  {
    "type": "Liquor",
    "name": "Lone Hill Liquor",
    "lat": 34.127331,
    "long": -117.8304104,
    "gmapsCategory": "Liquor store"
  },
  {
    "type": "Liquor",
    "name": "San Dimas Liquor",
    "lat": 34.1074952,
    "long": -117.8368145,
    "gmapsCategory": "Liquor store"
  },
  {
    "type": "Liquor",
    "name": "Wine Rack Liquor",
    "lat": 34.1292112,
    "long": -117.8466975,
    "gmapsCategory": "Liquor store"
  },
  {
    "type": "Liquor",
    "name": "Sunrise Liquor",
    "lat": 34.1060466,
    "long": -117.8548019,
    "gmapsCategory": "Liquor store"
  },
  {
    "type": "Liquor",
    "name": "Citrus Liquor",
    "lat": 34.114716,
    "long": -117.88979,
    "gmapsCategory": "Liquor store"
  },
  {
    "type": "Liquor",
    "name": "Calaveras Liquor",
    "lat": 34.1036235,
    "long": -117.8074728,
    "gmapsCategory": "Liquor store"
  },
  {
    "type": "Liquor",
    "name": "Clete s Liquor",
    "lat": 34.1058776,
    "long": -117.8049709,
    "gmapsCategory": "Liquor store"
  },
  {
    "type": "Liquor",
    "name": "Boulevard Liquor Mart",
    "lat": 34.1069938,
    "long": -117.9028688,
    "gmapsCategory": "Liquor store"
  },
  {
    "type": "Liquor",
    "name": "Fire Bird Liquor Store",
    "lat": 34.0946527,
    "long": -117.8635137,
    "gmapsCategory": "Liquor store"
  },
  {
    "type": "Liquor",
    "name": "Total Wine More",
    "lat": 34.1047469,
    "long": -117.8220438,
    "gmapsCategory": "Liquor store"
  },
  {
    "type": "Liquor",
    "name": "Clubhouse Liquor",
    "lat": 34.129585,
    "long": -117.883139,
    "gmapsCategory": "Liquor store"
  },
  {
    "type": "Liquor",
    "name": "A To Z Liquor",
    "lat": 34.1385887,
    "long": -117.906839,
    "gmapsCategory": "Liquor store"
  },
  {
    "type": "Liquor",
    "name": "Starlite Liquor",
    "lat": 34.0982339,
    "long": -117.9081207,
    "gmapsCategory": "Liquor store"
  },
  {
    "type": "Liquor",
    "name": "Stonewall Liquors",
    "lat": 34.0951787,
    "long": -117.8721347,
    "gmapsCategory": "Liquor store"
  },
  {
    "type": "Liquor",
    "name": "JTs Liquor",
    "lat": 34.1064541,
    "long": -117.8801465,
    "gmapsCategory": "Liquor store"
  },
  {
    "type": "Liquor",
    "name": "Mt Baldy Lodge",
    "lat": 34.2377778,
    "long": -117.6576389,
    "gmapsCategory": "Rustic cabins & a restaurant/bar"
  },
  {
    "type": "Liquor",
    "name": "Canyon Liquor",
    "lat": 34.0091896,
    "long": -117.8854294,
    "gmapsCategory": "Liquor store"
  },
  {
    "type": "Liquor",
    "name": "Whiskey Barrell Liquor",
    "lat": 33.9860097,
    "long": -117.8699688,
    "gmapsCategory": "Liquor store"
  },
  {
    "type": "Liquor",
    "name": "Valley Market and Liquor",
    "lat": 34.0096348,
    "long": -117.8598056,
    "gmapsCategory": "Liquor store"
  },
  {
    "type": "Liquor",
    "name": "THE BOOZE BODEGA",
    "lat": 34.0157652,
    "long": -117.8504888,
    "gmapsCategory": "Liquor store"
  },
  {
    "type": "Liquor",
    "name": "Renee s Liquor Market",
    "lat": 34.0253347,
    "long": -117.8946039,
    "gmapsCategory": "Liquor store"
  },
  {
    "type": "Liquor",
    "name": "Uncle Fossil Wine Spirits",
    "lat": 33.9974611,
    "long": -117.8539744,
    "gmapsCategory": "Wine store"
  },
  {
    "type": "Liquor",
    "name": "Zavaro Liquor and Mart",
    "lat": 33.9997862,
    "long": -117.8436456,
    "gmapsCategory": "Liquor store"
  },
  {
    "type": "Liquor",
    "name": "Mike s Tobacco Liquor",
    "lat": 34.0016066,
    "long": -117.8092252,
    "gmapsCategory": "Liquor store"
  },
  {
    "type": "Liquor",
    "name": "BevMo ",
    "lat": 34.0272059,
    "long": -117.8328385,
    "gmapsCategory": "Wine store"
  },
  {
    "type": "Liquor",
    "name": "Joe s Liquor",
    "lat": 33.9301024,
    "long": -117.8939125,
    "gmapsCategory": "Liquor store"
  },
  {
    "type": "Liquor",
    "name": "Le Festin Wine Spirits",
    "lat": 34.0429342,
    "long": -117.8493581,
    "gmapsCategory": "Wine store"
  },
  {
    "type": "Liquor",
    "name": " Eleven",
    "lat": 33.9978293,
    "long": -117.8135471,
    "gmapsCategory": "Convenience store"
  },
  {
    "type": "Liquor",
    "name": "VinoBee",
    "lat": 34.0071771,
    "long": -117.8459462,
    "gmapsCategory": "Liquor store"
  },
  {
    "type": "Liquor",
    "name": " Eleven",
    "lat": 34.0024405,
    "long": -117.8817586,
    "gmapsCategory": "Convenience store"
  },
  {
    "type": "Liquor",
    "name": " Eleven",
    "lat": 33.925289,
    "long": -117.8964771,
    "gmapsCategory": "Convenience store"
  },
  {
    "type": "Liquor",
    "name": "Plaza Diamond Liquor",
    "lat": 33.985079,
    "long": -117.8444536,
    "gmapsCategory": "Liquor store"
  },
  {
    "type": "Liquor",
    "name": "Rowland Heights Liquor Mart",
    "lat": 33.9755556,
    "long": -117.9091667,
    "gmapsCategory": "Liquor store"
  },
  {
    "type": "Liquor",
    "name": "Five Star Liquor",
    "lat": 33.906473,
    "long": -117.9053007,
    "gmapsCategory": "Liquor store"
  },
  {
    "type": "Liquor",
    "name": "Lucky Liquor Store",
    "lat": 33.9404904,
    "long": -117.9841608,
    "gmapsCategory": "Liquor store"
  },
  {
    "type": "Liquor",
    "name": "Kings Liquor Smoke",
    "lat": 33.8704085,
    "long": -117.939055,
    "gmapsCategory": "Liquor store"
  },
  {
    "type": "Liquor",
    "name": "CAMPUS LIQUOR",
    "lat": 33.8730395,
    "long": -117.8898086,
    "gmapsCategory": "Liquor store"
  },
  {
    "type": "Liquor",
    "name": "Island Liquor",
    "lat": 33.9302416,
    "long": -117.9954301,
    "gmapsCategory": "Liquor store"
  },
  {
    "type": "Liquor",
    "name": "Hi Proof Whisky Spirits Wine",
    "lat": 33.8942323,
    "long": -117.9448712,
    "gmapsCategory": "Liquor store"
  },
  {
    "type": "Liquor",
    "name": "George s Liquor",
    "lat": 33.932196,
    "long": -117.925104,
    "gmapsCategory": "Liquor store"
  },
  {
    "type": "Liquor",
    "name": "Village Liquor Market",
    "lat": 33.8705337,
    "long": -117.950935,
    "gmapsCategory": "Liquor store"
  },
  {
    "type": "Liquor",
    "name": "Liquor Mart Whittier ",
    "lat": 33.9313987,
    "long": -117.9940172,
    "gmapsCategory": "Liquor store"
  },
  {
    "type": "Liquor",
    "name": "Sammy s Liquor ",
    "lat": 33.8669834,
    "long": -117.942271,
    "gmapsCategory": "Liquor store"
  },
  {
    "type": "Liquor",
    "name": "Circle Liquor",
    "lat": 33.9320157,
    "long": -117.9668675,
    "gmapsCategory": "Liquor store"
  },
  {
    "type": "Liquor",
    "name": "Town Country Liquor",
    "lat": 33.871044,
    "long": -117.907319,
    "gmapsCategory": "Liquor store"
  },
  {
    "type": "Liquor",
    "name": "Whiskey Well",
    "lat": 33.9804306,
    "long": -117.9758611,
    "gmapsCategory": "Liquor store"
  },
  {
    "type": "Liquor",
    "name": "Victoria Market Liquor",
    "lat": 33.9177502,
    "long": -117.909362,
    "gmapsCategory": "Liquor store"
  },
  {
    "type": "Liquor",
    "name": "Big Liquor",
    "lat": 33.932178,
    "long": -117.9781636,
    "gmapsCategory": "Liquor store"
  },
  {
    "type": "Liquor",
    "name": "G D Liquor ",
    "lat": 33.9248833,
    "long": -117.9687752,
    "gmapsCategory": "Liquor store"
  },
  {
    "type": "Liquor",
    "name": "JK Market",
    "lat": 33.8692989,
    "long": -117.98485,
    "gmapsCategory": "Liquor store"
  },
  {
    "type": "Liquor",
    "name": "California Mini Mart",
    "lat": 33.9813431,
    "long": -117.9739435,
    "gmapsCategory": "Liquor store"
  },
  {
    "type": "Liquor",
    "name": "The Uptown Liquor",
    "lat": 33.9753012,
    "long": -118.0376716,
    "gmapsCategory": "Liquor store"
  },
  {
    "type": "Liquor",
    "name": "Ramirez Liquor",
    "lat": 33.9685316,
    "long": -118.0963223,
    "gmapsCategory": "Liquor store"
  },
  {
    "type": "Liquor",
    "name": "Barley Bin",
    "lat": 33.9981305,
    "long": -118.0566157,
    "gmapsCategory": "Liquor store"
  },
  {
    "type": "Liquor",
    "name": "Pit Stop Liquor Mart",
    "lat": 34.0425803,
    "long": -118.033254,
    "gmapsCategory": "Liquor store"
  },
  {
    "type": "Liquor",
    "name": "Liquor Mart",
    "lat": 33.9614941,
    "long": -118.0294983,
    "gmapsCategory": "Liquor store"
  },
  {
    "type": "Liquor",
    "name": "H H Liquor Mart",
    "lat": 33.9576731,
    "long": -118.0380832,
    "gmapsCategory": "Liquor store"
  },
  {
    "type": "Liquor",
    "name": "Ten Four Liquor",
    "lat": 33.951425,
    "long": -118.028674,
    "gmapsCategory": "Liquor store"
  },
  {
    "type": "Liquor",
    "name": "Johny Liquor Montebello",
    "lat": 33.9926188,
    "long": -118.1126282,
    "gmapsCategory": "Liquor store"
  },
  {
    "type": "Liquor",
    "name": "Library Liquor",
    "lat": 34.042561,
    "long": -118.0925523,
    "gmapsCategory": "Liquor store"
  },
  {
    "type": "Liquor",
    "name": "Liquor Mart",
    "lat": 33.9492826,
    "long": -118.0897951,
    "gmapsCategory": "Liquor store"
  },
  {
    "type": "Liquor",
    "name": "Turf Liquor Mart inc",
    "lat": 33.9366065,
    "long": -118.041554,
    "gmapsCategory": "Liquor store"
  },
  {
    "type": "Liquor",
    "name": "Pico Market Liquor",
    "lat": 33.9673791,
    "long": -118.1156548,
    "gmapsCategory": "Liquor store"
  },
  {
    "type": "Liquor",
    "name": "Back Alley Liquor",
    "lat": 33.9322656,
    "long": -118.0730935,
    "gmapsCategory": "Liquor store"
  },
  {
    "type": "Liquor",
    "name": "Pico Liquor",
    "lat": 34.007415,
    "long": -118.0822441,
    "gmapsCategory": "Liquor store"
  },
  {
    "type": "Liquor",
    "name": "J B Liquor Jr Market",
    "lat": 33.9853426,
    "long": -118.1002298,
    "gmapsCategory": "Liquor store"
  },
  {
    "type": "Liquor",
    "name": "Super Star Mart",
    "lat": 34.0192951,
    "long": -118.1140281,
    "gmapsCategory": "Liquor store"
  },
  {
    "type": "Liquor",
    "name": "Choice Liquors",
    "lat": 33.9573253,
    "long": -118.0231137,
    "gmapsCategory": "Liquor store"
  },
  {
    "type": "Liquor",
    "name": "A Liq Sharry ",
    "lat": 33.9347222,
    "long": -118.0989798,
    "gmapsCategory": "Liquor store"
  },
  {
    "type": "Liquor",
    "name": "Azteca Liquor",
    "lat": 33.9599681,
    "long": -118.1074313,
    "gmapsCategory": "Liquor store"
  },
  {
    "type": "Liquor",
    "name": "Champs Liquor ",
    "lat": 33.9553319,
    "long": -118.1025403,
    "gmapsCategory": "Liquor store"
  },
  {
    "type": "Liquor",
    "name": "Grog Shop",
    "lat": 33.9429358,
    "long": -118.0112438,
    "gmapsCategory": "Liquor store"
  },
  {
    "type": "Liquor",
    "name": "Bills Liquor Deli",
    "lat": 33.9692536,
    "long": -118.0585743,
    "gmapsCategory": "Liquor store"
  },
  {
    "type": "Liquor",
    "name": "The Cellar Bottle Shop",
    "lat": 33.9817664,
    "long": -118.0376977,
    "gmapsCategory": "Beer store"
  },
  {
    "type": "Liquor",
    "name": "Mack s Liquor",
    "lat": 34.0495282,
    "long": -117.9970934,
    "gmapsCategory": "Liquor store"
  },
  {
    "type": "Liquor",
    "name": "Bottle House Liquors",
    "lat": 33.9892207,
    "long": -118.0643394,
    "gmapsCategory": "Liquor store"
  },
  {
    "type": "Liquor",
    "name": "F M Liquor Store",
    "lat": 34.0026964,
    "long": -118.0860456,
    "gmapsCategory": "Liquor store"
  },
  {
    "type": "Liquor",
    "name": "Don Ramirez Liquor FFamily Restaurant",
    "lat": 34.0511191,
    "long": -118.0236375,
    "gmapsCategory": "Liquor store"
  },
  {
    "type": "Liquor",
    "name": "Mr Ed Liquor Store",
    "lat": 33.985309,
    "long": -118.0950192,
    "gmapsCategory": "Liquor store"
  },
  {
    "type": "Liquor",
    "name": "Bailey s Beverage Corner",
    "lat": 33.9851504,
    "long": -118.0566418,
    "gmapsCategory": "Liquor store"
  },
  {
    "type": "Liquor",
    "name": "Rivera Liquor Store",
    "lat": 33.970194,
    "long": -118.101661,
    "gmapsCategory": "Liquor store"
  },
  {
    "type": "Liquor",
    "name": "Happy Liquor",
    "lat": 34.0210954,
    "long": -118.1254466,
    "gmapsCategory": "Liquor store"
  },
  {
    "type": "Liquor",
    "name": "Party Snacks Liquor",
    "lat": 33.9663084,
    "long": -118.0388005,
    "gmapsCategory": "Liquor store"
  },
  {
    "type": "Liquor",
    "name": "Ray E s liquor",
    "lat": 33.9705224,
    "long": -118.104215,
    "gmapsCategory": "Liquor store"
  },
  {
    "type": "Liquor",
    "name": "New Rivera Liquor Market",
    "lat": 33.9646326,
    "long": -118.1079273,
    "gmapsCategory": "Liquor store"
  },
  {
    "type": "Liquor",
    "name": "Serv Rite Food Liquor Crafts",
    "lat": 33.9677787,
    "long": -118.0966141,
    "gmapsCategory": "Liquor store"
  },
  {
    "type": "Liquor",
    "name": "Samy s Liquor",
    "lat": 33.9418249,
    "long": -118.0292344,
    "gmapsCategory": "Liquor store"
  },
  {
    "type": "Liquor",
    "name": "Tic Tac Liquor Store",
    "lat": 33.936037,
    "long": -118.012189,
    "gmapsCategory": "Liquor store"
  },
  {
    "type": "Liquor",
    "name": "K Liquor Market",
    "lat": 34.0147754,
    "long": -118.1296,
    "gmapsCategory": "Liquor store"
  },
  {
    "type": "Liquor",
    "name": "Olympic Liquor",
    "lat": 34.0097563,
    "long": -118.1206559,
    "gmapsCategory": "Liquor store"
  },
  {
    "type": "Liquor",
    "name": "Ken s Drive In Liquors",
    "lat": 34.0061231,
    "long": -118.0770663,
    "gmapsCategory": "Liquor store"
  },
  {
    "type": "Liquor",
    "name": "HMC Liquors",
    "lat": 33.9791344,
    "long": -118.0889142,
    "gmapsCategory": "Liquor store"
  },
  {
    "type": "Liquor",
    "name": "Los Compadres Market Liquor",
    "lat": 34.0517393,
    "long": -117.9997044,
    "gmapsCategory": "Liquor store"
  },
  {
    "type": "Liquor",
    "name": "Rosewood Liquor Market",
    "lat": 33.9590413,
    "long": -118.1077433,
    "gmapsCategory": "Liquor store"
  },
  {
    "type": "Liquor",
    "name": "MR G LIQUOR",
    "lat": 33.9772062,
    "long": -118.1294127,
    "gmapsCategory": "Liquor store"
  },
  {
    "type": "Liquor",
    "name": "J M Liquor",
    "lat": 34.0105199,
    "long": -118.0818816,
    "gmapsCategory": "Liquor store"
  },
  {
    "type": "Liquor",
    "name": "Mike s Liquor",
    "lat": 34.0519722,
    "long": -118.0646904,
    "gmapsCategory": "Liquor store"
  },
  {
    "type": "Liquor",
    "name": "Sam s Liquor",
    "lat": 34.0088649,
    "long": -118.1030988,
    "gmapsCategory": "Liquor store"
  },
  {
    "type": "Liquor",
    "name": "Happy E s Liquor",
    "lat": 33.9789944,
    "long": -118.0392993,
    "gmapsCategory": "Liquor store"
  },
  {
    "type": "Liquor",
    "name": "Manny s Liquor",
    "lat": 33.995395,
    "long": -118.1205785,
    "gmapsCategory": "Liquor store"
  },
  {
    "type": "Liquor",
    "name": "BevMo ",
    "lat": 33.945971,
    "long": -117.9956885,
    "gmapsCategory": "Wine store"
  },
  {
    "type": "Liquor",
    "name": "Primo s Liquor",
    "lat": 34.0490351,
    "long": -118.0980667,
    "gmapsCategory": "Liquor store"
  },
  {
    "type": "Liquor",
    "name": "Wyman s Liquor",
    "lat": 33.9321487,
    "long": -118.1178179,
    "gmapsCategory": "Liquor store"
  },
  {
    "type": "Liquor",
    "name": "TRADING POST",
    "lat": 33.9489487,
    "long": -118.1155563,
    "gmapsCategory": "Liquor store"
  },
  {
    "type": "Liquor",
    "name": "SNAP N GO Convenience and Liquor Store",
    "lat": 33.9535367,
    "long": -118.0417995,
    "gmapsCategory": "Convenience store"
  },
  {
    "type": "Liquor",
    "name": "O",
    "lat": 33.9495838,
    "long": -118.0260089,
    "gmapsCategory": "Store"
  },
  {
    "type": "Liquor",
    "name": "Global Market Liquor",
    "lat": 33.9354377,
    "long": -118.0399471,
    "gmapsCategory": "Liquor store"
  },
  {
    "type": "Liquor",
    "name": "Party Time Liquor store",
    "lat": 34.0146507,
    "long": -118.0947516,
    "gmapsCategory": "Liquor store"
  },
  {
    "type": "Liquor",
    "name": "Fast Freddy s Liquor",
    "lat": 33.9909301,
    "long": -118.0658676,
    "gmapsCategory": "Liquor store"
  },
  {
    "type": "Liquor",
    "name": "C Food Store",
    "lat": 33.9644374,
    "long": -118.0713747,
    "gmapsCategory": "Convenience store"
  },
  {
    "type": "Liquor",
    "name": "ASL liquor and Market",
    "lat": 33.9665639,
    "long": -118.1157805,
    "gmapsCategory": "Liquor store"
  },
  {
    "type": "Liquor",
    "name": "Prime Liquor Mart",
    "lat": 33.9720945,
    "long": -118.07443,
    "gmapsCategory": "Liquor store"
  },
  {
    "type": "Liquor",
    "name": "Hall Market Liquor Store",
    "lat": 33.9318341,
    "long": -118.1262748,
    "gmapsCategory": "Liquor store"
  },
  {
    "type": "Liquor",
    "name": "Rush Street Liquor",
    "lat": 34.052013,
    "long": -118.0543419,
    "gmapsCategory": "Liquor store"
  },
  {
    "type": "Liquor",
    "name": "liquor store",
    "lat": 33.9366225,
    "long": -118.041552,
    "gmapsCategory": "Liquor store"
  },
  {
    "type": "Liquor",
    "name": "Champs liquor ",
    "lat": 33.9537894,
    "long": -118.1294348,
    "gmapsCategory": "Liquor store"
  },
  {
    "type": "Liquor",
    "name": "M M Mini Market",
    "lat": 33.9975295,
    "long": -118.0756217,
    "gmapsCategory": "Convenience store"
  },
  {
    "type": "Liquor",
    "name": "Liquor Junction",
    "lat": 33.9706286,
    "long": -118.2478287,
    "gmapsCategory": "Liquor store"
  },
  {
    "type": "Liquor",
    "name": "Ace Hi Liquor",
    "lat": 33.930048,
    "long": -118.2389599,
    "gmapsCategory": "Liquor store"
  },
  {
    "type": "Liquor",
    "name": "ALTI LIQUOR",
    "lat": 33.9563495,
    "long": -118.2829442,
    "gmapsCategory": "Liquor store"
  },
  {
    "type": "Liquor",
    "name": "Astro Liquor",
    "lat": 33.9453536,
    "long": -118.2647444,
    "gmapsCategory": "Liquor store"
  },
  {
    "type": "Liquor",
    "name": "Sunrise Liquor",
    "lat": 33.9330216,
    "long": -118.2540733,
    "gmapsCategory": "Liquor store"
  },
  {
    "type": "Liquor",
    "name": "Lucky Liquor",
    "lat": 33.9615134,
    "long": -118.2736188,
    "gmapsCategory": "Liquor store"
  },
  {
    "type": "Liquor",
    "name": "Moby Liquor",
    "lat": 33.9652844,
    "long": -118.2697523,
    "gmapsCategory": "Liquor store"
  },
  {
    "type": "Liquor",
    "name": "Athens Liquor Store",
    "lat": 33.9235597,
    "long": -118.2823962,
    "gmapsCategory": "Liquor store"
  },
  {
    "type": "Liquor",
    "name": "Three Star Liquor Market",
    "lat": 33.9653758,
    "long": -118.2654161,
    "gmapsCategory": "Liquor store"
  },
  {
    "type": "Liquor",
    "name": "Central Liquor Store",
    "lat": 33.9686131,
    "long": -118.2566455,
    "gmapsCategory": "Liquor store"
  },
  {
    "type": "Liquor",
    "name": "Kings Liquor Market",
    "lat": 33.9476335,
    "long": -118.2736666,
    "gmapsCategory": "Liquor store"
  },
  {
    "type": "Liquor",
    "name": "John s Avalon Liquor",
    "lat": 33.9232157,
    "long": -118.2655443,
    "gmapsCategory": "Liquor store"
  },
  {
    "type": "Liquor",
    "name": "DNA Liquor",
    "lat": 33.9603065,
    "long": -118.2702181,
    "gmapsCategory": "Liquor store"
  },
  {
    "type": "Liquor",
    "name": "State Liquor Market",
    "lat": 33.9675432,
    "long": -118.2104525,
    "gmapsCategory": "Liquor store"
  },
  {
    "type": "Liquor",
    "name": "G I Liquor",
    "lat": 33.9516279,
    "long": -118.2299383,
    "gmapsCategory": "Liquor store"
  },
  {
    "type": "Liquor",
    "name": "Harry s Liquor Store",
    "lat": 33.931441,
    "long": -118.2741284,
    "gmapsCategory": "Liquor store"
  },
  {
    "type": "Liquor",
    "name": "Vercher s Central Liquor Store",
    "lat": 33.92322,
    "long": -118.253917,
    "gmapsCategory": "Liquor store"
  },
  {
    "type": "Liquor",
    "name": "B K Liquor",
    "lat": 33.9515052,
    "long": -118.2130683,
    "gmapsCategory": "Liquor store"
  },
  {
    "type": "Liquor",
    "name": "Gold Liquor",
    "lat": 33.9686009,
    "long": -118.2305261,
    "gmapsCategory": "Liquor store"
  },
  {
    "type": "Liquor",
    "name": "A N Drive In Liquors",
    "lat": 33.9680229,
    "long": -118.2336766,
    "gmapsCategory": "Liquor store"
  },
  {
    "type": "Liquor",
    "name": "Angie s Liquor",
    "lat": 33.9603103,
    "long": -118.2448884,
    "gmapsCategory": "Liquor store"
  },
  {
    "type": "Liquor",
    "name": "Ace Liquor",
    "lat": 33.9164913,
    "long": -118.2096197,
    "gmapsCategory": "Liquor store"
  },
  {
    "type": "Liquor",
    "name": "Dick s Market",
    "lat": 33.9520099,
    "long": -118.2778921,
    "gmapsCategory": "Liquor store"
  },
  {
    "type": "Liquor",
    "name": "Main Liquor Mart",
    "lat": 33.9640067,
    "long": -118.2740451,
    "gmapsCategory": "Liquor store"
  },
  {
    "type": "Liquor",
    "name": "R R Liquor Junior Market",
    "lat": 33.9402299,
    "long": -118.24638,
    "gmapsCategory": "R & R Liquor & Junior Market"
  },
  {
    "type": "Liquor",
    "name": "Shop N Go Liquor",
    "lat": 33.8743968,
    "long": -118.1580676,
    "gmapsCategory": "Liquor store"
  },
  {
    "type": "Liquor",
    "name": "Flow",
    "lat": 33.8627969,
    "long": -118.2988924,
    "gmapsCategory": "Liquor store"
  },
  {
    "type": "Liquor",
    "name": "Frank s Wine Spirits",
    "lat": 33.8762472,
    "long": -118.4063161,
    "gmapsCategory": "Liquor store"
  },
  {
    "type": "Liquor",
    "name": "Chateau Liquor Store",
    "lat": 33.8265621,
    "long": -118.3608454,
    "gmapsCategory": "Liquor store"
  },
  {
    "type": "Liquor",
    "name": "One Stop Liquor Market",
    "lat": 33.8215697,
    "long": -118.3086342,
    "gmapsCategory": "Liquor store"
  },
  {
    "type": "Liquor",
    "name": "S S Liquor",
    "lat": 33.8834735,
    "long": -118.3528986,
    "gmapsCategory": "Liquor store"
  },
  {
    "type": "Liquor",
    "name": "W C liquor and market",
    "lat": 33.8311038,
    "long": -118.3087977,
    "gmapsCategory": "Liquor store"
  },
  {
    "type": "Liquor",
    "name": "Mc Cowan Liquor",
    "lat": 33.8188584,
    "long": -118.3085146,
    "gmapsCategory": "Liquor store"
  },
  {
    "type": "Liquor",
    "name": "Harbor Liquor",
    "lat": 33.7897793,
    "long": -118.3019325,
    "gmapsCategory": "Liquor store"
  },
  {
    "type": "Liquor",
    "name": "ABC Liquor",
    "lat": 33.8586047,
    "long": -118.3381304,
    "gmapsCategory": "Liquor store"
  },
  {
    "type": "Liquor",
    "name": "Lomita Liquor",
    "lat": 33.7977963,
    "long": -118.3099259,
    "gmapsCategory": "Liquor store"
  },
  {
    "type": "Liquor",
    "name": "Lucky Dog Liquor",
    "lat": 33.8730875,
    "long": -118.3358531,
    "gmapsCategory": "Liquor store"
  },
  {
    "type": "Liquor",
    "name": "Jon s Liquor",
    "lat": 33.8871344,
    "long": -118.3783265,
    "gmapsCategory": "Liquor store"
  },
  {
    "type": "Liquor",
    "name": "Twilight Liquor",
    "lat": 33.8791324,
    "long": -118.3000784,
    "gmapsCategory": "Liquor store"
  },
  {
    "type": "Liquor",
    "name": "Catalina Liquor Deli",
    "lat": 33.8434811,
    "long": -118.3889088,
    "gmapsCategory": "Liquor store"
  },
  {
    "type": "Liquor",
    "name": "Dawn To Dusk Liquor",
    "lat": 33.8528045,
    "long": -118.3972062,
    "gmapsCategory": "Liquor store"
  },
  {
    "type": "Liquor",
    "name": "International Liquor Store and Market",
    "lat": 33.8317251,
    "long": -118.3294319,
    "gmapsCategory": "Liquor store"
  },
  {
    "type": "Liquor",
    "name": "The Bottle Shop",
    "lat": 33.836581,
    "long": -118.3190714,
    "gmapsCategory": "Liquor store"
  },
  {
    "type": "Liquor",
    "name": "King s Liquor Gourmet",
    "lat": 33.8378542,
    "long": -118.361215,
    "gmapsCategory": "Liquor store"
  },
  {
    "type": "Liquor",
    "name": "Plaza Liquors",
    "lat": 33.831241,
    "long": -118.3054192,
    "gmapsCategory": "Liquor store"
  },
  {
    "type": "Liquor",
    "name": "Prince Liquor",
    "lat": 33.817404,
    "long": -118.3605992,
    "gmapsCategory": "Liquor store"
  },
  {
    "type": "Liquor",
    "name": "Adam s Liquor And Bottle Shop",
    "lat": 33.8230364,
    "long": -118.38521,
    "gmapsCategory": "Liquor store"
  },
  {
    "type": "Liquor",
    "name": "Royal Liquor",
    "lat": 33.797267,
    "long": -118.3404996,
    "gmapsCategory": "Liquor store"
  },
  {
    "type": "Liquor",
    "name": "Corked",
    "lat": 33.8687551,
    "long": -118.3823217,
    "gmapsCategory": "Liquor store"
  },
  {
    "type": "Liquor",
    "name": "Ruby Liquor",
    "lat": 33.8349847,
    "long": -118.3853984,
    "gmapsCategory": "Liquor store"
  },
  {
    "type": "Liquor",
    "name": "Melody Liquor",
    "lat": 33.8424125,
    "long": -118.2989952,
    "gmapsCategory": "Liquor store"
  },
  {
    "type": "Liquor",
    "name": "Ted s Liquor",
    "lat": 33.8645019,
    "long": -118.3096018,
    "gmapsCategory": "Liquor store"
  },
  {
    "type": "Liquor",
    "name": "Mr K s Liquor Marts",
    "lat": 33.8384218,
    "long": -118.3452106,
    "gmapsCategory": "Liquor store"
  },
  {
    "type": "Liquor",
    "name": "Frank s Liquor Store",
    "lat": 33.8329438,
    "long": -118.3145874,
    "gmapsCategory": "Liquor store"
  },
  {
    "type": "Liquor",
    "name": "Three Kings Liquor",
    "lat": 33.8577086,
    "long": -118.3665119,
    "gmapsCategory": "Liquor store"
  },
  {
    "type": "Liquor",
    "name": " TEN Liquor",
    "lat": 33.8211719,
    "long": -118.3287756,
    "gmapsCategory": "Liquor store"
  },
  {
    "type": "Liquor",
    "name": "Liquor Depot",
    "lat": 33.8386106,
    "long": -118.3788259,
    "gmapsCategory": "Liquor store"
  },
  {
    "type": "Liquor",
    "name": "MR BJS liquor",
    "lat": 33.8275067,
    "long": -118.3890465,
    "gmapsCategory": "Liquor store"
  },
  {
    "type": "Liquor",
    "name": "Ken s Market",
    "lat": 33.8621406,
    "long": -118.3613866,
    "gmapsCategory": "Liquor store"
  },
  {
    "type": "Liquor",
    "name": "G S Tobacco Liquor",
    "lat": 33.8852007,
    "long": -118.318459,
    "gmapsCategory": "Liquor store"
  },
  {
    "type": "Liquor",
    "name": "Hi Time Liquor RB",
    "lat": 33.8732649,
    "long": -118.3681787,
    "gmapsCategory": "Liquor store"
  },
  {
    "type": "Liquor",
    "name": "JS Liquor",
    "lat": 33.873251,
    "long": -118.3272459,
    "gmapsCategory": "Liquor store"
  },
  {
    "type": "Liquor",
    "name": "WineShoppe",
    "lat": 33.7932213,
    "long": -118.3335956,
    "gmapsCategory": "Wine store"
  },
  {
    "type": "Liquor",
    "name": "Adam E s Liquor And Bottle Shop ",
    "lat": 33.8372518,
    "long": -118.3816067,
    "gmapsCategory": "Liquor store"
  },
  {
    "type": "Liquor",
    "name": "Fox liquor ",
    "lat": 33.8234163,
    "long": -118.2990539,
    "gmapsCategory": "Liquor store"
  },
  {
    "type": "Liquor",
    "name": "VJS MEGA LIQUOR MARKET",
    "lat": 33.7892966,
    "long": -118.3154008,
    "gmapsCategory": "Liquor store"
  },
  {
    "type": "Liquor",
    "name": "J S Liquors",
    "lat": 33.8082927,
    "long": -118.3275593,
    "gmapsCategory": "Liquor store"
  },
  {
    "type": "Liquor",
    "name": "Casino Liquor Store",
    "lat": 33.8776952,
    "long": -118.3089198,
    "gmapsCategory": "Liquor store"
  },
  {
    "type": "Liquor",
    "name": "Tiki Liquor Wine",
    "lat": 33.8732118,
    "long": -118.3694797,
    "gmapsCategory": "Liquor store"
  },
  {
    "type": "Liquor",
    "name": "M M Liquor",
    "lat": 33.8585052,
    "long": -118.3670973,
    "gmapsCategory": "Liquor store"
  },
  {
    "type": "Liquor",
    "name": "Total Wine More",
    "lat": 33.867851,
    "long": -118.35391,
    "gmapsCategory": "Liquor store"
  },
  {
    "type": "Liquor",
    "name": "Moran s Liquor",
    "lat": 33.7891515,
    "long": -118.3246945,
    "gmapsCategory": "Liquor store"
  },
  {
    "type": "Liquor",
    "name": "TK Wine",
    "lat": 33.8455181,
    "long": -118.3194766,
    "gmapsCategory": "TK Wine"
  },
  {
    "type": "Liquor",
    "name": "Beers Cheers",
    "lat": 33.8732499,
    "long": -118.3551891,
    "gmapsCategory": "Beer store"
  },
  {
    "type": "Liquor",
    "name": "Multani liquor and mart",
    "lat": 33.8067208,
    "long": -118.3542787,
    "gmapsCategory": "Liquor store"
  },
  {
    "type": "Liquor",
    "name": "Eddies Liquor",
    "lat": 33.8732511,
    "long": -118.3185253,
    "gmapsCategory": "Liquor store"
  },
  {
    "type": "Liquor",
    "name": "BevMo ",
    "lat": 33.8364362,
    "long": -118.3547299,
    "gmapsCategory": "Wine store"
  },
  {
    "type": "Liquor",
    "name": "Drinkies Liquor",
    "lat": 33.8732213,
    "long": -118.3594612,
    "gmapsCategory": "Liquor store"
  },
  {
    "type": "Liquor",
    "name": " liquor",
    "lat": 33.88686,
    "long": -118.3521963,
    "gmapsCategory": "Liquor store"
  },
  {
    "type": "Liquor",
    "name": "BevMo ",
    "lat": 33.790852,
    "long": -118.32871,
    "gmapsCategory": "Wine store"
  },
  {
    "type": "Liquor",
    "name": "Rocky s Liquor Food Mart",
    "lat": 33.8880292,
    "long": -118.3267913,
    "gmapsCategory": "Liquor store"
  },
  {
    "type": "Liquor",
    "name": "Hillside Liquor ",
    "lat": 33.8016018,
    "long": -118.3506464,
    "gmapsCategory": "Liquor store"
  },
  {
    "type": "Liquor",
    "name": "La Tiendita Mini Market Now we offer delivering doorDash",
    "lat": 33.842155,
    "long": -118.2929726,
    "gmapsCategory": "Liquor store"
  },
  {
    "type": "Liquor",
    "name": "REDONDO LIQUOR AND MARKET",
    "lat": 33.8726381,
    "long": -118.3716082,
    "gmapsCategory": "Liquor store"
  },
  {
    "type": "Liquor",
    "name": "Abe s Liquor",
    "lat": 33.8632409,
    "long": -118.3985672,
    "gmapsCategory": "Liquor store"
  },
  {
    "type": "Liquor",
    "name": "Liquor Deli",
    "lat": 33.8293554,
    "long": -118.314543,
    "gmapsCategory": "Liquor store"
  },
  {
    "type": "Liquor",
    "name": "Bright Spot Liquor Store",
    "lat": 33.7896332,
    "long": -118.3085441,
    "gmapsCategory": "Liquor store"
  },
  {
    "type": "Liquor",
    "name": "House Of Cigar Liquor",
    "lat": 33.8361994,
    "long": -118.3848408,
    "gmapsCategory": "Liquor store"
  },
  {
    "type": "Liquor",
    "name": "Discount Beer Wine",
    "lat": 33.8422369,
    "long": -118.2983554,
    "gmapsCategory": "Liquor store"
  },
  {
    "type": "Liquor",
    "name": "NINO LIQUOR",
    "lat": 33.8037553,
    "long": -118.3509221,
    "gmapsCategory": "Liquor store"
  },
  {
    "type": "Liquor",
    "name": "Redondo Food Mart",
    "lat": 33.833495,
    "long": -118.3883348,
    "gmapsCategory": "Liquor store"
  },
  {
    "type": "Liquor",
    "name": "BevMo ",
    "lat": 33.8169599,
    "long": -118.385476,
    "gmapsCategory": "Wine store"
  },
  {
    "type": "Liquor",
    "name": "Manhattan Fine Wines",
    "lat": 33.873303,
    "long": -118.3940479,
    "gmapsCategory": "Wine store"
  },
  {
    "type": "Liquor",
    "name": "Caps Corks Liquor Deli Grill",
    "lat": 33.8381849,
    "long": -118.3531575,
    "gmapsCategory": "Liquor store"
  },
  {
    "type": "Liquor",
    "name": "Gardena Liquor",
    "lat": 33.8627599,
    "long": -118.2990335,
    "gmapsCategory": "Liquor store"
  },
  {
    "type": "Liquor",
    "name": "Drinksmith",
    "lat": 33.8067174,
    "long": -118.3542532,
    "gmapsCategory": "Liquor store"
  },
  {
    "type": "Liquor",
    "name": "B K Liquor",
    "lat": 33.8832362,
    "long": -118.3610299,
    "gmapsCategory": "Liquor store"
  },
  {
    "type": "Liquor",
    "name": "Roberts Liquor",
    "lat": 33.8619809,
    "long": -118.4003776,
    "gmapsCategory": "Liquor store"
  },
  {
    "type": "Liquor",
    "name": "Liquor nd location ",
    "lat": 33.8310336,
    "long": -118.3497562,
    "gmapsCategory": "Liquor store"
  },
  {
    "type": "Liquor",
    "name": "Rolling Hills liquor",
    "lat": 33.7899591,
    "long": -118.3257924,
    "gmapsCategory": "Liquor store"
  },
  {
    "type": "Liquor",
    "name": "Ace Hi Liquor",
    "lat": 33.7920437,
    "long": -118.3202281,
    "gmapsCategory": "Liquor store"
  },
  {
    "type": "Liquor",
    "name": "S K Liquor Market",
    "lat": 33.8777928,
    "long": -118.352077,
    "gmapsCategory": "Liquor store"
  },
  {
    "type": "Liquor",
    "name": "Uncorked The Wine Shop",
    "lat": 33.8836378,
    "long": -118.4098925,
    "gmapsCategory": "Wine store"
  },
  {
    "type": "Liquor",
    "name": "Lunada Bay Liquor Deli",
    "lat": 33.7761586,
    "long": -118.418036,
    "gmapsCategory": "Liquor store"
  },
  {
    "type": "Liquor",
    "name": "Select Beer Store",
    "lat": 33.8195937,
    "long": -118.3856986,
    "gmapsCategory": "Beer store"
  },
  {
    "type": "Liquor",
    "name": "Uncorked The Wine Shop",
    "lat": 33.8636654,
    "long": -118.3982496,
    "gmapsCategory": "Wine store"
  },
  {
    "type": "Liquor",
    "name": "Bill s Liquor Store",
    "lat": 33.7892803,
    "long": -118.3041085,
    "gmapsCategory": "Liquor store"
  },
  {
    "type": "Liquor",
    "name": "Silver Skate Liquor Store",
    "lat": 33.8082342,
    "long": -118.3076598,
    "gmapsCategory": "Liquor store"
  },
  {
    "type": "Liquor",
    "name": " Eleven",
    "lat": 33.8229109,
    "long": -118.3516297,
    "gmapsCategory": "Convenience store"
  },
  {
    "type": "Liquor",
    "name": "Gelson s Manhattan Beach",
    "lat": 33.8835819,
    "long": -118.3963947,
    "gmapsCategory": "Grocery store"
  },
  {
    "type": "Liquor",
    "name": " Eleven",
    "lat": 33.7890926,
    "long": -118.311834,
    "gmapsCategory": "Convenience store"
  },
  {
    "type": "Liquor",
    "name": "Steves s Deli Mart Liquor",
    "lat": 33.8127568,
    "long": -118.2976616,
    "gmapsCategory": "Liquor store"
  },
  {
    "type": "Liquor",
    "name": "Steve s Drive In Liquor",
    "lat": 33.8125131,
    "long": -118.2974852,
    "gmapsCategory": "Liquor store"
  },
  {
    "type": "Liquor",
    "name": "Nick s Liquor",
    "lat": 33.8500652,
    "long": -118.3885846,
    "gmapsCategory": "Liquor store"
  },
  {
    "type": "Liquor",
    "name": "Til The Last Sip",
    "lat": 33.8836404,
    "long": -118.4098523,
    "gmapsCategory": "Liquor store"
  },
  {
    "type": "Liquor",
    "name": "Long Beach Vibe Liquor",
    "lat": 33.7750919,
    "long": -118.1519589,
    "gmapsCategory": "Liquor store"
  },
  {
    "type": "Liquor",
    "name": "Belmont Heights Liquor Mart",
    "lat": 33.7643278,
    "long": -118.1511421,
    "gmapsCategory": "Liquor store"
  },
  {
    "type": "Liquor",
    "name": "Loma Liquor",
    "lat": 33.7641644,
    "long": -118.1500086,
    "gmapsCategory": "Liquor store"
  },
  {
    "type": "Liquor",
    "name": "Hi Lo Liquor Market Long Beach",
    "lat": 33.7664321,
    "long": -118.1841419,
    "gmapsCategory": "Liquor store"
  },
  {
    "type": "Liquor",
    "name": "P B Liquor Jr Market",
    "lat": 33.7720485,
    "long": -118.1680579,
    "gmapsCategory": "Liquor store"
  },
  {
    "type": "Liquor",
    "name": "Benson Liquor Store",
    "lat": 33.7718848,
    "long": -118.1419191,
    "gmapsCategory": "Liquor store"
  },
  {
    "type": "Liquor",
    "name": "P B Liquor Jr Market",
    "lat": 33.7776491,
    "long": -118.1939183,
    "gmapsCategory": "Liquor store"
  },
  {
    "type": "Liquor",
    "name": "Odyssey Liquor",
    "lat": 33.7896354,
    "long": -118.1515789,
    "gmapsCategory": "Liquor store"
  },
  {
    "type": "Liquor",
    "name": "Wine Mess Liquor",
    "lat": 33.7674119,
    "long": -118.1698891,
    "gmapsCategory": "Liquor store"
  },
  {
    "type": "Liquor",
    "name": "Hops Vines Market",
    "lat": 33.7703216,
    "long": -118.1872865,
    "gmapsCategory": "Convenience store"
  },
  {
    "type": "Liquor",
    "name": "Bourbon Street Liquor",
    "lat": 33.7751334,
    "long": -118.173845,
    "gmapsCategory": "Liquor store"
  },
  {
    "type": "Liquor",
    "name": "Mike s Liquor",
    "lat": 33.7895294,
    "long": -118.191996,
    "gmapsCategory": "Liquor store"
  },
  {
    "type": "Liquor",
    "name": "US Liquor",
    "lat": 33.7898645,
    "long": -118.1673931,
    "gmapsCategory": "Liquor store"
  },
  {
    "type": "Liquor",
    "name": "Glory Liquor Store",
    "lat": 33.7909489,
    "long": -118.2731454,
    "gmapsCategory": "Liquor store"
  },
  {
    "type": "Liquor",
    "name": "Bud s Liquor Store and Market",
    "lat": 33.7715447,
    "long": -118.174391,
    "gmapsCategory": "Liquor store"
  },
  {
    "type": "Liquor",
    "name": "P B Market",
    "lat": 33.7756655,
    "long": -118.1586308,
    "gmapsCategory": "Liquor store"
  },
  {
    "type": "Liquor",
    "name": "Big John s Liquor",
    "lat": 33.7786242,
    "long": -118.1995154,
    "gmapsCategory": "Liquor store"
  },
  {
    "type": "Liquor",
    "name": "Red Carpet Liquor Store",
    "lat": 33.7678738,
    "long": -118.1826491,
    "gmapsCategory": "Liquor store"
  },
  {
    "type": "Liquor",
    "name": "South Bay Liquor Mart",
    "lat": 33.7827174,
    "long": -118.2742705,
    "gmapsCategory": "Liquor store"
  },
  {
    "type": "Liquor",
    "name": "Ambassador Liquor Store",
    "lat": 33.7715408,
    "long": -118.1710308,
    "gmapsCategory": "Liquor store"
  },
  {
    "type": "Liquor",
    "name": "Neptune Liquor",
    "lat": 33.790539,
    "long": -118.269872,
    "gmapsCategory": "Liquor store"
  },
  {
    "type": "Liquor",
    "name": "Cande s Liquor Mini Mart",
    "lat": 33.7800958,
    "long": -118.2579619,
    "gmapsCategory": "Liquor store"
  },
  {
    "type": "Liquor",
    "name": "Eddie E s liquor store",
    "lat": 33.7894879,
    "long": -118.1635473,
    "gmapsCategory": "Liquor store"
  },
  {
    "type": "Liquor",
    "name": "Eddie s Liquor",
    "lat": 33.7907926,
    "long": -118.2652738,
    "gmapsCategory": "Liquor store"
  },
  {
    "type": "Liquor",
    "name": "Dave s Market Liquor",
    "lat": 33.7718645,
    "long": -118.1718647,
    "gmapsCategory": "Liquor store"
  },
  {
    "type": "Liquor",
    "name": "Supreme Liquor Mart",
    "lat": 33.7752141,
    "long": -118.1978581,
    "gmapsCategory": "Liquor store"
  },
  {
    "type": "Liquor",
    "name": "Liquor store ",
    "lat": 33.7874169,
    "long": -118.1897236,
    "gmapsCategory": "Liquor store"
  },
  {
    "type": "Liquor",
    "name": "Happy s Liquor",
    "lat": 33.8339722,
    "long": -118.1420083,
    "gmapsCategory": "Liquor store"
  },
  {
    "type": "Liquor",
    "name": "Corked",
    "lat": 33.7958963,
    "long": -118.1417754,
    "gmapsCategory": "Liquor store"
  },
  {
    "type": "Liquor",
    "name": "Clark s Liquor",
    "lat": 33.7888878,
    "long": -118.1335085,
    "gmapsCategory": "Liquor store"
  },
  {
    "type": "Liquor",
    "name": "Around the Corner Liquor",
    "lat": 33.7894,
    "long": -118.1075451,
    "gmapsCategory": "Liquor store"
  },
  {
    "type": "Liquor",
    "name": "Cypress Liquor",
    "lat": 33.8309227,
    "long": -118.055047,
    "gmapsCategory": "Liquor store"
  },
  {
    "type": "Liquor",
    "name": "Ruby s liquor",
    "lat": 33.8468558,
    "long": -118.1262607,
    "gmapsCategory": "Liquor store"
  },
  {
    "type": "Liquor",
    "name": "US Liquor",
    "lat": 33.8130955,
    "long": -118.1143856,
    "gmapsCategory": "Liquor store"
  },
  {
    "type": "Liquor",
    "name": "O K Liquor Store",
    "lat": 33.8391651,
    "long": -118.0822415,
    "gmapsCategory": "Liquor store"
  },
  {
    "type": "Liquor",
    "name": "Rossmoor gourmet liquor",
    "lat": 33.8010722,
    "long": -118.0724054,
    "gmapsCategory": "Liquor store"
  },
  {
    "type": "Liquor",
    "name": "Roadrunner Spirits",
    "lat": 33.8077609,
    "long": -118.0712294,
    "gmapsCategory": "Liquor store"
  },
  {
    "type": "Liquor",
    "name": "Deep s Liquor Jr Market",
    "lat": 33.8314483,
    "long": -118.0224864,
    "gmapsCategory": "Liquor store"
  },
  {
    "type": "Liquor",
    "name": "EJN Liquor and Mini Mart",
    "lat": 33.7960256,
    "long": -118.1082127,
    "gmapsCategory": "Liquor store"
  },
  {
    "type": "Liquor",
    "name": "Liquor Republic",
    "lat": 33.81647,
    "long": -118.0453442,
    "gmapsCategory": "Liquor store"
  },
  {
    "type": "Liquor",
    "name": "M N Liquor",
    "lat": 33.8118434,
    "long": -118.114465,
    "gmapsCategory": "Liquor store"
  },
  {
    "type": "Liquor",
    "name": "Total Wine More",
    "lat": 33.8269955,
    "long": -118.0866745,
    "gmapsCategory": "Liquor store"
  },
  {
    "type": "Liquor",
    "name": "Marc s Liquor",
    "lat": 33.8344444,
    "long": -118.1255556,
    "gmapsCategory": "Liquor store"
  },
  {
    "type": "Liquor",
    "name": "Palm Tree Liquor Food Mart",
    "lat": 33.8110148,
    "long": -118.0988951,
    "gmapsCategory": "Liquor store"
  },
  {
    "type": "Liquor",
    "name": "The Liquor Store",
    "lat": 33.857954,
    "long": -118.0896102,
    "gmapsCategory": "Liquor store"
  },
  {
    "type": "Liquor",
    "name": "Tubby s Liquor",
    "lat": 33.8088361,
    "long": -118.0721725,
    "gmapsCategory": "Liquor store"
  },
  {
    "type": "Liquor",
    "name": "M S Liquor Market",
    "lat": 33.8106755,
    "long": -118.0551974,
    "gmapsCategory": "Liquor store"
  },
  {
    "type": "Liquor",
    "name": "Kaliman liquor market",
    "lat": 33.8384605,
    "long": -118.0735681,
    "gmapsCategory": "Liquor store"
  },
  {
    "type": "Liquor",
    "name": "Lampson Liquor",
    "lat": 33.7808547,
    "long": -118.0414831,
    "gmapsCategory": "Liquor store"
  },
  {
    "type": "Liquor",
    "name": "Lakewood Liquor",
    "lat": 33.8316697,
    "long": -118.0888735,
    "gmapsCategory": "Liquor store"
  },
  {
    "type": "Liquor",
    "name": "Bargain Liquors",
    "lat": 33.7751956,
    "long": -118.153302,
    "gmapsCategory": "Liquor store"
  },
  {
    "type": "Liquor",
    "name": "Carson Liquor",
    "lat": 33.831302,
    "long": -118.0772442,
    "gmapsCategory": "Liquor store"
  },
  {
    "type": "Liquor",
    "name": "John s Liquor",
    "lat": 33.8465863,
    "long": -118.1151367,
    "gmapsCategory": "Liquor store"
  },
  {
    "type": "Liquor",
    "name": "OC Bottle Shop",
    "lat": 33.8313325,
    "long": -118.0389866,
    "gmapsCategory": "Liquor store"
  },
  {
    "type": "Liquor",
    "name": "Happy E s liquor",
    "lat": 33.8266917,
    "long": -118.0720644,
    "gmapsCategory": "Liquor store"
  },
  {
    "type": "Liquor",
    "name": "Hody Lane Liquor",
    "lat": 33.7829322,
    "long": -118.1320818,
    "gmapsCategory": "Liquor store"
  },
  {
    "type": "Liquor",
    "name": "Pit Stop Liquor",
    "lat": 33.8707751,
    "long": -118.1427458,
    "gmapsCategory": "Liquor store"
  },
  {
    "type": "Liquor",
    "name": " Proof Liquor",
    "lat": 33.8605708,
    "long": -118.1234274,
    "gmapsCategory": "Liquor store"
  },
  {
    "type": "Liquor",
    "name": "Host Shop Liquor",
    "lat": 33.7967635,
    "long": -118.1432588,
    "gmapsCategory": "Liquor store"
  },
  {
    "type": "Liquor",
    "name": "Omega Liquor",
    "lat": 33.8309909,
    "long": -118.0572444,
    "gmapsCategory": "Liquor store"
  },
  {
    "type": "Liquor",
    "name": "Pioneer Liquor",
    "lat": 33.8597452,
    "long": -118.0823676,
    "gmapsCategory": "Liquor store"
  },
  {
    "type": "Liquor",
    "name": "Vip Liquor",
    "lat": 33.8459633,
    "long": -118.0624582,
    "gmapsCategory": "Liquor store"
  },
  {
    "type": "Liquor",
    "name": "Artesia Liquor",
    "lat": 33.8737296,
    "long": -118.0478287,
    "gmapsCategory": "Liquor store"
  },
  {
    "type": "Liquor",
    "name": "Rosecrans Liquor ",
    "lat": 33.8603519,
    "long": -118.1519043,
    "gmapsCategory": "Liquor store"
  },
  {
    "type": "Liquor",
    "name": "Corked",
    "lat": 33.8322659,
    "long": -118.0193302,
    "gmapsCategory": "Liquor store"
  },
  {
    "type": "Liquor",
    "name": "CV Liquor",
    "lat": 33.8384568,
    "long": -118.0643761,
    "gmapsCategory": "Liquor store"
  },
  {
    "type": "Liquor",
    "name": "Flower Market Liquor FML ",
    "lat": 33.8827503,
    "long": -118.1424175,
    "gmapsCategory": "Liquor store"
  },
  {
    "type": "Liquor",
    "name": "Rosecrans Spirit Shop ",
    "lat": 33.8724648,
    "long": -118.1107315,
    "gmapsCategory": "Liquor store"
  },
  {
    "type": "Liquor",
    "name": "The Wine Country",
    "lat": 33.7987853,
    "long": -118.1518147,
    "gmapsCategory": "Wine store"
  },
  {
    "type": "Liquor",
    "name": "One Stop Wine Shop",
    "lat": 33.7829245,
    "long": -118.1321116,
    "gmapsCategory": "Liquor store"
  },
  {
    "type": "Liquor",
    "name": "Cypress Craft Beers Liquor",
    "lat": 33.8290533,
    "long": -118.0288153,
    "gmapsCategory": "Liquor store"
  },
  {
    "type": "Liquor",
    "name": " Day Liquor Mart",
    "lat": 33.8657502,
    "long": -118.124758,
    "gmapsCategory": "Liquor store"
  },
  {
    "type": "Liquor",
    "name": "Nady s Liquor",
    "lat": 33.6995376,
    "long": -117.8696935,
    "gmapsCategory": "Liquor store"
  },
  {
    "type": "Liquor",
    "name": "Magicland Market",
    "lat": 33.8030873,
    "long": -117.9050879,
    "gmapsCategory": "Liquor store"
  },
  {
    "type": "Liquor",
    "name": "Wonderland Liquor Market",
    "lat": 33.802988,
    "long": -117.9277593,
    "gmapsCategory": "Liquor store"
  },
  {
    "type": "Liquor",
    "name": "Royal Market Liquor",
    "lat": 33.7881957,
    "long": -117.861517,
    "gmapsCategory": "Liquor store"
  },
  {
    "type": "Liquor",
    "name": "Nickey s Liquor Mart",
    "lat": 33.7746762,
    "long": -117.9232999,
    "gmapsCategory": "Liquor store"
  },
  {
    "type": "Liquor",
    "name": "Hi Lite Liquors",
    "lat": 33.7575937,
    "long": -117.9900467,
    "gmapsCategory": "Liquor store"
  },
  {
    "type": "Liquor",
    "name": "Fountain Valley Mini Mart Liquor",
    "lat": 33.7155461,
    "long": -117.9629332,
    "gmapsCategory": "Liquor store"
  },
  {
    "type": "Liquor",
    "name": "Five Star Liquor",
    "lat": 33.7307795,
    "long": -117.9641851,
    "gmapsCategory": "Liquor store"
  },
  {
    "type": "Liquor",
    "name": "Happy s Liquor",
    "lat": 33.7223771,
    "long": -117.876857,
    "gmapsCategory": "Liquor store"
  },
  {
    "type": "Liquor",
    "name": "On the Way Liquor Convenient",
    "lat": 33.7159785,
    "long": -117.9518771,
    "gmapsCategory": "Liquor store"
  },
  {
    "type": "Liquor",
    "name": "Gardens Liquor Inc",
    "lat": 33.7741288,
    "long": -117.9308405,
    "gmapsCategory": "Liquor store"
  },
  {
    "type": "Liquor",
    "name": "City Market",
    "lat": 33.7298834,
    "long": -117.9810087,
    "gmapsCategory": "Liquor store"
  },
  {
    "type": "Liquor",
    "name": "Villa Liquor",
    "lat": 33.7275,
    "long": -117.8669444,
    "gmapsCategory": "Liquor store"
  },
  {
    "type": "Liquor",
    "name": "Crazy Liquor Spirits",
    "lat": 33.773477,
    "long": -117.9818661,
    "gmapsCategory": "Liquor store"
  },
  {
    "type": "Liquor",
    "name": "Stanton Liquor",
    "lat": 33.8034816,
    "long": -117.9753164,
    "gmapsCategory": "Liquor store"
  },
  {
    "type": "Liquor",
    "name": "Kings Liquor Junior Market",
    "lat": 33.795706,
    "long": -117.914313,
    "gmapsCategory": "Liquor store"
  },
  {
    "type": "Liquor",
    "name": "Santa ana liquor",
    "lat": 33.7455412,
    "long": -117.9010714,
    "gmapsCategory": "Liquor store"
  },
  {
    "type": "Liquor",
    "name": "Hi Crest Liquor Jr Market",
    "lat": 33.789082,
    "long": -117.922818,
    "gmapsCategory": "Liquor store"
  },
  {
    "type": "Liquor",
    "name": "Beerland Liquor",
    "lat": 33.7258952,
    "long": -117.8560792,
    "gmapsCategory": "Liquor store"
  },
  {
    "type": "Liquor",
    "name": "Key Market Santa Ana Liquor",
    "lat": 33.7067573,
    "long": -117.885057,
    "gmapsCategory": "Liquor store"
  },
  {
    "type": "Liquor",
    "name": "Orange Liquor Market",
    "lat": 33.7893017,
    "long": -117.9132518,
    "gmapsCategory": "Liquor store"
  },
  {
    "type": "Liquor",
    "name": "ABC Liquor ",
    "lat": 33.78815,
    "long": -117.9838153,
    "gmapsCategory": "Liquor store"
  },
  {
    "type": "Liquor",
    "name": "ABC Liquor",
    "lat": 33.7827263,
    "long": -117.9066021,
    "gmapsCategory": "Liquor store"
  },
  {
    "type": "Liquor",
    "name": "Al s Store ",
    "lat": 33.7365996,
    "long": -117.9899768,
    "gmapsCategory": "Liquor store"
  },
  {
    "type": "Liquor",
    "name": "Garden Grove Win Spirits",
    "lat": 33.7599466,
    "long": -117.938001,
    "gmapsCategory": "Liquor store"
  },
  {
    "type": "Liquor",
    "name": "OC Liquor Mini Mart",
    "lat": 33.7519363,
    "long": -117.9717848,
    "gmapsCategory": "Liquor store"
  },
  {
    "type": "Liquor",
    "name": "Liquor Stop N Shop Mini Market",
    "lat": 33.7596189,
    "long": -117.9107802,
    "gmapsCategory": "Liquor store"
  },
  {
    "type": "Liquor",
    "name": "Hickory Liquor",
    "lat": 33.7451181,
    "long": -117.8605876,
    "gmapsCategory": "Liquor store"
  },