[
  {
    "type": "Liquor",
    "name": "Liquor Cellar",
    "lat": 34.1730454,
    "long": -119.1786783,
    "gmapsCategory": "Liquor store"
  },
  {
    "type": "Liquor",
    "name": "El Rio Oxnard Market",
    "lat": 34.2346786,
    "long": -119.1718459,
    "gmapsCategory": "Liquor store"
  },
  {
    "type": "Liquor",
    "name": "Harbor Mart Hollywood Beach ",
    "lat": 34.1741808,
    "long": -119.2309501,
    "gmapsCategory": "Liquor store"
  },
  {
    "type": "Liquor",
    "name": "Crown s Market Liquor",
    "lat": 34.1862848,
    "long": -119.1779481,
    "gmapsCategory": "Liquor store"
  },
  {
    "type": "Liquor",
    "name": "VINEYARD FOOD LIQUOR",
    "lat": 34.2267715,
    "long": -119.1785763,
    "gmapsCategory": "Liquor store"
  },
  {
    "type": "Liquor",
    "name": "El Rio Liquor Inc",
    "lat": 34.2386789,
    "long": -119.1676843,
    "gmapsCategory": "Liquor store"
  },
  {
    "type": "Liquor",
    "name": "Oxnard Shores Bottle Shoppe",
    "lat": 34.1908632,
    "long": -119.2393435,
    "gmapsCategory": "Liquor store"
  },
  {
    "type": "Liquor",
    "name": "Red Barn Liquor Market",
    "lat": 34.1825478,
    "long": -119.1771593,
    "gmapsCategory": "Liquor store"
  },
  {
    "type": "Liquor",
    "name": "Surf Side Liquor Minimart",
    "lat": 34.1479468,
    "long": -119.1949349,
    "gmapsCategory": "Liquor store"
  },
  {
    "type": "Liquor",
    "name": "Plaza Liquor Mart Inc",
    "lat": 34.1763365,
    "long": -119.2117344,
    "gmapsCategory": "Liquor store"
  },
  {
    "type": "Liquor",
    "name": "Chicago Liquor Store",
    "lat": 34.2199967,
    "long": -119.1940826,
    "gmapsCategory": "Liquor store"
  },
  {
    "type": "Liquor",
    "name": "Park Plaza Wine Spirits Inc",
    "lat": 34.1566115,
    "long": -119.1605432,
    "gmapsCategory": "Liquor store"
  },
  {
    "type": "Liquor",
    "name": "Top Liquor Market Inc ",
    "lat": 34.2479563,
    "long": -119.1952152,
    "gmapsCategory": "Liquor store"
  },
  {
    "type": "Liquor",
    "name": "House of Spirits Liquor",
    "lat": 34.1768758,
    "long": -119.2184085,
    "gmapsCategory": "Liquor store"
  },
  {
    "type": "Liquor",
    "name": "Doc s Liquor Market",
    "lat": 34.173615,
    "long": -119.14937,
    "gmapsCategory": "Liquor store"
  },
  {
    "type": "Liquor",
    "name": "Allan s Liquor",
    "lat": 34.1765776,
    "long": -119.1961376,
    "gmapsCategory": "Liquor store"
  },
  {
    "type": "Liquor",
    "name": "Cooper Liquor",
    "lat": 34.2044433,
    "long": -119.1742077,
    "gmapsCategory": "Liquor store"
  },
  {
    "type": "Liquor",
    "name": "Jolly Spirits Liquor",
    "lat": 34.155701,
    "long": -119.1947712,
    "gmapsCategory": "Liquor store"
  },
  {
    "type": "Liquor",
    "name": "A Z Liquor",
    "lat": 34.1739813,
    "long": -119.1946242,
    "gmapsCategory": "Liquor store"
  },
  {
    "type": "Liquor",
    "name": "Bard market liquor",
    "lat": 34.161198,
    "long": -119.1769967,
    "gmapsCategory": "Liquor store"
  },
  {
    "type": "Liquor",
    "name": "Pat Holden s Liquor Gift Shop",
    "lat": 34.1925856,
    "long": -119.1782272,
    "gmapsCategory": "Liquor store"
  },
  {
    "type": "Liquor",
    "name": "Four Guys Liquor ",
    "lat": 34.1662608,
    "long": -119.1769406,
    "gmapsCategory": "Liquor store"
  },
  {
    "type": "Liquor",
    "name": "Fiesta Liquor",
    "lat": 34.1833724,
    "long": -119.1701132,
    "gmapsCategory": "Liquor store"
  },
  {
    "type": "Liquor",
    "name": "D J LIQUOR",
    "lat": 34.1957575,
    "long": -119.220615,
    "gmapsCategory": "Liquor store"
  },
  {
    "type": "Liquor",
    "name": "Duke s Liquor",
    "lat": 34.1542767,
    "long": -119.1774865,
    "gmapsCategory": "Liquor store"
  },
  {
    "type": "Liquor",
    "name": "Raymond s Liquors",
    "lat": 34.1545854,
    "long": -119.193922,
    "gmapsCategory": "Liquor store"
  },
  {
    "type": "Liquor",
    "name": "Harbor Market And Liquor",
    "lat": 34.2403369,
    "long": -119.2641682,
    "gmapsCategory": "Liquor store"
  },
  {
    "type": "Liquor",
    "name": "Raul s Liquor",
    "lat": 34.1967672,
    "long": -119.1686255,
    "gmapsCategory": "Liquor store"
  },
  {
    "type": "Liquor",
    "name": "Ben s Market",
    "lat": 34.2042115,
    "long": -119.171447,
    "gmapsCategory": "Liquor store"
  },
  {
    "type": "Liquor",
    "name": "Wooley Road Liquors",
    "lat": 34.1898801,
    "long": -119.1876422,
    "gmapsCategory": "Liquor store"
  },
  {
    "type": "Liquor",
    "name": "El Maguey Liquor",
    "lat": 34.1670609,
    "long": -119.176965,
    "gmapsCategory": "Liquor store"
  },
  {
    "type": "Liquor",
    "name": "Doc s Beer Wine",
    "lat": 34.1972205,
    "long": -119.1812985,
    "gmapsCategory": "Beer store"
  },
  {
    "type": "Liquor",
    "name": "One Stop Liquor Market",
    "lat": 34.1906329,
    "long": -119.1890539,
    "gmapsCategory": "Liquor store"
  },
  {
    "type": "Liquor",
    "name": "Beverage House Liquor ",
    "lat": 34.2203552,
    "long": -119.1940367,
    "gmapsCategory": "Liquor store"
  },
  {
    "type": "Liquor",
    "name": "Corner Store",
    "lat": 34.1582041,
    "long": -119.222,
    "gmapsCategory": "Liquor store"
  },
  {
    "type": "Liquor",
    "name": "Mariner s Liquor",
    "lat": 34.2424814,
    "long": -119.2570862,
    "gmapsCategory": "Liquor store"
  },
  {
    "type": "Liquor",
    "name": "Beer Wine Speedy Mart",
    "lat": 34.1906786,
    "long": -119.2084796,
    "gmapsCategory": "Convenience store"
  },
  {
    "type": "Liquor",
    "name": "Log Cabin Liquor",
    "lat": 34.2515713,
    "long": -119.2082321,
    "gmapsCategory": "Liquor store"
  },
  {
    "type": "Liquor",
    "name": "BEVERAGE HOUSE LIQUOR ",
    "lat": 34.2020797,
    "long": -119.1603472,
    "gmapsCategory": "Liquor store"
  },
  {
    "type": "Liquor",
    "name": "Wagon Wheel Beverages",
    "lat": 34.2356249,
    "long": -119.181633,
    "gmapsCategory": "Convenience store"
  },
  {
    "type": "Liquor",
    "name": "Doc s Beer Wine",
    "lat": 34.1549754,
    "long": -119.1771488,
    "gmapsCategory": "Store"
  },
  {
    "type": "Liquor",
    "name": "Goode s Liquor",
    "lat": 34.186997,
    "long": -119.1779628,
    "gmapsCategory": "Liquor store"
  },
  {
    "type": "Liquor",
    "name": "Harbor Mart Portside Ventura ",
    "lat": 34.2483183,
    "long": -119.2619267,
    "gmapsCategory": "Liquor store"
  },
  {
    "type": "Liquor",
    "name": "Southern Glazer s Wine Spirits",
    "lat": 34.1978827,
    "long": -119.1588295,
    "gmapsCategory": "Southern Glazer's Wine & Spirits"
  },
  {
    "type": "Liquor",
    "name": "Lighthouse Liquor",
    "lat": 34.1479371,
    "long": -119.1976716,
    "gmapsCategory": "Liquor store"
  },
  {
    "type": "Liquor",
    "name": "Magnavino Cellars",
    "lat": 34.210636,
    "long": -119.1429361,
    "gmapsCategory": "Winery"
  },
  {
    "type": "Liquor",
    "name": "King Village Liquor",
    "lat": 34.1557731,
    "long": -119.1782462,
    "gmapsCategory": "Liquor store"
  },
  {
    "type": "Liquor",
    "name": "Anacapa Liquor",
    "lat": 34.1477648,
    "long": -119.1895805,
    "gmapsCategory": "Liquor store"
  },
  {
    "type": "Liquor",
    "name": "SIPS Coffee Wine Beer",
    "lat": 34.248403,
    "long": -119.1950916,
    "gmapsCategory": "SIPS Coffee Wine Beer"
  },
  {
    "type": "Liquor",
    "name": "Glass Bottle Liquors",
    "lat": 34.1996066,
    "long": -119.1809376,
    "gmapsCategory": "Liquor store"
  },
  {
    "type": "Liquor",
    "name": " ",
    "lat": 34.238506,
    "long": -119.16867,
    "gmapsCategory": "Liquor store"
  },
  {
    "type": "Liquor",
    "name": "Rawad Store",
    "lat": 34.1477869,
    "long": -119.189545,
    "gmapsCategory": "Liquor store"
  },
  {
    "type": "Liquor",
    "name": " Eleven",
    "lat": 34.2194471,
    "long": -119.1775814,
    "gmapsCategory": "Convenience store"
  },
  {
    "type": "Liquor",
    "name": " ",
    "lat": 34.175953,
    "long": -119.19466,
    "gmapsCategory": "Liquor store"
  },
  {
    "type": "Liquor",
    "name": " ",
    "lat": 34.244106,
    "long": -119.16351,
    "gmapsCategory": "Liquor store"
  },
  {
    "type": "Liquor",
    "name": " Eleven",
    "lat": 34.173609,
    "long": -119.1485846,
    "gmapsCategory": "Convenience store"
  },
  {
    "type": "Liquor",
    "name": "Ralphs",
    "lat": 34.1772107,
    "long": -119.2163023,
    "gmapsCategory": "Liquor store"
  },
  {
    "type": "Liquor",
    "name": " Eleven",
    "lat": 34.1699709,
    "long": -119.1772591,
    "gmapsCategory": "Convenience store"
  },
  {
    "type": "Liquor",
    "name": "Four Brix Winery and Tasting Room",
    "lat": 34.2524963,
    "long": -119.2291509,
    "gmapsCategory": "Winery"
  },
  {
    "type": "Liquor",
    "name": " Eleven",
    "lat": 34.1611101,
    "long": -119.1520994,
    "gmapsCategory": "Convenience store"
  },
  {
    "type": "Liquor",
    "name": " Eleven",
    "lat": 34.1896912,
    "long": -119.1808046,
    "gmapsCategory": "Convenience store"
  },
  {
    "type": "Liquor",
    "name": "Holiday Liquors",
    "lat": 34.2531595,
    "long": -119.2029583,
    "gmapsCategory": "Liquor store"
  },
  {
    "type": "Liquor",
    "name": " Eleven",
    "lat": 34.2036678,
    "long": -119.1775585,
    "gmapsCategory": "Convenience store"
  },
  {
    "type": "Liquor",
    "name": "Southern Wine",
    "lat": 34.2539704,
    "long": -119.1616997,
    "gmapsCategory": "Southern Wine"
  },
  {
    "type": "Liquor",
    "name": "Springville Market",
    "lat": 34.2222118,
    "long": -119.0828555,
    "gmapsCategory": "Liquor store"
  },
  {
    "type": "Liquor",
    "name": "Country Corner Liquor",
    "lat": 34.2580542,
    "long": -119.152541,
    "gmapsCategory": "Liquor store"
  },
  {
    "type": "Liquor",
    "name": " Eleven",
    "lat": 34.197996,
    "long": -119.1957443,
    "gmapsCategory": "Convenience store"
  },
  {
    "type": "Liquor",
    "name": "Ventura Wine Co",
    "lat": 34.2548227,
    "long": -119.2343791,
    "gmapsCategory": "Wine store"
  },
  {
    "type": "Liquor",
    "name": "The Cave",
    "lat": 34.2547674,
    "long": -119.2343626,
    "gmapsCategory": "Busy venue for wine & New American tapas"
  },
  {
    "type": "Liquor",
    "name": " Eleven",
    "lat": 34.2192057,
    "long": -119.1488178,
    "gmapsCategory": "Convenience store"
  },
  {
    "type": "Liquor",
    "name": "Village Wine Spirits",
    "lat": 34.2611569,
    "long": -119.2133546,
    "gmapsCategory": "Liquor store"
  },
  {
    "type": "Liquor",
    "name": "Whole Foods Market",
    "lat": 34.240193,
    "long": -119.1793555,
    "gmapsCategory": "Grocery store"
  },
  {
    "type": "Liquor",
    "name": " Eleven",
    "lat": 34.2530743,
    "long": -119.2034633,
    "gmapsCategory": "Convenience store"
  },
  {
    "type": "Liquor",
    "name": " Eleven",
    "lat": 34.223494,
    "long": -119.1036701,
    "gmapsCategory": "Convenience store"
  },
  {
    "type": "Liquor",
    "name": "Food Less",
    "lat": 34.2322996,
    "long": -119.1773352,
    "gmapsCategory": "Liquor store"
  },
  {
    "type": "Liquor",
    "name": "Surf Liquor",
    "lat": 34.2638742,
    "long": -119.2722799,
    "gmapsCategory": "Liquor store"
  },
  {
    "type": "Liquor",
    "name": "Lester Family Cellars Winery Tasting Room",
    "lat": 34.2569432,
    "long": -119.231579,
    "gmapsCategory": "Winery"
  },
  {
    "type": "Liquor",
    "name": "CVS",
    "lat": 34.1771233,
    "long": -119.2149151,
    "gmapsCategory": "Liquor store"
  },
  {
    "type": "Liquor",
    "name": "CVS",
    "lat": 34.1967689,
    "long": -119.196342,
    "gmapsCategory": "Liquor store"
  },
  {
    "type": "Liquor",
    "name": "Dr Dan s Miracle Elixirs Tasty Vittles",
    "lat": 34.2576825,
    "long": -119.2375308,
    "gmapsCategory": "Liquor store"
  },
  {
    "type": "Liquor",
    "name": "The California Wine Club",
    "lat": 34.2587306,
    "long": -119.242769,
    "gmapsCategory": "Wine store"
  },
  {
    "type": "Liquor",
    "name": "Wine Castle",
    "lat": 34.259592,
    "long": -119.2333737,
    "gmapsCategory": "Liquor store"
  },
  {
    "type": "Liquor",
    "name": "Mandell s Liquor Wine Shop",
    "lat": 34.2741362,
    "long": -119.2421936,
    "gmapsCategory": "Liquor store"
  },
  {
    "type": "Liquor",
    "name": "Five Points Liquor",
    "lat": 34.2724571,
    "long": -119.2587585,
    "gmapsCategory": "Liquor store"
  },
  {
    "type": "Liquor",
    "name": "JN Liquor",
    "lat": 34.2709004,
    "long": -119.1710128,
    "gmapsCategory": "Liquor store"
  },
  {
    "type": "Liquor",
    "name": "BevMo ",
    "lat": 34.2173827,
    "long": -119.070366,
    "gmapsCategory": "Wine store"
  },
  {
    "type": "Liquor",
    "name": "Valley Liquor and Fine Wine",
    "lat": 34.2756696,
    "long": -119.2564617,
    "gmapsCategory": "Liquor store"
  },
  {
    "type": "Liquor",
    "name": "Happy Place Craft Beer Wine Spirits",
    "lat": 34.2819241,
    "long": -119.1458298,
    "gmapsCategory": "Beer store"
  },
  {
    "type": "Liquor",
    "name": "Lantana Liquor Local Small Business ",
    "lat": 34.2185709,
    "long": -119.0541784,
    "gmapsCategory": "Liquor store"
  },
  {
    "type": "Liquor",
    "name": "Jr Liquor Mart",
    "lat": 34.2154821,
    "long": -119.0353775,
    "gmapsCategory": "Liquor store"
  },
  {
    "type": "Liquor",
    "name": "Solari Liquors",
    "lat": 34.2742843,
    "long": -119.2706394,
    "gmapsCategory": "Beer store"
  },
  {
    "type": "Liquor",
    "name": "Liquor Shop",
    "lat": 34.2367904,
    "long": -119.0396738,
    "gmapsCategory": "Liquor store"
  },
  {
    "type": "Liquor",
    "name": "Topper Motel Liquor Store",
    "lat": 34.2749989,
    "long": -119.2759636,
    "gmapsCategory": "Liquor store"
  },
  {
    "type": "Liquor",
    "name": "Village Mart",
    "lat": 34.2228194,
    "long": -119.0689333,
    "gmapsCategory": "Liquor store"
  },
  {
    "type": "Liquor",
    "name": "Sam s Club",
    "lat": 34.224386,
    "long": -119.161165,
    "gmapsCategory": "Liquor store"
  },
  {
    "type": "Liquor",
    "name": "Saviers Market",
    "lat": 34.1699725,
    "long": -119.1772886,
    "gmapsCategory": "Liquor store"
  },
  {
    "type": "Liquor",
    "name": "Cork Bottle Liquor Deli s",
    "lat": 34.2169256,
    "long": -119.0452426,
    "gmapsCategory": "Liquor store"
  },
  {
    "type": "Liquor",
    "name": "Ralphs",
    "lat": 34.2580589,
    "long": -119.2089316,
    "gmapsCategory": "Liquor store"
  },
  {
    "type": "Liquor",
    "name": "BevMo ",
    "lat": 34.2716616,
    "long": -119.2489855,
    "gmapsCategory": "Wine store"
  },
  {
    "type": "Liquor",
    "name": "Red Barn Liquors",
    "lat": 34.2949637,
    "long": -119.2972365,
    "gmapsCategory": "Liquor store"
  },
  {
    "type": "Liquor",
    "name": "Village Commons Market",
    "lat": 34.2119604,
    "long": -119.0254014,
    "gmapsCategory": "Liquor store"
  },
  {
    "type": "Liquor",
    "name": "Express Liquor",
    "lat": 34.203662,
    "long": -119.177578,
    "gmapsCategory": "Convenience store"
  },
  {
    "type": "Liquor",
    "name": "Jere s Liquors",
    "lat": 34.2226635,
    "long": -119.0431298,
    "gmapsCategory": "Liquor store"
  },
  {
    "type": "Liquor",
    "name": "Trader Joe s",
    "lat": 34.2572008,
    "long": -119.2118273,
    "gmapsCategory": "Liquor store"
  },
  {
    "type": "Liquor",
    "name": "Clark s Liquor Store",
    "lat": 34.2786888,
    "long": -119.2932455,
    "gmapsCategory": "Liquor store"
  },
  {
    "type": "Liquor",
    "name": "BEVERAGE HOUSE LIQUOR",
    "lat": 34.2724111,
    "long": -119.1715667,
    "gmapsCategory": "Convenience store"
  },
  {
    "type": "Liquor",
    "name": "Ralphs Fresh Fare",
    "lat": 34.2232758,
    "long": -119.0686296,
    "gmapsCategory": "Liquor store"
  },
  {
    "type": "Liquor",
    "name": "Red Barn Corner Liquor",
    "lat": 34.2883012,
    "long": -119.2985583,
    "gmapsCategory": "Liquor store"
  },
  {
    "type": "Liquor",
    "name": "College Liquor Deli",
    "lat": 34.2743193,
    "long": -119.2380765,
    "gmapsCategory": "Liquor store"
  },
  {
    "type": "Liquor",
    "name": "Cross Roads Market",
    "lat": 34.2419565,
    "long": -119.0111198,
    "gmapsCategory": "Liquor store"
  },
  {
    "type": "Liquor",
    "name": "Uncle Don s Liquor",
    "lat": 34.2781002,
    "long": -119.2959467,
    "gmapsCategory": "Liquor store"
  },
  {
    "type": "Liquor",
    "name": "Scandia Liquor Deli",
    "lat": 34.277817,
    "long": -119.1617966,
    "gmapsCategory": "Liquor store"
  },
  {
    "type": "Liquor",
    "name": "vomFASS Ventura",
    "lat": 34.281019,
    "long": -119.2938945,
    "gmapsCategory": "Liquor store"
  },
  {
    "type": "Liquor",
    "name": " Eleven",
    "lat": 34.2162333,
    "long": -119.0703113,
    "gmapsCategory": "Convenience store"
  },
  {
    "type": "Liquor",
    "name": "H H Liquor Store",
    "lat": 34.2788728,
    "long": -119.2726195,
    "gmapsCategory": "Liquor store"
  },
  {
    "type": "Liquor",
    "name": "Best Buy Market Wine Lotto",
    "lat": 34.2231035,
    "long": -119.0406823,
    "gmapsCategory": "Liquor store"
  },
  {
    "type": "Liquor",
    "name": "CVS",
    "lat": 34.2592565,
    "long": -119.2094861,
    "gmapsCategory": "Liquor store"
  },
  {
    "type": "Liquor",
    "name": "Woodside Market and deli",
    "lat": 34.2106975,
    "long": -119.0097505,
    "gmapsCategory": "Liquor store"
  },
  {
    "type": "Liquor",
    "name": "Clark s Liquor Jr Market",
    "lat": 34.2983131,
    "long": -119.29597,
    "gmapsCategory": "Liquor store"
  },
  {
    "type": "Liquor",
    "name": " Eleven",
    "lat": 34.287533,
    "long": -119.299305,
    "gmapsCategory": "Convenience store"
  },
  {
    "type": "Liquor",
    "name": "Kwiki Mart",
    "lat": 34.278499,
    "long": -119.2872721,
    "gmapsCategory": "Convenience store"
  },
  {
    "type": "Liquor",
    "name": "Sari Sari Market",
    "lat": 34.2864755,
    "long": -119.2995094,
    "gmapsCategory": "Asian grocery store"
  },
  {
    "type": "Liquor",
    "name": "Meta Market",
    "lat": 34.2781987,
    "long": -119.2826144,
    "gmapsCategory": "Grocery store"
  },
  {
    "type": "Liquor",
    "name": "Ventura Spirits Company",
    "lat": 34.3216163,
    "long": -119.2910179,
    "gmapsCategory": "Ventura Spirits Company"
  },
  {
    "type": "Liquor",
    "name": "The Livery Ventura",
    "lat": 34.2816422,
    "long": -119.2960762,
    "gmapsCategory": "Liquor store"
  },
  {
    "type": "Liquor",
    "name": "Docs Market",
    "lat": 34.2906018,
    "long": -119.3037369,
    "gmapsCategory": "Grocery store"
  },
  {
    "type": "Liquor",
    "name": "Santa Cruz Market",
    "lat": 34.2783878,
    "long": -119.2708617,
    "gmapsCategory": "Grocery store"
  },
  {
    "type": "Liquor",
    "name": "Midtown Wines",
    "lat": 34.2810497,
    "long": -119.2857434,
    "gmapsCategory": "Wine store"
  },
  {
    "type": "Liquor",
    "name": "F M Plus",
    "lat": 34.2749278,
    "long": -119.2754527,
    "gmapsCategory": "Variety store"
  },
  {
    "type": "Liquor",
    "name": "Harvard Liquor",
    "lat": 34.3515992,
    "long": -119.0558797,
    "gmapsCategory": "Liquor store"
  },
  {
    "type": "Liquor",
    "name": "Jonesy s Liquor",
    "lat": 34.3456835,
    "long": -119.0733194,
    "gmapsCategory": "Liquor store"
  },
  {
    "type": "Liquor",
    "name": "Four Guys Liquor",
    "lat": 34.355633,
    "long": -119.055671,
    "gmapsCategory": "Liquor store"
  },
  {
    "type": "Liquor",
    "name": "OXXO Liquor",
    "lat": 34.339839,
    "long": -119.0862055,
    "gmapsCategory": "Liquor store"
  },
  {
    "type": "Liquor",
    "name": "Juniors Market",
    "lat": 34.3617543,
    "long": -119.0602607,
    "gmapsCategory": "Liquor store"
  },
  {
    "type": "Liquor",
    "name": "Mountains view market and liquor",
    "lat": 34.3578179,
    "long": -119.0613072,
    "gmapsCategory": "Mountains view market and liquor"
  },
  {
    "type": "Liquor",
    "name": "Ok liqour",
    "lat": 34.3414907,
    "long": -119.0835543,
    "gmapsCategory": "Liquor store"
  },
  {
    "type": "Liquor",
    "name": "Red Barn Market and Liquor",
    "lat": 34.354795,
    "long": -119.0579087,
    "gmapsCategory": "Liquor store"
  },
  {
    "type": "Liquor",
    "name": "El Brillante Market",
    "lat": 34.3539675,
    "long": -119.0594662,
    "gmapsCategory": "Grocery store"
  },
  {
    "type": "Liquor",
    "name": "Somis General Store",
    "lat": 34.2565241,
    "long": -118.9965092,
    "gmapsCategory": "Grocery store"
  },
  {
    "type": "Liquor",
    "name": "R R Market",
    "lat": 34.3612229,
    "long": -119.0609592,
    "gmapsCategory": "Convenience store"
  },
  {
    "type": "Liquor",
    "name": "Stagecoach Station",
    "lat": 34.4367111,
    "long": -119.1369351,
    "gmapsCategory": "Grocery store"
  },
  {
    "type": "Liquor",
    "name": "Royal Market liquor",
    "lat": 34.241253,
    "long": -119.0211966,
    "gmapsCategory": "Convenience store"
  },
  {
    "type": "Liquor",
    "name": "Hi Way Market Liquor",
    "lat": 34.3991363,
    "long": -118.90545,
    "gmapsCategory": "Liquor store"
  },
  {
    "type": "Liquor",
    "name": "Papa s Lupe s Liquor",
    "lat": 34.3967065,
    "long": -118.9158976,
    "gmapsCategory": "Liquor store"
  },
  {
    "type": "Liquor",
    "name": "Tipsy Fox Grocery Deli",
    "lat": 34.3950684,
    "long": -118.928883,
    "gmapsCategory": "Grocery store"
  },
  {
    "type": "Liquor",
    "name": "House of Wine Liquor",
    "lat": 34.2781965,
    "long": -118.7622996,
    "gmapsCategory": "Liquor store"
  },
  {
    "type": "Liquor",
    "name": "Booze Brews",
    "lat": 34.2704885,
    "long": -118.7617816,
    "gmapsCategory": "Liquor store"
  },
  {
    "type": "Liquor",
    "name": "Handimart",
    "lat": 34.2855806,
    "long": -118.7170112,
    "gmapsCategory": "Liquor store"
  },
  {
    "type": "Liquor",
    "name": "George Liquor mini market",
    "lat": 34.271394,
    "long": -118.7636601,
    "gmapsCategory": "Liquor store"
  },
  {
    "type": "Liquor",
    "name": "Friendly Spirits Liquor",
    "lat": 34.2714567,
    "long": -118.7104567,
    "gmapsCategory": "Liquor store"
  },
  {
    "type": "Liquor",
    "name": "Booze Brews",
    "lat": 34.2774346,
    "long": -118.6624524,
    "gmapsCategory": "Liquor store"
  },
  {
    "type": "Liquor",
    "name": "J s Liquor Market Plaza",
    "lat": 34.2713832,
    "long": -118.6756415,
    "gmapsCategory": "Liquor store"
  },
  {
    "type": "Liquor",
    "name": "Larwin Square Liquors",
    "lat": 34.2721603,
    "long": -118.774585,
    "gmapsCategory": "Liquor store"
  },
  {
    "type": "Liquor",
    "name": "South West Market Liquor",
    "lat": 34.2713555,
    "long": -118.7706552,
    "gmapsCategory": "Liquor store"
  },
  {
    "type": "Liquor",
    "name": "Simi Valley Wine Spirits",
    "lat": 34.2616281,
    "long": -118.7480316,
    "gmapsCategory": "Liquor store"
  },
  {
    "type": "Liquor",
    "name": "Plaza Liquor and Gas",
    "lat": 34.2648752,
    "long": -118.7671147,
    "gmapsCategory": "Liquor store"
  },
  {
    "type": "Liquor",
    "name": "Yosemite Market Liquor",
    "lat": 34.2714323,
    "long": -118.68017,
    "gmapsCategory": "Liquor store"
  },
  {
    "type": "Liquor",
    "name": "Belwood Liquor",
    "lat": 34.2872932,
    "long": -118.7084682,
    "gmapsCategory": "Wine store"
  },
  {
    "type": "Liquor",
    "name": "Paul s Liquor Market ",
    "lat": 34.2850148,
    "long": -118.7172098,
    "gmapsCategory": "Liquor store"
  },
  {
    "type": "Liquor",
    "name": "Paradise Liquor Market",
    "lat": 34.2799171,
    "long": -118.6905263,
    "gmapsCategory": "Liquor store"
  },
  {
    "type": "Liquor",
    "name": "Sunflower Spirits",
    "lat": 34.2792975,
    "long": -118.7077776,
    "gmapsCategory": "Liquor store"
  },
  {
    "type": "Liquor",
    "name": "Paul s Liquor Market",
    "lat": 34.278213,
    "long": -118.744292,
    "gmapsCategory": "Liquor store"
  },
  {
    "type": "Liquor",
    "name": "Dss Liquor Market Simi Valley CA",
    "lat": 34.271484,
    "long": -118.7660986,
    "gmapsCategory": "Liquor store"
  },
  {
    "type": "Liquor",
    "name": "Paul E s Liquor Market ",
    "lat": 34.2806977,
    "long": -118.744746,
    "gmapsCategory": "Liquor store"
  },
  {
    "type": "Liquor",
    "name": "Sam s Liquor",
    "lat": 34.2784051,
    "long": -118.7093843,
    "gmapsCategory": "Liquor store"
  },
  {
    "type": "Liquor",
    "name": "Holiday Liquor",
    "lat": 34.275133,
    "long": -118.7097225,
    "gmapsCategory": "Liquor store"
  },
  {
    "type": "Liquor",
    "name": "See Me For Wine",
    "lat": 34.2731443,
    "long": -118.7072082,
    "gmapsCategory": "Wine store"
  },
  {
    "type": "Liquor",
    "name": "Tapo Liquor Check Cashing",
    "lat": 34.2804842,
    "long": -118.7084356,
    "gmapsCategory": "Liquor store"
  },
  {
    "type": "Liquor",
    "name": "Knolls Plaza Market",
    "lat": 34.2654388,
    "long": -118.6614445,
    "gmapsCategory": "Grocery store"
  },
  {
    "type": "Liquor",
    "name": "Convenient Food Mart",
    "lat": 34.2937477,
    "long": -118.7092357,
    "gmapsCategory": "Convenience store"
  },
  {
    "type": "Liquor",
    "name": "Simi liquor",
    "lat": 34.277425,
    "long": -118.6624703,
    "gmapsCategory": "Liquor store"
  },
  {
    "type": "Liquor",
    "name": "Dooly s Liquor Market",
    "lat": 34.386019,
    "long": -118.53251,
    "gmapsCategory": "Convenience store"
  },
  {
    "type": "Liquor",
    "name": "International Wines Liquor",
    "lat": 34.3792159,
    "long": -118.5462319,
    "gmapsCategory": "Liquor store"
  },
  {
    "type": "Liquor",
    "name": "Sunrise Spirits Food Co",
    "lat": 34.3925735,
    "long": -118.5608311,
    "gmapsCategory": "Liquor store"
  },
  {
    "type": "Liquor",
    "name": "Total Wine More",
    "lat": 34.4199908,
    "long": -118.5588266,
    "gmapsCategory": "Liquor store"
  },
  {
    "type": "Liquor",
    "name": "Kwik Stop Liquor",
    "lat": 34.4350777,
    "long": -118.5314654,
    "gmapsCategory": "Liquor store"
  },
  {
    "type": "Liquor",
    "name": "Friendly Market",
    "lat": 34.3991369,
    "long": -118.4738208,
    "gmapsCategory": "Liquor store"
  },
  {
    "type": "Liquor",
    "name": "Michael s Liquor",
    "lat": 34.4213393,
    "long": -118.4958444,
    "gmapsCategory": "Liquor store"
  },
  {
    "type": "Liquor",
    "name": "LIQUOR HUT",
    "lat": 34.4081064,
    "long": -118.462247,
    "gmapsCategory": "Liquor store"
  },
  {
    "type": "Liquor",
    "name": "Oak Tree Liquor Deli Grill Local and Small Business",
    "lat": 34.4446877,
    "long": -118.5078132,
    "gmapsCategory": "Liquor store"
  },
  {
    "type": "Liquor",
    "name": "Bouquet Plaza Liquor",
    "lat": 34.4535521,
    "long": -118.4953789,
    "gmapsCategory": "Liquor store"
  },
  {
    "type": "Liquor",
    "name": "Bonanza Liquor Market",
    "lat": 34.3786622,
    "long": -118.5281118,
    "gmapsCategory": "Liquor store"
  },
  {
    "type": "Liquor",
    "name": "Valencia Liquors",
    "lat": 34.380508,
    "long": -118.533956,
    "gmapsCategory": "Liquor store"
  },
  {
    "type": "Liquor",
    "name": "Kwik Pick Jr Market",
    "lat": 34.4426698,
    "long": -118.5116692,
    "gmapsCategory": "Liquor store"
  },
  {
    "type": "Liquor",
    "name": "Oak Tree Mini Mart",
    "lat": 34.4206562,
    "long": -118.4842113,
    "gmapsCategory": "Convenience store"
  },
  {
    "type": "Liquor",
    "name": "Placerita Liquor Store",
    "lat": 34.3801513,
    "long": -118.5288016,
    "gmapsCategory": "Liquor store"
  },
  {
    "type": "Liquor",
    "name": "Flying Tiger Liquor",
    "lat": 34.4077094,
    "long": -118.4601018,
    "gmapsCategory": "Liquor store"
  },
  {
    "type": "Liquor",
    "name": "Fox Liquor",
    "lat": 34.4174855,
    "long": -118.4767504,
    "gmapsCategory": "Liquor store"
  },
  {
    "type": "Liquor",
    "name": "MGA Liquor",
    "lat": 34.4218831,
    "long": -118.5464906,
    "gmapsCategory": "Liquor store"
  },
  {
    "type": "Liquor",
    "name": "Town Country Liquor Store",
    "lat": 34.3700184,
    "long": -118.5130436,
    "gmapsCategory": "Liquor store"
  },
  {
    "type": "Liquor",
    "name": "Country Liquor and Mart",
    "lat": 34.4156745,
    "long": -118.4649679,
    "gmapsCategory": "Liquor store"
  },
  {
    "type": "Liquor",
    "name": "Fast Stop Country Market",
    "lat": 34.4467389,
    "long": -118.661989,
    "gmapsCategory": "Liquor store"
  },
  {
    "type": "Liquor",
    "name": " Eleven",
    "lat": 34.4964305,
    "long": -118.6220121,
    "gmapsCategory": "Convenience store"
  },
  {
    "type": "Liquor",
    "name": "Lake Piru Recreation Area",
    "lat": 34.474615,
    "long": -118.761792,
    "gmapsCategory": ""
  },
  {
    "type": "Liquor",
    "name": "Sanchez Liquor",
    "lat": 34.4153,
    "long": -118.7915098,
    "gmapsCategory": "Liquor store"
  },
  {
    "type": "Liquor",
    "name": "Lizzettes market",
    "lat": 34.4193334,
    "long": -118.7901656,
    "gmapsCategory": "Convenience store"
  },
  {
    "type": "Liquor",
    "name": "Hasley Liquor Deli",
    "lat": 34.453432,
    "long": -118.616533,
    "gmapsCategory": "Liquor store"
  },
  {
    "type": "Liquor",
    "name": "Vipspirits",
    "lat": 34.4548313,
    "long": -118.5774934,
    "gmapsCategory": "Liquor store"
  },
  {
    "type": "Liquor",
    "name": "Young s Market Liquor",
    "lat": 34.4919931,
    "long": -118.6192096,
    "gmapsCategory": "Liquor store"
  },
  {
    "type": "Liquor",
    "name": "Seco Mini Market",
    "lat": 34.4605324,
    "long": -118.5337977,
    "gmapsCategory": "Convenience store"
  },
  {
    "type": "Liquor",
    "name": "Gallions Castaic Corner",
    "lat": 34.4912621,
    "long": -118.6175879,
    "gmapsCategory": "Convenience store"
  },
  {
    "type": "Liquor",
    "name": "Hasley Market Place",
    "lat": 34.453375,
    "long": -118.6164686,
    "gmapsCategory": ""
  },
  {
    "type": "Liquor",
    "name": "Mountain View Mini Mart",
    "lat": 34.8186778,
    "long": -119.0033505,
    "gmapsCategory": "Liquor store"
  },
  {
    "type": "Liquor",
    "name": "Sam s Liquor Junior Market",
    "lat": 34.818244,
    "long": -118.8861495,
    "gmapsCategory": "Liquor store"
  },
  {
    "type": "Liquor",
    "name": "Verdugo Market",
    "lat": 35.2093761,
    "long": -118.8246764,
    "gmapsCategory": "Convenience store"
  },
  {
    "type": "Liquor",
    "name": "Verdugo Market",
    "lat": 35.2093394,
    "long": -118.8274761,
    "gmapsCategory": ""
  },
  {
    "type": "Liquor",
    "name": "Fastrip",
    "lat": 35.2094957,
    "long": -118.8336864,
    "gmapsCategory": "Convenience store"
  },
  {
    "type": "Liquor",
    "name": "One stop liquor market",
    "lat": 35.238121,
    "long": -118.91478,
    "gmapsCategory": "One stop liquor&market"
  },
  {
    "type": "Liquor",
    "name": " Eleven",
    "lat": 35.2094873,
    "long": -118.8416331,
    "gmapsCategory": "Convenience store"
  },
  {
    "type": "Liquor",
    "name": "Verdugo Market",
    "lat": 35.0627197,
    "long": -118.9699892,
    "gmapsCategory": "Liquor store"
  },
  {
    "type": "Liquor",
    "name": "Greenacres Liquor",
    "lat": 35.382974,
    "long": -119.121085,
    "gmapsCategory": "Liquor store"
  },
  {
    "type": "Liquor",
    "name": "Hageman Liquor",
    "lat": 35.3977455,
    "long": -119.1121525,
    "gmapsCategory": "Liquor store"
  },
  {
    "type": "Liquor",
    "name": "Verdugo Market",
    "lat": 35.3988168,
    "long": -119.1194204,
    "gmapsCategory": "Liquor store"
  },
  {
    "type": "Liquor",
    "name": "J J Liquor",
    "lat": 35.3833096,
    "long": -119.1587224,
    "gmapsCategory": "Liquor store"
  },
  {
    "type": "Liquor",
    "name": "American Deli Liquor",
    "lat": 35.3531948,
    "long": -119.1459679,
    "gmapsCategory": "Liquor store"
  },
  {
    "type": "Liquor",
    "name": "JJ Liquor ",
    "lat": 35.3696237,
    "long": -119.1266545,
    "gmapsCategory": "Liquor store"
  },
  {
    "type": "Liquor",
    "name": "Calloway Market",
    "lat": 35.3857672,
    "long": -119.1094213,
    "gmapsCategory": "Liquor store"
  },
  {
    "type": "Liquor",
    "name": "BevMo ",
    "lat": 35.3514931,
    "long": -119.1222717,
    "gmapsCategory": "Wine store"
  },
  {
    "type": "Liquor",
    "name": "On The Vine",
    "lat": 35.3827272,
    "long": -119.1206719,
    "gmapsCategory": "Wine store"
  },
  {
    "type": "Liquor",
    "name": "Lucky Seven Food Store",
    "lat": 35.383734,
    "long": -119.1198392,
    "gmapsCategory": "Liquor store"
  },
  {
    "type": "Liquor",
    "name": "Fastrip",
    "lat": 35.3175868,
    "long": -119.0915195,
    "gmapsCategory": "Liquor store"
  },
  {
    "type": "Liquor",
    "name": "Sully s Stockdale",
    "lat": 35.3568855,
    "long": -119.0918004,
    "gmapsCategory": "Liquor store"
  },
  {
    "type": "Liquor",
    "name": "Sully s Buena Vista",
    "lat": 35.3110796,
    "long": -119.1286454,
    "gmapsCategory": ""
  },
  {
    "type": "Liquor",
    "name": "LE CAVE VIN CUISINE",
    "lat": 35.3549373,
    "long": -119.1434525,
    "gmapsCategory": "Wine bar"
  },
  {
    "type": "Liquor",
    "name": " Eleven",
    "lat": 35.296612,
    "long": -119.10947,
    "gmapsCategory": "Convenience store"
  },
  {
    "type": "Liquor",
    "name": " Eleven",
    "lat": 35.3840433,
    "long": -119.1459241,
    "gmapsCategory": "Convenience store"
  },
  {
    "type": "Liquor",
    "name": "Wine Me Up",
    "lat": 35.3952914,
    "long": -119.0909976,
    "gmapsCategory": "Wine bar"
  },
  {
    "type": "Liquor",
    "name": "Fastrip",
    "lat": 35.3691086,
    "long": -119.091792,
    "gmapsCategory": "Convenience store"
  },
  {
    "type": "Liquor",
    "name": "Center Market Shopping Center",
    "lat": 35.3826542,
    "long": -119.1203454,
    "gmapsCategory": ""
  },
  {
    "type": "Liquor",
    "name": "Sully s",
    "lat": 35.3401329,
    "long": -119.1301305,
    "gmapsCategory": "Liquor store"
  },
  {
    "type": "Liquor",
    "name": "Tommy s Liquors",
    "lat": 35.3319106,
    "long": -119.0142567,
    "gmapsCategory": "Liquor store"
  },
  {
    "type": "Liquor",
    "name": "BEVERAGE HOUSE LIQUOR",
    "lat": 35.3338471,
    "long": -119.0754393,
    "gmapsCategory": "Liquor store"
  },
  {
    "type": "Liquor",
    "name": "Super Liquor",
    "lat": 35.3320352,
    "long": -119.0475003,
    "gmapsCategory": "Liquor store"
  },
  {
    "type": "Liquor",
    "name": "Liquor Queen",
    "lat": 35.3320079,
    "long": -119.0565843,
    "gmapsCategory": "Liquor store"
  },
  {
    "type": "Liquor",
    "name": "Beacon Bar Liquor",
    "lat": 35.296369,
    "long": -119.0035162,
    "gmapsCategory": "Liquor store"
  },
  {
    "type": "Liquor",
    "name": "USA Liquor",
    "lat": 35.3333646,
    "long": -119.0027324,
    "gmapsCategory": "Liquor store"
  },
  {
    "type": "Liquor",
    "name": "Elite Market Liquor",
    "lat": 35.2676915,
    "long": -119.0025306,
    "gmapsCategory": "Liquor store"
  },
  {
    "type": "Liquor",
    "name": "Community Liquors",
    "lat": 35.3101756,
    "long": -119.0026448,
    "gmapsCategory": "Liquor store"
  },
  {
    "type": "Liquor",
    "name": "Freds Counrty Liquor Store",
    "lat": 35.2671733,
    "long": -119.0359707,
    "gmapsCategory": "Liquor store"
  },
  {
    "type": "Liquor",
    "name": "Lucky Seven",
    "lat": 35.3253908,
    "long": -119.0561841,
    "gmapsCategory": "Liquor store"
  },
  {
    "type": "Liquor",
    "name": "Sports Spirits",
    "lat": 35.3339079,
    "long": -119.075776,
    "gmapsCategory": "Cocktail bar"
  },
  {
    "type": "Liquor",
    "name": " stars liquor and market",
    "lat": 35.3319658,
    "long": -119.0217384,
    "gmapsCategory": "Liquor store"
  },
  {
    "type": "Liquor",
    "name": "Hollywood Market",
    "lat": 35.3247956,
    "long": -118.9917372,
    "gmapsCategory": "Grocery store"
  },
  {
    "type": "Liquor",
    "name": "Fastrip",
    "lat": 35.3100023,
    "long": -119.0036024,
    "gmapsCategory": "Liquor store"
  },
  {
    "type": "Liquor",
    "name": "Beverage house liquor ",
    "lat": 35.2955552,
    "long": -119.0034061,
    "gmapsCategory": "Liquor store"
  },
  {
    "type": "Liquor",
    "name": "Abraham Market Liquor",
    "lat": 35.2676869,
    "long": -119.0025184,
    "gmapsCategory": "Liquor store"
  },
  {
    "type": "Liquor",
    "name": "Fast Break",
    "lat": 35.3189254,
    "long": -119.055857,
    "gmapsCategory": "Convenience store"
  },
  {
    "type": "Liquor",
    "name": "Chester Liquor Market",
    "lat": 35.3245639,
    "long": -119.0094891,
    "gmapsCategory": "Convenience store"
  },
  {
    "type": "Liquor",
    "name": " gas station DBA Verdugo Market",
    "lat": 35.2663537,
    "long": -119.0662958,
    "gmapsCategory": "Liquor store"
  },
  {
    "type": "Liquor",
    "name": "Fastrip",
    "lat": 35.2964049,
    "long": -119.0216778,
    "gmapsCategory": "Liquor store"
  },
  {
    "type": "Liquor",
    "name": "Chevron Hillside Liquor",
    "lat": 35.3763116,
    "long": -118.9095504,
    "gmapsCategory": "Convenience store"
  },
  {
    "type": "Liquor",
    "name": "Verdugo Market",
    "lat": 35.3758355,
    "long": -118.9138777,
    "gmapsCategory": "Liquor store"
  },
  {
    "type": "Liquor",
    "name": "Food Mart Mini Mart And Gas Station",
    "lat": 35.3758902,
    "long": -118.9137988,
    "gmapsCategory": "\"Great convenience store.\""
  },
  {
    "type": "Liquor",
    "name": "Samco Food Store ",
    "lat": 35.3539286,
    "long": -118.913673,
    "gmapsCategory": "Liquor store"
  },
  {
    "type": "Liquor",
    "name": "Olive Drive Liquor",
    "lat": 35.41272,
    "long": -119.0595983,
    "gmapsCategory": "Liquor store"
  },
  {
    "type": "Liquor",
    "name": "Highland Manor Liquors",
    "lat": 35.4271884,
    "long": -119.0189366,
    "gmapsCategory": "Liquor store"
  },
  {
    "type": "Liquor",
    "name": "Panorama Liquors",
    "lat": 35.4087326,
    "long": -118.9846396,
    "gmapsCategory": "Liquor store"
  },
  {
    "type": "Liquor",
    "name": "Woodys Oildale Liquors Deli",
    "lat": 35.4146384,
    "long": -119.0207944,
    "gmapsCategory": "Liquor store"
  },
  {
    "type": "Liquor",
    "name": "SKYWAY LIQUOR GAS",
    "lat": 35.397078,
    "long": -119.0033615,
    "gmapsCategory": "Liquor store"
  },
  {
    "type": "Liquor",
    "name": "Fiesta Liquors",
    "lat": 35.3900081,
    "long": -118.9876708,
    "gmapsCategory": "Liquor store"
  },
  {
    "type": "Liquor",
    "name": "Verdugo Market Liquor",
    "lat": 35.4071464,
    "long": -118.9671325,
    "gmapsCategory": "Liquor store"
  },
  {
    "type": "Liquor",
    "name": "Alta Vista Liquor",
    "lat": 35.3945861,
    "long": -118.9937919,
    "gmapsCategory": "Liquor store"
  },
  {
    "type": "Liquor",
    "name": "Chester liquor",
    "lat": 35.4281617,
    "long": -119.0225,
    "gmapsCategory": "Liquor store"
  },
  {
    "type": "Liquor",
    "name": "E Z Stop Liquor Bakersfield",
    "lat": 35.4090071,
    "long": -119.0303092,
    "gmapsCategory": "Liquor store"
  },
  {
    "type": "Liquor",
    "name": "Verdugo market",
    "lat": 35.3970677,
    "long": -119.002397,
    "gmapsCategory": "Liquor store"
  },
  {
    "type": "Liquor",
    "name": "Anthony s Food Liquor",
    "lat": 35.4355037,
    "long": -119.0209716,
    "gmapsCategory": "Liquor store"
  },
  {
    "type": "Liquor",
    "name": "Country Club Deli Liquor",
    "lat": 35.3997431,
    "long": -118.9511005,
    "gmapsCategory": "Liquor store"
  },
  {
    "type": "Liquor",
    "name": "Liquor",
    "lat": 35.4418611,
    "long": -119.0754744,
    "gmapsCategory": "Liquor store"
  },
  {
    "type": "Liquor",
    "name": "Moes",
    "lat": 35.3906295,
    "long": -118.9927162,
    "gmapsCategory": "Liquor store"
  },
  {
    "type": "Liquor",
    "name": "MORE Less",
    "lat": 35.4152447,
    "long": -119.0215931,
    "gmapsCategory": "Convenience store"
  },
  {
    "type": "Liquor",
    "name": "Howard s Mini Mart",
    "lat": 35.3893314,
    "long": -118.9770873,
    "gmapsCategory": "Convenience store"
  },
  {
    "type": "Liquor",
    "name": "Ebt Liquor",
    "lat": 35.3901014,
    "long": -118.9877086,
    "gmapsCategory": "Liquor store"
  },
  {
    "type": "Liquor",
    "name": "Cigarette House",
    "lat": 35.4132278,
    "long": -119.0615965,
    "gmapsCategory": "\"Great Store awsome Selection"
  },
  {
    "type": "Liquor",
    "name": "Food Spot Market Liquor",
    "lat": 35.4144422,
    "long": -119.0297106,
    "gmapsCategory": "Liquor store"
  }
]